{
  "rate_centers": [
    {
      "country": "CA",
      "region": "NS",
      "exchange": "351955",
      "name": "ABBOTSHRBR",
      "full_name": "Abbotts Harbour",
      "lata": "888",
      "ilec_name": "MARITIME TELEGRAPH & TELEPHONE, LTD.",
      "lat": "43.701768",
      "long": "-65.784205",
      "closest_city": {
        "name": "Argyle",
        "distance_km": 12.13
      }
    },
    {
      "country": "CA",
      "region": "NS",
      "exchange": "351956",
      "name": "ABERCROMBI",
      "full_name": "Abercrombie",
      "lata": "888",
      "ilec_name": "MARITIME TELEGRAPH & TELEPHONE, LTD.",
      "lat": "45.582091",
      "long": "-62.639251",
      "closest_city": {
        "name": "New Glasgow",
        "distance_km": 1.27
      }
    },
    {
      "country": "CA",
      "region": "NS",
      "exchange": "351957",
      "name": "ABERDEEN",
      "full_name": "Aberdeen",
      "lata": "888",
      "ilec_name": "MARITIME TELEGRAPH & TELEPHONE, LTD.",
      "lat": "45.974207",
      "long": "-61.11313",
      "closest_city": {
        "name": "Inverness",
        "distance_km": 25.13
      }
    },
    {
      "country": "CA",
      "region": "NS",
      "exchange": "351958",
      "name": "ABRAMS RIV",
      "full_name": "Abrams River",
      "lata": "888",
      "ilec_name": "MARITIME TELEGRAPH & TELEPHONE, LTD.",
      "lat": "43.865288",
      "long": "-65.975973",
      "closest_city": {
        "name": "Yarmouth",
        "distance_km": 11.8
      }
    },
    {
      "country": "CA",
      "region": "NS",
      "exchange": "351959",
      "name": "ACACIAVL",
      "full_name": "Acaciaville",
      "lata": "888",
      "ilec_name": "MARITIME TELEGRAPH & TELEPHONE, LTD.",
      "lat": "44.607522",
      "long": "-65.763495",
      "closest_city": {
        "name": "Digby",
        "distance_km": 1.65
      }
    },
    {
      "country": "CA",
      "region": "NS",
      "exchange": "351960",
      "name": "ADMIRAL RK",
      "full_name": "Admiral Rock",
      "lata": "888",
      "ilec_name": "MARITIME TELEGRAPH & TELEPHONE, LTD.",
      "lat": "45.09154",
      "long": "-63.420782",
      "closest_city": {
        "name": "Stewiacke",
        "distance_km": 8.0
      }
    },
    {
      "country": "CA",
      "region": "NS",
      "exchange": "128600",
      "name": "ADVOCATE",
      "full_name": "Advocate",
      "lata": "888",
      "ilec_name": "MARITIME TELEGRAPH & TELEPHONE, LTD.",
      "lat": "45.332483",
      "long": "-64.761661",
      "closest_city": {
        "name": "Centreville",
        "distance_km": 29.29
      }
    },
    {
      "country": "CA",
      "region": "NS",
      "exchange": "351962",
      "name": "AFTON",
      "full_name": "Afton",
      "lata": "888",
      "ilec_name": "MARITIME TELEGRAPH & TELEPHONE, LTD.",
      "lat": "45.601944",
      "long": "-61.809076",
      "closest_city": {
        "name": "Antigonish",
        "distance_km": 13.65
      }
    },
    {
      "country": "CA",
      "region": "NS",
      "exchange": "351963",
      "name": "ALBA",
      "full_name": "Alba",
      "lata": "888",
      "ilec_name": "MARITIME TELEGRAPH & TELEPHONE, LTD.",
      "lat": "45.974207",
      "long": "-61.11313",
      "closest_city": {
        "name": "Inverness",
        "distance_km": 25.13
      }
    },
    {
      "country": "CA",
      "region": "NS",
      "exchange": "351964",
      "name": "ALBERT BDG",
      "full_name": "Albert Bridge",
      "lata": "888",
      "ilec_name": "MARITIME TELEGRAPH & TELEPHONE, LTD.",
      "lat": "46.149259",
      "long": "-60.180893",
      "closest_city": {
        "name": "Cape Breton",
        "distance_km": 1.49
      }
    },
    {
      "country": "CA",
      "region": "NS",
      "exchange": "351965",
      "name": "ALDERPOINT",
      "full_name": "Alder Point",
      "lata": "888",
      "ilec_name": "MARITIME TELEGRAPH & TELEPHONE, LTD.",
      "lat": "46.213896",
      "long": "-60.241923",
      "closest_city": {
        "name": "Cape Breton",
        "distance_km": 9.15
      }
    },
    {
      "country": "CA",
      "region": "NS",
      "exchange": "351966",
      "name": "ALDERSHOT",
      "full_name": "Aldershot",
      "lata": "888",
      "ilec_name": "MARITIME TELEGRAPH & TELEPHONE, LTD.",
      "lat": "45.075722",
      "long": "-64.499909",
      "closest_city": {
        "name": "Kentville",
        "distance_km": 0.38
      }
    },
    {
      "country": "CA",
      "region": "NS",
      "exchange": "351967",
      "name": "ALDERSVL",
      "full_name": "Aldersville",
      "lata": "888",
      "ilec_name": "MARITIME TELEGRAPH & TELEPHONE, LTD.",
      "lat": "45.075722",
      "long": "-64.499909",
      "closest_city": {
        "name": "Kentville",
        "distance_km": 0.38
      }
    },
    {
      "country": "CA",
      "region": "NS",
      "exchange": "351968",
      "name": "ALLENDALE",
      "full_name": "Allendale",
      "lata": "888",
      "ilec_name": "MARITIME TELEGRAPH & TELEPHONE, LTD.",
      "lat": "43.700489",
      "long": "-65.115618",
      "closest_city": {
        "name": "Shelburne",
        "distance_km": 18.11
      }
    },
    {
      "country": "CA",
      "region": "NS",
      "exchange": "351969",
      "name": "ALLENS CRK",
      "full_name": "Allens Creek",
      "lata": "888",
      "ilec_name": "MARITIME TELEGRAPH & TELEPHONE, LTD.",
      "lat": "44.733177",
      "long": "-65.530935",
      "closest_city": {
        "name": "Digby",
        "distance_km": 21.96
      }
    },
    {
      "country": "CA",
      "region": "NS",
      "exchange": "351970",
      "name": "ALMA",
      "full_name": "Alma",
      "lata": "888",
      "ilec_name": "MARITIME TELEGRAPH & TELEPHONE, LTD.",
      "lat": "45.582091",
      "long": "-62.639251",
      "closest_city": {
        "name": "New Glasgow",
        "distance_km": 1.27
      }
    },
    {
      "country": "CA",
      "region": "NS",
      "exchange": "351971",
      "name": "ALTNCLCHSR",
      "full_name": "Alton (Colchester)",
      "lata": "888",
      "ilec_name": "MARITIME TELEGRAPH & TELEPHONE, LTD.",
      "lat": "45.142164",
      "long": "-63.346985",
      "closest_city": {
        "name": "Stewiacke",
        "distance_km": 0.1
      }
    },
    {
      "country": "CA",
      "region": "NS",
      "exchange": "351972",
      "name": "ALTONKINGS",
      "full_name": "Alton (Kings)",
      "lata": "888",
      "ilec_name": "MARITIME TELEGRAPH & TELEPHONE, LTD.",
      "lat": "45.075722",
      "long": "-64.499909",
      "closest_city": {
        "name": "Kentville",
        "distance_km": 0.38
      }
    },
    {
      "country": "CA",
      "region": "NS",
      "exchange": "128610",
      "name": "AMHERST",
      "full_name": "Amherst",
      "lata": "888",
      "ilec_name": "MARITIME TELEGRAPH & TELEPHONE, LTD.",
      "lat": "45.834942",
      "long": "-64.206331",
      "closest_city": {
        "name": "Amherst",
        "distance_km": 2.18
      }
    },
    {
      "country": "CA",
      "region": "NS",
      "exchange": "351974",
      "name": "AMHERSTHED",
      "full_name": "Amherst Head",
      "lata": "888",
      "ilec_name": "MARITIME TELEGRAPH & TELEPHONE, LTD.",
      "lat": "45.834942",
      "long": "-64.206331",
      "closest_city": {
        "name": "Amherst",
        "distance_km": 2.18
      }
    },
    {
      "country": "CA",
      "region": "NS",
      "exchange": "351975",
      "name": "AMIRAULTHL",
      "full_name": "Amirault Hill",
      "lata": "888",
      "ilec_name": "MARITIME TELEGRAPH & TELEPHONE, LTD.",
      "lat": "43.865288",
      "long": "-65.975973",
      "closest_city": {
        "name": "Yarmouth",
        "distance_km": 11.8
      }
    },
    {
      "country": "CA",
      "region": "NS",
      "exchange": "128620",
      "name": "ANAPLSROYL",
      "full_name": "Annapolis Royal",
      "lata": "888",
      "ilec_name": "MARITIME TELEGRAPH & TELEPHONE, LTD.",
      "lat": "44.733177",
      "long": "-65.530935",
      "closest_city": {
        "name": "Digby",
        "distance_km": 21.96
      }
    },
    {
      "country": "CA",
      "region": "NS",
      "exchange": "128630",
      "name": "ANTIGONISH",
      "full_name": "Antigonish",
      "lata": "888",
      "ilec_name": "MARITIME TELEGRAPH & TELEPHONE, LTD.",
      "lat": "45.616867",
      "long": "-61.984727",
      "closest_city": {
        "name": "Antigonish",
        "distance_km": 0.11
      }
    },
    {
      "country": "CA",
      "region": "NS",
      "exchange": "351978",
      "name": "ANTRIM",
      "full_name": "Antrim",
      "lata": "888",
      "ilec_name": "MARITIME TELEGRAPH & TELEPHONE, LTD.",
      "lat": "45.050449",
      "long": "-63.150173",
      "closest_city": {
        "name": "Stewiacke",
        "distance_km": 18.6
      }
    },
    {
      "country": "CA",
      "region": "NS",
      "exchange": "351979",
      "name": "APPLERIVER",
      "full_name": "Apple River",
      "lata": "888",
      "ilec_name": "MARITIME TELEGRAPH & TELEPHONE, LTD.",
      "lat": "45.332483",
      "long": "-64.761661",
      "closest_city": {
        "name": "Centreville",
        "distance_km": 29.29
      }
    },
    {
      "country": "CA",
      "region": "NS",
      "exchange": "351980",
      "name": "ARCADIA",
      "full_name": "Arcadia",
      "lata": "888",
      "ilec_name": "MARITIME TELEGRAPH & TELEPHONE, LTD.",
      "lat": "43.832739",
      "long": "-66.122859",
      "closest_city": {
        "name": "Yarmouth",
        "distance_km": 0.57
      }
    },
    {
      "country": "CA",
      "region": "NS",
      "exchange": "351981",
      "name": "ARDNESS",
      "full_name": "Ardness",
      "lata": "888",
      "ilec_name": "MARITIME TELEGRAPH & TELEPHONE, LTD.",
      "lat": "45.631028",
      "long": "-62.434108",
      "closest_city": {
        "name": "Trenton",
        "distance_km": 15.54
      }
    },
    {
      "country": "CA",
      "region": "NS",
      "exchange": "351982",
      "name": "ARDOISE",
      "full_name": "Ardoise (Hants)",
      "lata": "888",
      "ilec_name": "MARITIME TELEGRAPH & TELEPHONE, LTD.",
      "lat": "45.007041",
      "long": "-64.017351",
      "closest_city": {
        "name": "Windsor",
        "distance_km": 9.28
      }
    },
    {
      "country": "CA",
      "region": "NS",
      "exchange": "351983",
      "name": "ARDOISHLFX",
      "full_name": "Ardoise (Halifax)",
      "lata": "888",
      "ilec_name": "MARITIME TELEGRAPH & TELEPHONE, LTD.",
      "lat": "44.900538",
      "long": "-63.833523",
      "closest_city": {
        "name": "Windsor",
        "distance_km": 24.9
      }
    },
    {
      "country": "CA",
      "region": "NS",
      "exchange": "128640",
      "name": "ARGYLE",
      "full_name": "Argyle",
      "lata": "888",
      "ilec_name": "MARITIME TELEGRAPH & TELEPHONE, LTD.",
      "lat": "43.792343",
      "long": "-65.846677",
      "closest_city": {
        "name": "Argyle",
        "distance_km": 0.89
      }
    },
    {
      "country": "CA",
      "region": "NS",
      "exchange": "351985",
      "name": "ARGYLESOND",
      "full_name": "Argyle Sound",
      "lata": "888",
      "ilec_name": "MARITIME TELEGRAPH & TELEPHONE, LTD.",
      "lat": "43.701768",
      "long": "-65.784205",
      "closest_city": {
        "name": "Argyle",
        "distance_km": 12.13
      }
    },
    {
      "country": "CA",
      "region": "NS",
      "exchange": "128650",
      "name": "ARICHAT",
      "full_name": "Arichat",
      "lata": "888",
      "ilec_name": "MARITIME TELEGRAPH & TELEPHONE, LTD.",
      "lat": "45.519085",
      "long": "-61.025065",
      "closest_city": {
        "name": "Port Hawkesbury",
        "distance_km": 28.49
      }
    },
    {
      "country": "CA",
      "region": "NS",
      "exchange": "351987",
      "name": "ARISAIG",
      "full_name": "Arisaig",
      "lata": "888",
      "ilec_name": "MARITIME TELEGRAPH & TELEPHONE, LTD.",
      "lat": "45.616867",
      "long": "-61.984727",
      "closest_city": {
        "name": "Antigonish",
        "distance_km": 0.11
      }
    },
    {
      "country": "CA",
      "region": "NS",
      "exchange": "351988",
      "name": "ARLINGTON",
      "full_name": "Arlington",
      "lata": "888",
      "ilec_name": "MARITIME TELEGRAPH & TELEPHONE, LTD.",
      "lat": "45.158894",
      "long": "-64.418301",
      "closest_city": {
        "name": "Centreville",
        "distance_km": 8.77
      }
    },
    {
      "country": "CA",
      "region": "NS",
      "exchange": "351989",
      "name": "ARMDALE",
      "full_name": "Armdale",
      "lata": "888",
      "ilec_name": "MARITIME TELEGRAPH & TELEPHONE, LTD.",
      "lat": "44.651753",
      "long": "-63.581629",
      "closest_city": {
        "name": "Halifax",
        "distance_km": 0.85
      }
    },
    {
      "country": "CA",
      "region": "NS",
      "exchange": "351990",
      "name": "ASHMORE",
      "full_name": "Ashmore",
      "lata": "888",
      "ilec_name": "MARITIME TELEGRAPH & TELEPHONE, LTD.",
      "lat": "44.417811",
      "long": "-65.992154",
      "closest_city": {
        "name": "Church Point",
        "distance_km": 13.65
      }
    },
    {
      "country": "CA",
      "region": "NS",
      "exchange": "351991",
      "name": "ASPEN",
      "full_name": "Aspen",
      "lata": "888",
      "ilec_name": "MARITIME TELEGRAPH & TELEPHONE, LTD.",
      "lat": "45.37714",
      "long": "-61.974187",
      "closest_city": {
        "name": "Antigonish",
        "distance_km": 26.65
      }
    },
    {
      "country": "CA",
      "region": "NS",
      "exchange": "351992",
      "name": "ASPOTOGAN",
      "full_name": "Aspotogan",
      "lata": "888",
      "ilec_name": "MARITIME TELEGRAPH & TELEPHONE, LTD.",
      "lat": "44.490501",
      "long": "-64.108589",
      "closest_city": {
        "name": "Lunenburg",
        "distance_km": 20.37
      }
    },
    {
      "country": "CA",
      "region": "NS",
      "exchange": "351993",
      "name": "ASPY BAY",
      "full_name": "Aspy Bay",
      "lata": "888",
      "ilec_name": "MARITIME TELEGRAPH & TELEPHONE, LTD.",
      "lat": "46.892385",
      "long": "-60.438208",
      "closest_city": {
        "name": "Cape Breton",
        "distance_km": 85.86
      }
    },
    {
      "country": "CA",
      "region": "NS",
      "exchange": "351994",
      "name": "ATHOL",
      "full_name": "Athol",
      "lata": "888",
      "ilec_name": "MARITIME TELEGRAPH & TELEPHONE, LTD.",
      "lat": "45.590873",
      "long": "-64.256169",
      "closest_city": {
        "name": "Parrsboro",
        "distance_km": 22.04
      }
    },
    {
      "country": "CA",
      "region": "NS",
      "exchange": "351995",
      "name": "ATHOL ROAD",
      "full_name": "Athol Road",
      "lata": "888",
      "ilec_name": "MARITIME TELEGRAPH & TELEPHONE, LTD.",
      "lat": "45.652258",
      "long": "-64.066371",
      "closest_city": {
        "name": "Oxford",
        "distance_km": 17.34
      }
    },
    {
      "country": "CA",
      "region": "NS",
      "exchange": "351996",
      "name": "ATLANTA",
      "full_name": "Atlanta",
      "lata": "888",
      "ilec_name": "MARITIME TELEGRAPH & TELEPHONE, LTD.",
      "lat": "45.158894",
      "long": "-64.418301",
      "closest_city": {
        "name": "Centreville",
        "distance_km": 8.77
      }
    },
    {
      "country": "CA",
      "region": "NS",
      "exchange": "351997",
      "name": "ATLANTIC",
      "full_name": "Atlantic",
      "lata": "888",
      "ilec_name": "MARITIME TELEGRAPH & TELEPHONE, LTD.",
      "lat": "43.557482",
      "long": "-65.576227",
      "closest_city": {
        "name": "Barrington",
        "distance_km": 1.27
      }
    },
    {
      "country": "CA",
      "region": "NS",
      "exchange": "351998",
      "name": "ATWOODSBRK",
      "full_name": "Atwoods Brook",
      "lata": "888",
      "ilec_name": "MARITIME TELEGRAPH & TELEPHONE, LTD.",
      "lat": "43.550559",
      "long": "-65.732592",
      "closest_city": {
        "name": "Barrington",
        "distance_km": 13.68
      }
    },
    {
      "country": "CA",
      "region": "NS",
      "exchange": "351999",
      "name": "AUBURN",
      "full_name": "Auburn",
      "lata": "888",
      "ilec_name": "MARITIME TELEGRAPH & TELEPHONE, LTD.",
      "lat": "45.033585",
      "long": "-64.838861",
      "closest_city": {
        "name": "Berwick",
        "distance_km": 8.23
      }
    },
    {
      "country": "CA",
      "region": "NS",
      "exchange": "352000",
      "name": "AUBURNDALE",
      "full_name": "Auburndale",
      "lata": "888",
      "ilec_name": "MARITIME TELEGRAPH & TELEPHONE, LTD.",
      "lat": "44.365896",
      "long": "-64.52441",
      "closest_city": {
        "name": "Bridgewater",
        "distance_km": 0.58
      }
    },
    {
      "country": "CA",
      "region": "NS",
      "exchange": "352001",
      "name": "AULD COVE",
      "full_name": "Auld Cove",
      "lata": "888",
      "ilec_name": "MARITIME TELEGRAPH & TELEPHONE, LTD.",
      "lat": "45.608127",
      "long": "-61.400809",
      "closest_city": {
        "name": "Port Hawkesbury",
        "distance_km": 2.96
      }
    },
    {
      "country": "CA",
      "region": "NS",
      "exchange": "352002",
      "name": "AVONDLPCTU",
      "full_name": "Avondale (Pictou)",
      "lata": "888",
      "ilec_name": "MARITIME TELEGRAPH & TELEPHONE, LTD.",
      "lat": "45.631028",
      "long": "-62.434108",
      "closest_city": {
        "name": "Trenton",
        "distance_km": 15.54
      }
    },
    {
      "country": "CA",
      "region": "NS",
      "exchange": "352003",
      "name": "AVONPORT",
      "full_name": "Avonport",
      "lata": "888",
      "ilec_name": "MARITIME TELEGRAPH & TELEPHONE, LTD.",
      "lat": "45.092888",
      "long": "-64.36695",
      "closest_city": {
        "name": "Wolfville",
        "distance_km": 1.07
      }
    },
    {
      "country": "CA",
      "region": "NS",
      "exchange": "128660",
      "name": "AYLESFORD",
      "full_name": "Aylesford",
      "lata": "888",
      "ilec_name": "MARITIME TELEGRAPH & TELEPHONE, LTD.",
      "lat": "45.033585",
      "long": "-64.838861",
      "closest_city": {
        "name": "Berwick",
        "distance_km": 8.23
      }
    },
    {
      "country": "CA",
      "region": "NS",
      "exchange": "128670",
      "name": "BADDECK",
      "full_name": "Baddeck",
      "lata": "888",
      "ilec_name": "MARITIME TELEGRAPH & TELEPHONE, LTD.",
      "lat": "46.110659",
      "long": "-60.740749",
      "closest_city": {
        "name": "Inverness",
        "distance_km": 29.4
      }
    },
    {
      "country": "CA",
      "region": "NS",
      "exchange": "352006",
      "name": "BAILEYSBRK",
      "full_name": "Baileys Brook",
      "lata": "888",
      "ilec_name": "MARITIME TELEGRAPH & TELEPHONE, LTD.",
      "lat": "45.631028",
      "long": "-62.434108",
      "closest_city": {
        "name": "Trenton",
        "distance_km": 15.54
      }
    },
    {
      "country": "CA",
      "region": "NS",
      "exchange": "352007",
      "name": "BAKRSTLMNT",
      "full_name": "Bakers Settlement",
      "lata": "888",
      "ilec_name": "MARITIME TELEGRAPH & TELEPHONE, LTD.",
      "lat": "44.35009",
      "long": "-64.759923",
      "closest_city": {
        "name": "Bridgewater",
        "distance_km": 19.2
      }
    },
    {
      "country": "CA",
      "region": "NS",
      "exchange": "352008",
      "name": "BALANTNSCV",
      "full_name": "Ballantynes Cove",
      "lata": "888",
      "ilec_name": "MARITIME TELEGRAPH & TELEPHONE, LTD.",
      "lat": "45.616867",
      "long": "-61.984727",
      "closest_city": {
        "name": "Antigonish",
        "distance_km": 0.11
      }
    },
    {
      "country": "CA",
      "region": "NS",
      "exchange": "352009",
      "name": "BALD ROCK",
      "full_name": "Bald Rock",
      "lata": "888",
      "ilec_name": "MARITIME TELEGRAPH & TELEPHONE, LTD.",
      "lat": "44.484249",
      "long": "-63.55857",
      "closest_city": {
        "name": "Halifax",
        "distance_km": 18.33
      }
    },
    {
      "country": "CA",
      "region": "NS",
      "exchange": "352010",
      "name": "BALFRON",
      "full_name": "Balfron",
      "lata": "888",
      "ilec_name": "MARITIME TELEGRAPH & TELEPHONE, LTD.",
      "lat": "45.707792",
      "long": "-63.300399",
      "closest_city": {
        "name": "Truro",
        "distance_km": 38.18
      }
    },
    {
      "country": "CA",
      "region": "NS",
      "exchange": "352011",
      "name": "BALLSCREEK",
      "full_name": "Balls Creek",
      "lata": "888",
      "ilec_name": "MARITIME TELEGRAPH & TELEPHONE, LTD.",
      "lat": "46.213896",
      "long": "-60.241923",
      "closest_city": {
        "name": "Cape Breton",
        "distance_km": 9.15
      }
    },
    {
      "country": "CA",
      "region": "NS",
      "exchange": "352012",
      "name": "BALMORAL",
      "full_name": "Balmoral",
      "lata": "888",
      "ilec_name": "MARITIME TELEGRAPH & TELEPHONE, LTD.",
      "lat": "45.707792",
      "long": "-63.300399",
      "closest_city": {
        "name": "Truro",
        "distance_km": 38.18
      }
    },
    {
      "country": "CA",
      "region": "NS",
      "exchange": "352013",
      "name": "BANGSFALLS",
      "full_name": "Bangs Falls",
      "lata": "888",
      "ilec_name": "MARITIME TELEGRAPH & TELEPHONE, LTD.",
      "lat": "44.35009",
      "long": "-64.759923",
      "closest_city": {
        "name": "Bridgewater",
        "distance_km": 19.2
      }
    },
    {
      "country": "CA",
      "region": "NS",
      "exchange": "352014",
      "name": "BARNEYSRIV",
      "full_name": "Barneys River",
      "lata": "888",
      "ilec_name": "MARITIME TELEGRAPH & TELEPHONE, LTD.",
      "lat": "45.591649",
      "long": "-62.268298",
      "closest_city": {
        "name": "Antigonish",
        "distance_km": 22.35
      }
    },
    {
      "country": "CA",
      "region": "NS",
      "exchange": "352015",
      "name": "BARNSRVSTA",
      "full_name": "Barneys River Station",
      "lata": "888",
      "ilec_name": "MARITIME TELEGRAPH & TELEPHONE, LTD.",
      "lat": "45.582091",
      "long": "-62.639251",
      "closest_city": {
        "name": "New Glasgow",
        "distance_km": 1.27
      }
    },
    {
      "country": "CA",
      "region": "NS",
      "exchange": "352016",
      "name": "BARRA GLEN",
      "full_name": "Barra Glen",
      "lata": "888",
      "ilec_name": "MARITIME TELEGRAPH & TELEPHONE, LTD.",
      "lat": "45.965688",
      "long": "-60.730799",
      "closest_city": {
        "name": "Inverness",
        "distance_km": 38.6
      }
    },
    {
      "country": "CA",
      "region": "NS",
      "exchange": "352017",
      "name": "BARRA HEAD",
      "full_name": "Barra Head",
      "lata": "888",
      "ilec_name": "MARITIME TELEGRAPH & TELEPHONE, LTD.",
      "lat": "45.657683",
      "long": "-60.883357",
      "closest_city": {
        "name": "Port Hawkesbury",
        "distance_km": 37.68
      }
    },
    {
      "country": "CA",
      "region": "NS",
      "exchange": "352018",
      "name": "BARRENROAD",
      "full_name": "Barren Road",
      "lata": "888",
      "ilec_name": "MARITIME TELEGRAPH & TELEPHONE, LTD.",
      "lat": "46.149259",
      "long": "-60.180893",
      "closest_city": {
        "name": "Cape Breton",
        "distance_km": 1.49
      }
    },
    {
      "country": "CA",
      "region": "NS",
      "exchange": "128680",
      "name": "BARRINGTON",
      "full_name": "Barrington",
      "lata": "888",
      "ilec_name": "MARITIME TELEGRAPH & TELEPHONE, LTD.",
      "lat": "43.557482",
      "long": "-65.576227",
      "closest_city": {
        "name": "Barrington",
        "distance_km": 1.27
      }
    },
    {
      "country": "CA",
      "region": "NS",
      "exchange": "352020",
      "name": "BARRIOSBCH",
      "full_name": "Barrios Beach",
      "lata": "888",
      "ilec_name": "MARITIME TELEGRAPH & TELEPHONE, LTD.",
      "lat": "45.608587",
      "long": "-61.618727",
      "closest_city": {
        "name": "Port Hawkesbury",
        "distance_km": 19.81
      }
    },
    {
      "country": "CA",
      "region": "NS",
      "exchange": "352021",
      "name": "BARRONSFLD",
      "full_name": "Barronsfield",
      "lata": "888",
      "ilec_name": "MARITIME TELEGRAPH & TELEPHONE, LTD.",
      "lat": "45.691215",
      "long": "-64.377459",
      "closest_city": {
        "name": "Amherst",
        "distance_km": 18.72
      }
    },
    {
      "country": "CA",
      "region": "NS",
      "exchange": "352022",
      "name": "BARRYS ML",
      "full_name": "Barrys Mills",
      "lata": "888",
      "ilec_name": "MARITIME TELEGRAPH & TELEPHONE, LTD.",
      "lat": "45.683553",
      "long": "-62.711221",
      "closest_city": {
        "name": "Pictou",
        "distance_km": 0.25
      }
    },
    {
      "country": "CA",
      "region": "NS",
      "exchange": "352023",
      "name": "BARSS COR",
      "full_name": "Barss Corner",
      "lata": "888",
      "ilec_name": "MARITIME TELEGRAPH & TELEPHONE, LTD.",
      "lat": "44.550387",
      "long": "-64.714476",
      "closest_city": {
        "name": "Bridgewater",
        "distance_km": 25.31
      }
    },
    {
      "country": "CA",
      "region": "NS",
      "exchange": "352024",
      "name": "BARTON",
      "full_name": "Barton",
      "lata": "888",
      "ilec_name": "MARITIME TELEGRAPH & TELEPHONE, LTD.",
      "lat": "44.607522",
      "long": "-65.763495",
      "closest_city": {
        "name": "Digby",
        "distance_km": 1.65
      }
    },
    {
      "country": "CA",
      "region": "NS",
      "exchange": "128690",
      "name": "BASS RIVER",
      "full_name": "Bass River",
      "lata": "888",
      "ilec_name": "MARITIME TELEGRAPH & TELEPHONE, LTD.",
      "lat": "45.410002",
      "long": "-63.783795",
      "closest_city": {
        "name": "Oxford",
        "distance_km": 36.32
      }
    },
    {
      "country": "CA",
      "region": "NS",
      "exchange": "352026",
      "name": "BATESTON",
      "full_name": "Bateston",
      "lata": "888",
      "ilec_name": "MARITIME TELEGRAPH & TELEPHONE, LTD.",
      "lat": "45.923596",
      "long": "-59.991422",
      "closest_city": {
        "name": "Cape Breton",
        "distance_km": 28.56
      }
    },
    {
      "country": "CA",
      "region": "NS",
      "exchange": "352027",
      "name": "BAULINE",
      "full_name": "Bauline",
      "lata": "888",
      "ilec_name": "MARITIME TELEGRAPH & TELEPHONE, LTD.",
      "lat": "45.923596",
      "long": "-59.991422",
      "closest_city": {
        "name": "Cape Breton",
        "distance_km": 28.56
      }
    },
    {
      "country": "CA",
      "region": "NS",
      "exchange": "352028",
      "name": "BAXTER HBR",
      "full_name": "Baxter Harbor",
      "lata": "888",
      "ilec_name": "MARITIME TELEGRAPH & TELEPHONE, LTD.",
      "lat": "45.158894",
      "long": "-64.418301",
      "closest_city": {
        "name": "Centreville",
        "distance_km": 8.77
      }
    },
    {
      "country": "CA",
      "region": "NS",
      "exchange": "352029",
      "name": "BAY HEAD",
      "full_name": "Bay Head",
      "lata": "888",
      "ilec_name": "MARITIME TELEGRAPH & TELEPHONE, LTD.",
      "lat": "45.707792",
      "long": "-63.300399",
      "closest_city": {
        "name": "Truro",
        "distance_km": 38.18
      }
    },
    {
      "country": "CA",
      "region": "NS",
      "exchange": "352030",
      "name": "BAY POINT",
      "full_name": "Bay Point",
      "lata": "888",
      "ilec_name": "MARITIME TELEGRAPH & TELEPHONE, LTD.",
      "lat": "43.550559",
      "long": "-65.732592",
      "closest_city": {
        "name": "Barrington",
        "distance_km": 13.68
      }
    },
    {
      "country": "CA",
      "region": "NS",
      "exchange": "352031",
      "name": "BAY PORT",
      "full_name": "Bay Port",
      "lata": "888",
      "ilec_name": "MARITIME TELEGRAPH & TELEPHONE, LTD.",
      "lat": "44.298602",
      "long": "-64.314659",
      "closest_city": {
        "name": "Lunenburg",
        "distance_km": 9.42
      }
    },
    {
      "country": "CA",
      "region": "NS",
      "exchange": "129084",
      "name": "BAY ROAD",
      "full_name": "Bay Road",
      "lata": "888",
      "ilec_name": "MARITIME TELEGRAPH & TELEPHONE, LTD.",
      "lat": "44.651753",
      "long": "-63.581629",
      "closest_city": {
        "name": "Halifax",
        "distance_km": 0.85
      }
    },
    {
      "country": "CA",
      "region": "NS",
      "exchange": "352033",
      "name": "BAYFIELD",
      "full_name": "Bayfield",
      "lata": "888",
      "ilec_name": "MARITIME TELEGRAPH & TELEPHONE, LTD.",
      "lat": "45.601944",
      "long": "-61.809076",
      "closest_city": {
        "name": "Antigonish",
        "distance_km": 13.65
      }
    },
    {
      "country": "CA",
      "region": "NS",
      "exchange": "352034",
      "name": "BAYRSTLMNT",
      "full_name": "Bayers Settlement",
      "lata": "888",
      "ilec_name": "MARITIME TELEGRAPH & TELEPHONE, LTD.",
      "lat": "44.79139",
      "long": "-63.152259",
      "closest_city": {
        "name": "Lantz",
        "distance_km": 33.55
      }
    },
    {
      "country": "CA",
      "region": "NS",
      "exchange": "352035",
      "name": "BAYSIDE",
      "full_name": "Bayside",
      "lata": "888",
      "ilec_name": "MARITIME TELEGRAPH & TELEPHONE, LTD.",
      "lat": "44.54978",
      "long": "-63.763453",
      "closest_city": {
        "name": "Halifax",
        "distance_km": 17.47
      }
    },
    {
      "country": "CA",
      "region": "NS",
      "exchange": "352036",
      "name": "BAYSWATER",
      "full_name": "Bayswater",
      "lata": "888",
      "ilec_name": "MARITIME TELEGRAPH & TELEPHONE, LTD.",
      "lat": "44.490501",
      "long": "-64.108589",
      "closest_city": {
        "name": "Lunenburg",
        "distance_km": 20.37
      }
    },
    {
      "country": "CA",
      "region": "NS",
      "exchange": "352037",
      "name": "BCHMEADOWS",
      "full_name": "Beach Meadows",
      "lata": "888",
      "ilec_name": "MARITIME TELEGRAPH & TELEPHONE, LTD.",
      "lat": "44.033778",
      "long": "-64.716051",
      "closest_city": {
        "name": "Queens",
        "distance_km": 0.07
      }
    },
    {
      "country": "CA",
      "region": "NS",
      "exchange": "352038",
      "name": "BCHSCLCHSR",
      "full_name": "Barachois (Colchester)",
      "lata": "888",
      "ilec_name": "MARITIME TELEGRAPH & TELEPHONE, LTD.",
      "lat": "45.707792",
      "long": "-63.300399",
      "closest_city": {
        "name": "Truro",
        "distance_km": 38.18
      }
    },
    {
      "country": "CA",
      "region": "NS",
      "exchange": "352039",
      "name": "BEACONHILL",
      "full_name": "Beacon Hill",
      "lata": "888",
      "ilec_name": "MARITIME TELEGRAPH & TELEPHONE, LTD.",
      "lat": "45.707792",
      "long": "-63.300399",
      "closest_city": {
        "name": "Truro",
        "distance_km": 38.18
      }
    },
    {
      "country": "CA",
      "region": "NS",
      "exchange": "352040",
      "name": "BEACONSFLD",
      "full_name": "Beaconsfield",
      "lata": "888",
      "ilec_name": "MARITIME TELEGRAPH & TELEPHONE, LTD.",
      "lat": "44.848657",
      "long": "-65.301552",
      "closest_city": {
        "name": "Middleton",
        "distance_km": 21.07
      }
    },
    {
      "country": "CA",
      "region": "NS",
      "exchange": "352041",
      "name": "BEAR COVE",
      "full_name": "Bear Cove",
      "lata": "888",
      "ilec_name": "MARITIME TELEGRAPH & TELEPHONE, LTD.",
      "lat": "44.484249",
      "long": "-63.55857",
      "closest_city": {
        "name": "Halifax",
        "distance_km": 18.33
      }
    },
    {
      "country": "CA",
      "region": "NS",
      "exchange": "352042",
      "name": "BEAR POINT",
      "full_name": "Bear Point",
      "lata": "888",
      "ilec_name": "MARITIME TELEGRAPH & TELEPHONE, LTD.",
      "lat": "43.550559",
      "long": "-65.732592",
      "closest_city": {
        "name": "Barrington",
        "distance_km": 13.68
      }
    },
    {
      "country": "CA",
      "region": "NS",
      "exchange": "128700",
      "name": "BEAR RIVER",
      "full_name": "Bear River",
      "lata": "888",
      "ilec_name": "MARITIME TELEGRAPH & TELEPHONE, LTD.",
      "lat": "44.565729",
      "long": "-65.643478",
      "closest_city": {
        "name": "Digby",
        "distance_km": 11.2
      }
    },
    {
      "country": "CA",
      "region": "NS",
      "exchange": "352044",
      "name": "BEAULY",
      "full_name": "Beauly",
      "lata": "888",
      "ilec_name": "MARITIME TELEGRAPH & TELEPHONE, LTD.",
      "lat": "45.616867",
      "long": "-61.984727",
      "closest_city": {
        "name": "Antigonish",
        "distance_km": 0.11
      }
    },
    {
      "country": "CA",
      "region": "NS",
      "exchange": "352045",
      "name": "BEAVER BRK",
      "full_name": "Beaver Brook",
      "lata": "888",
      "ilec_name": "MARITIME TELEGRAPH & TELEPHONE, LTD.",
      "lat": "45.35704",
      "long": "-63.280851",
      "closest_city": {
        "name": "Truro",
        "distance_km": 0.85
      }
    },
    {
      "country": "CA",
      "region": "NS",
      "exchange": "352046",
      "name": "BEAVER HBR",
      "full_name": "Beaver Harbor",
      "lata": "888",
      "ilec_name": "MARITIME TELEGRAPH & TELEPHONE, LTD.",
      "lat": "44.92364",
      "long": "-62.349788",
      "closest_city": {
        "name": "Stellarton",
        "distance_km": 74.47
      }
    },
    {
      "country": "CA",
      "region": "NS",
      "exchange": "352047",
      "name": "BEAVER MDW",
      "full_name": "Beaver Meadow",
      "lata": "888",
      "ilec_name": "MARITIME TELEGRAPH & TELEPHONE, LTD.",
      "lat": "45.616867",
      "long": "-61.984727",
      "closest_city": {
        "name": "Antigonish",
        "distance_km": 0.11
      }
    },
    {
      "country": "CA",
      "region": "NS",
      "exchange": "352048",
      "name": "BEAVER RIV",
      "full_name": "Beaver River",
      "lata": "888",
      "ilec_name": "MARITIME TELEGRAPH & TELEPHONE, LTD.",
      "lat": "43.974986",
      "long": "-66.152433",
      "closest_city": {
        "name": "Yarmouth",
        "distance_km": 15.69
      }
    },
    {
      "country": "CA",
      "region": "NS",
      "exchange": "352049",
      "name": "BEAVERBANK",
      "full_name": "Beaverbank",
      "lata": "888",
      "ilec_name": "MARITIME TELEGRAPH & TELEPHONE, LTD.",
      "lat": "44.790372",
      "long": "-63.718821",
      "closest_city": {
        "name": "Halifax",
        "distance_km": 18.84
      }
    },
    {
      "country": "CA",
      "region": "NS",
      "exchange": "352050",
      "name": "BEAVERCOVE",
      "full_name": "Beaver Cove",
      "lata": "888",
      "ilec_name": "MARITIME TELEGRAPH & TELEPHONE, LTD.",
      "lat": "46.098271",
      "long": "-60.49814",
      "closest_city": {
        "name": "Cape Breton",
        "distance_km": 23.94
      }
    },
    {
      "country": "CA",
      "region": "NS",
      "exchange": "352051",
      "name": "BECKWITH",
      "full_name": "Beckwith",
      "lata": "888",
      "ilec_name": "MARITIME TELEGRAPH & TELEPHONE, LTD.",
      "lat": "45.732301",
      "long": "-63.866819",
      "closest_city": {
        "name": "Oxford",
        "distance_km": 0.54
      }
    },
    {
      "country": "CA",
      "region": "NS",
      "exchange": "129082",
      "name": "BEDFORD",
      "full_name": "Bedford",
      "lata": "888",
      "ilec_name": "MARITIME TELEGRAPH & TELEPHONE, LTD.",
      "lat": "44.651753",
      "long": "-63.581629",
      "closest_city": {
        "name": "Halifax",
        "distance_km": 0.85
      }
    },
    {
      "country": "CA",
      "region": "NS",
      "exchange": "352053",
      "name": "BEECH HILL",
      "full_name": "Beech Hill",
      "lata": "888",
      "ilec_name": "MARITIME TELEGRAPH & TELEPHONE, LTD.",
      "lat": "43.933409",
      "long": "-64.853119",
      "closest_city": {
        "name": "Queens",
        "distance_km": 15.57
      }
    },
    {
      "country": "CA",
      "region": "NS",
      "exchange": "352054",
      "name": "BEECHVILLE",
      "full_name": "Beechville",
      "lata": "888",
      "ilec_name": "MARITIME TELEGRAPH & TELEPHONE, LTD.",
      "lat": "44.651753",
      "long": "-63.581629",
      "closest_city": {
        "name": "Halifax",
        "distance_km": 0.85
      }
    },
    {
      "country": "CA",
      "region": "NS",
      "exchange": "352055",
      "name": "BEINBHREGH",
      "full_name": "Beinn Bhreagh",
      "lata": "888",
      "ilec_name": "MARITIME TELEGRAPH & TELEPHONE, LTD.",
      "lat": "46.110659",
      "long": "-60.740749",
      "closest_city": {
        "name": "Inverness",
        "distance_km": 29.4
      }
    },
    {
      "country": "CA",
      "region": "NS",
      "exchange": "352056",
      "name": "BELEMARCHE",
      "full_name": "Belle Marche",
      "lata": "888",
      "ilec_name": "MARITIME TELEGRAPH & TELEPHONE, LTD.",
      "lat": "46.626759",
      "long": "-61.010315",
      "closest_city": {
        "name": "Inverness",
        "distance_km": 47.95
      }
    },
    {
      "country": "CA",
      "region": "NS",
      "exchange": "352057",
      "name": "BELIVEASCV",
      "full_name": "Belliveaus Cove",
      "lata": "888",
      "ilec_name": "MARITIME TELEGRAPH & TELEPHONE, LTD.",
      "lat": "44.417811",
      "long": "-65.992154",
      "closest_city": {
        "name": "Church Point",
        "distance_km": 13.65
      }
    },
    {
      "country": "CA",
      "region": "NS",
      "exchange": "352058",
      "name": "BELL NECK",
      "full_name": "Bell Neck",
      "lata": "888",
      "ilec_name": "MARITIME TELEGRAPH & TELEPHONE, LTD.",
      "lat": "43.865288",
      "long": "-65.975973",
      "closest_city": {
        "name": "Yarmouth",
        "distance_km": 11.8
      }
    },
    {
      "country": "CA",
      "region": "NS",
      "exchange": "352059",
      "name": "BELLE COTE",
      "full_name": "Belle Cote",
      "lata": "888",
      "ilec_name": "MARITIME TELEGRAPH & TELEPHONE, LTD.",
      "lat": "46.4337",
      "long": "-61.106588",
      "closest_city": {
        "name": "Inverness",
        "distance_km": 25.99
      }
    },
    {
      "country": "CA",
      "region": "NS",
      "exchange": "352060",
      "name": "BELLEISLE",
      "full_name": "Belleisle",
      "lata": "888",
      "ilec_name": "MARITIME TELEGRAPH & TELEPHONE, LTD.",
      "lat": "44.848657",
      "long": "-65.301552",
      "closest_city": {
        "name": "Middleton",
        "distance_km": 21.07
      }
    },
    {
      "country": "CA",
      "region": "NS",
      "exchange": "352061",
      "name": "BELLEVILLE",
      "full_name": "Belleville",
      "lata": "888",
      "ilec_name": "MARITIME TELEGRAPH & TELEPHONE, LTD.",
      "lat": "43.865288",
      "long": "-65.975973",
      "closest_city": {
        "name": "Yarmouth",
        "distance_km": 11.8
      }
    },
    {
      "country": "CA",
      "region": "NS",
      "exchange": "352062",
      "name": "BELNAN",
      "full_name": "Belnan",
      "lata": "888",
      "ilec_name": "MARITIME TELEGRAPH & TELEPHONE, LTD.",
      "lat": "44.974422",
      "long": "-63.517528",
      "closest_city": {
        "name": "Lantz",
        "distance_km": 3.84
      }
    },
    {
      "country": "CA",
      "region": "NS",
      "exchange": "352063",
      "name": "BEN EOIN",
      "full_name": "Ben Eoin",
      "lata": "888",
      "ilec_name": "MARITIME TELEGRAPH & TELEPHONE, LTD.",
      "lat": "46.022195",
      "long": "-60.358175",
      "closest_city": {
        "name": "Cape Breton",
        "distance_km": 18.18
      }
    },
    {
      "country": "CA",
      "region": "NS",
      "exchange": "352064",
      "name": "BENACADIE",
      "full_name": "Benacadie",
      "lata": "888",
      "ilec_name": "MARITIME TELEGRAPH & TELEPHONE, LTD.",
      "lat": "45.965688",
      "long": "-60.730799",
      "closest_city": {
        "name": "Inverness",
        "distance_km": 38.6
      }
    },
    {
      "country": "CA",
      "region": "NS",
      "exchange": "128710",
      "name": "BERWICK",
      "full_name": "Berwick",
      "lata": "888",
      "ilec_name": "MARITIME TELEGRAPH & TELEPHONE, LTD.",
      "lat": "45.05692",
      "long": "-64.752115",
      "closest_city": {
        "name": "Berwick",
        "distance_km": 1.64
      }
    },
    {
      "country": "CA",
      "region": "NS",
      "exchange": "352066",
      "name": "BIBLE HILL",
      "full_name": "Bible Hill",
      "lata": "888",
      "ilec_name": "MARITIME TELEGRAPH & TELEPHONE, LTD.",
      "lat": "45.35704",
      "long": "-63.280851",
      "closest_city": {
        "name": "Truro",
        "distance_km": 0.85
      }
    },
    {
      "country": "CA",
      "region": "NS",
      "exchange": "352067",
      "name": "BICKERTON",
      "full_name": "Bickerton",
      "lata": "888",
      "ilec_name": "MARITIME TELEGRAPH & TELEPHONE, LTD.",
      "lat": "45.133312",
      "long": "-61.885262",
      "closest_city": {
        "name": "Antigonish",
        "distance_km": 54.29
      }
    },
    {
      "country": "CA",
      "region": "NS",
      "exchange": "352068",
      "name": "BIG BEACH",
      "full_name": "Big Beach",
      "lata": "888",
      "ilec_name": "MARITIME TELEGRAPH & TELEPHONE, LTD.",
      "lat": "45.965688",
      "long": "-60.730799",
      "closest_city": {
        "name": "Inverness",
        "distance_km": 38.6
      }
    },
    {
      "country": "CA",
      "region": "NS",
      "exchange": "352069",
      "name": "BIG GLEN",
      "full_name": "Big Glen",
      "lata": "888",
      "ilec_name": "MARITIME TELEGRAPH & TELEPHONE, LTD.",
      "lat": "45.607493",
      "long": "-60.751556",
      "closest_city": {
        "name": "Port Hawkesbury",
        "distance_km": 47.66
      }
    },
    {
      "country": "CA",
      "region": "NS",
      "exchange": "352070",
      "name": "BIG ISLAND",
      "full_name": "Big Island",
      "lata": "888",
      "ilec_name": "MARITIME TELEGRAPH & TELEPHONE, LTD.",
      "lat": "45.631028",
      "long": "-62.434108",
      "closest_city": {
        "name": "Trenton",
        "distance_km": 15.54
      }
    },
    {
      "country": "CA",
      "region": "NS",
      "exchange": "352071",
      "name": "BIG POND",
      "full_name": "Big Pond",
      "lata": "888",
      "ilec_name": "MARITIME TELEGRAPH & TELEPHONE, LTD.",
      "lat": "46.022195",
      "long": "-60.358175",
      "closest_city": {
        "name": "Cape Breton",
        "distance_km": 18.18
      }
    },
    {
      "country": "CA",
      "region": "NS",
      "exchange": "352072",
      "name": "BIG RIDGE",
      "full_name": "Big Ridge",
      "lata": "888",
      "ilec_name": "MARITIME TELEGRAPH & TELEPHONE, LTD.",
      "lat": "45.983375",
      "long": "-60.206622",
      "closest_city": {
        "name": "Cape Breton",
        "distance_km": 17.33
      }
    },
    {
      "country": "CA",
      "region": "NS",
      "exchange": "352073",
      "name": "BIGBRAS OR",
      "full_name": "Big Bras d'Or",
      "lata": "888",
      "ilec_name": "MARITIME TELEGRAPH & TELEPHONE, LTD.",
      "lat": "46.284639",
      "long": "-60.410655",
      "closest_city": {
        "name": "Cape Breton",
        "distance_km": 23.3
      }
    },
    {
      "country": "CA",
      "region": "NS",
      "exchange": "352074",
      "name": "BIGHARBOUR",
      "full_name": "Big Harbour",
      "lata": "888",
      "ilec_name": "MARITIME TELEGRAPH & TELEPHONE, LTD.",
      "lat": "46.110659",
      "long": "-60.740749",
      "closest_city": {
        "name": "Inverness",
        "distance_km": 29.4
      }
    },
    {
      "country": "CA",
      "region": "NS",
      "exchange": "352075",
      "name": "BIGHBR CTR",
      "full_name": "Big Harbor Center",
      "lata": "888",
      "ilec_name": "MARITIME TELEGRAPH & TELEPHONE, LTD.",
      "lat": "45.974207",
      "long": "-61.11313",
      "closest_city": {
        "name": "Inverness",
        "distance_km": 25.13
      }
    },
    {
      "country": "CA",
      "region": "NS",
      "exchange": "352076",
      "name": "BIGLORAINE",
      "full_name": "Big Lorraine",
      "lata": "888",
      "ilec_name": "MARITIME TELEGRAPH & TELEPHONE, LTD.",
      "lat": "45.923596",
      "long": "-59.991422",
      "closest_city": {
        "name": "Cape Breton",
        "distance_km": 28.56
      }
    },
    {
      "country": "CA",
      "region": "NS",
      "exchange": "352077",
      "name": "BILLTOWN",
      "full_name": "Billtown",
      "lata": "888",
      "ilec_name": "MARITIME TELEGRAPH & TELEPHONE, LTD.",
      "lat": "45.075722",
      "long": "-64.499909",
      "closest_city": {
        "name": "Kentville",
        "distance_km": 0.38
      }
    },
    {
      "country": "CA",
      "region": "NS",
      "exchange": "352078",
      "name": "BIRCH COVE",
      "full_name": "Birch Cove",
      "lata": "888",
      "ilec_name": "MARITIME TELEGRAPH & TELEPHONE, LTD.",
      "lat": "44.651753",
      "long": "-63.581629",
      "closest_city": {
        "name": "Halifax",
        "distance_km": 0.85
      }
    },
    {
      "country": "CA",
      "region": "NS",
      "exchange": "352079",
      "name": "BIRCHGROVE",
      "full_name": "Birch Grove",
      "lata": "888",
      "ilec_name": "MARITIME TELEGRAPH & TELEPHONE, LTD.",
      "lat": "46.133617",
      "long": "-59.872816",
      "closest_city": {
        "name": "Cape Breton",
        "distance_km": 24.69
      }
    },
    {
      "country": "CA",
      "region": "NS",
      "exchange": "352080",
      "name": "BIRCHPLAIN",
      "full_name": "Birch Plain",
      "lata": "888",
      "ilec_name": "MARITIME TELEGRAPH & TELEPHONE, LTD.",
      "lat": "46.309151",
      "long": "-60.625096",
      "closest_city": {
        "name": "Cape Breton",
        "distance_km": 38.25
      }
    },
    {
      "country": "CA",
      "region": "NS",
      "exchange": "352081",
      "name": "BIRCHTOWN",
      "full_name": "Birchtown",
      "lata": "888",
      "ilec_name": "MARITIME TELEGRAPH & TELEPHONE, LTD.",
      "lat": "43.76618",
      "long": "-65.324428",
      "closest_city": {
        "name": "Shelburne",
        "distance_km": 0.33
      }
    },
    {
      "country": "CA",
      "region": "NS",
      "exchange": "352082",
      "name": "BIRCHWOOD",
      "full_name": "Birchwood",
      "lata": "888",
      "ilec_name": "MARITIME TELEGRAPH & TELEPHONE, LTD.",
      "lat": "45.732301",
      "long": "-63.866819",
      "closest_city": {
        "name": "Oxford",
        "distance_km": 0.54
      }
    },
    {
      "country": "CA",
      "region": "NS",
      "exchange": "352083",
      "name": "BIRCHYHEAD",
      "full_name": "Birchy Head",
      "lata": "888",
      "ilec_name": "MARITIME TELEGRAPH & TELEPHONE, LTD.",
      "lat": "44.626986",
      "long": "-64.059988",
      "closest_city": {
        "name": "Chester",
        "distance_km": 19.16
      }
    },
    {
      "country": "CA",
      "region": "NS",
      "exchange": "352084",
      "name": "BISHOPVL",
      "full_name": "Bishopville",
      "lata": "888",
      "ilec_name": "MARITIME TELEGRAPH & TELEPHONE, LTD.",
      "lat": "45.069149",
      "long": "-64.183016",
      "closest_city": {
        "name": "Falmouth",
        "distance_km": 8.2
      }
    },
    {
      "country": "CA",
      "region": "NS",
      "exchange": "352085",
      "name": "BKSDCLCHSR",
      "full_name": "Brookside (Colchester)",
      "lata": "888",
      "ilec_name": "MARITIME TELEGRAPH & TELEPHONE, LTD.",
      "lat": "45.35704",
      "long": "-63.280851",
      "closest_city": {
        "name": "Truro",
        "distance_km": 0.85
      }
    },
    {
      "country": "CA",
      "region": "NS",
      "exchange": "352086",
      "name": "BLACK AVON",
      "full_name": "Black Avon",
      "lata": "888",
      "ilec_name": "MARITIME TELEGRAPH & TELEPHONE, LTD.",
      "lat": "45.601944",
      "long": "-61.809076",
      "closest_city": {
        "name": "Antigonish",
        "distance_km": 13.65
      }
    },
    {
      "country": "CA",
      "region": "NS",
      "exchange": "352087",
      "name": "BLACKETSLK",
      "full_name": "Blacketts Lake",
      "lata": "888",
      "ilec_name": "MARITIME TELEGRAPH & TELEPHONE, LTD.",
      "lat": "46.149259",
      "long": "-60.180893",
      "closest_city": {
        "name": "Cape Breton",
        "distance_km": 1.49
      }
    },
    {
      "country": "CA",
      "region": "NS",
      "exchange": "352088",
      "name": "BLACKPOINT",
      "full_name": "Black Point",
      "lata": "888",
      "ilec_name": "MARITIME TELEGRAPH & TELEPHONE, LTD.",
      "lat": "44.626986",
      "long": "-64.059988",
      "closest_city": {
        "name": "Chester",
        "distance_km": 19.16
      }
    },
    {
      "country": "CA",
      "region": "NS",
      "exchange": "352089",
      "name": "BLACKRKNGS",
      "full_name": "Black Rock (Kings)",
      "lata": "888",
      "ilec_name": "MARITIME TELEGRAPH & TELEPHONE, LTD.",
      "lat": "45.05692",
      "long": "-64.752115",
      "closest_city": {
        "name": "Berwick",
        "distance_km": 1.64
      }
    },
    {
      "country": "CA",
      "region": "NS",
      "exchange": "352090",
      "name": "BLACKSTONE",
      "full_name": "Blackstone",
      "lata": "888",
      "ilec_name": "MARITIME TELEGRAPH & TELEPHONE, LTD.",
      "lat": "46.077098",
      "long": "-61.383562",
      "closest_city": {
        "name": "Inverness",
        "distance_km": 25.77
      }
    },
    {
      "country": "CA",
      "region": "NS",
      "exchange": "128720",
      "name": "BLANDFORD",
      "full_name": "Blandford",
      "lata": "888",
      "ilec_name": "MARITIME TELEGRAPH & TELEPHONE, LTD.",
      "lat": "44.490501",
      "long": "-64.108589",
      "closest_city": {
        "name": "Lunenburg",
        "distance_km": 20.37
      }
    },
    {
      "country": "CA",
      "region": "NS",
      "exchange": "352092",
      "name": "BLCKKCLCHR",
      "full_name": "Black Rock (Colchester)",
      "lata": "888",
      "ilec_name": "MARITIME TELEGRAPH & TELEPHONE, LTD.",
      "lat": "45.35704",
      "long": "-63.280851",
      "closest_city": {
        "name": "Truro",
        "distance_km": 0.85
      }
    },
    {
      "country": "CA",
      "region": "NS",
      "exchange": "352093",
      "name": "BLCKRKVCTR",
      "full_name": "Black Rock (Victoria)",
      "lata": "888",
      "ilec_name": "MARITIME TELEGRAPH & TELEPHONE, LTD.",
      "lat": "46.284639",
      "long": "-60.410655",
      "closest_city": {
        "name": "Cape Breton",
        "distance_km": 23.3
      }
    },
    {
      "country": "CA",
      "region": "NS",
      "exchange": "352094",
      "name": "BLCKRVCHMD",
      "full_name": "Black River (Richmond)",
      "lata": "888",
      "ilec_name": "MARITIME TELEGRAPH & TELEPHONE, LTD.",
      "lat": "45.626953",
      "long": "-61.065961",
      "closest_city": {
        "name": "Port Hawkesbury",
        "distance_km": 23.23
      }
    },
    {
      "country": "CA",
      "region": "NS",
      "exchange": "352095",
      "name": "BLCKRVKNGS",
      "full_name": "Black River (Kings)",
      "lata": "888",
      "ilec_name": "MARITIME TELEGRAPH & TELEPHONE, LTD.",
      "lat": "45.092888",
      "long": "-64.36695",
      "closest_city": {
        "name": "Wolfville",
        "distance_km": 1.07
      }
    },
    {
      "country": "CA",
      "region": "NS",
      "exchange": "352096",
      "name": "BLMFLDPCTU",
      "full_name": "Bloomfield (Pictou)",
      "lata": "888",
      "ilec_name": "MARITIME TELEGRAPH & TELEPHONE, LTD.",
      "lat": "45.556267",
      "long": "-62.55646",
      "closest_city": {
        "name": "New Glasgow",
        "distance_km": 8.02
      }
    },
    {
      "country": "CA",
      "region": "NS",
      "exchange": "352097",
      "name": "BLMNCLCHSR",
      "full_name": "Belmont (Colchester)",
      "lata": "888",
      "ilec_name": "MARITIME TELEGRAPH & TELEPHONE, LTD.",
      "lat": "45.423385",
      "long": "-63.460404",
      "closest_city": {
        "name": "Truro",
        "distance_km": 15.52
      }
    },
    {
      "country": "CA",
      "region": "NS",
      "exchange": "352098",
      "name": "BLOCKHOUSE",
      "full_name": "Blockhouse",
      "lata": "888",
      "ilec_name": "MARITIME TELEGRAPH & TELEPHONE, LTD.",
      "lat": "44.440554",
      "long": "-64.366883",
      "closest_city": {
        "name": "Mahone Bay",
        "distance_km": 1.51
      }
    },
    {
      "country": "CA",
      "region": "NS",
      "exchange": "352099",
      "name": "BLOMFLDGBY",
      "full_name": "Bloomfield (Digby)",
      "lata": "888",
      "ilec_name": "MARITIME TELEGRAPH & TELEPHONE, LTD.",
      "lat": "44.607522",
      "long": "-65.763495",
      "closest_city": {
        "name": "Digby",
        "distance_km": 1.65
      }
    },
    {
      "country": "CA",
      "region": "NS",
      "exchange": "352100",
      "name": "BLOMIDON",
      "full_name": "Blomidon",
      "lata": "888",
      "ilec_name": "MARITIME TELEGRAPH & TELEPHONE, LTD.",
      "lat": "45.158894",
      "long": "-64.418301",
      "closest_city": {
        "name": "Centreville",
        "distance_km": 8.77
      }
    },
    {
      "country": "CA",
      "region": "NS",
      "exchange": "352101",
      "name": "BLUE MILLS",
      "full_name": "Blue Mills",
      "lata": "888",
      "ilec_name": "MARITIME TELEGRAPH & TELEPHONE, LTD.",
      "lat": "45.974207",
      "long": "-61.11313",
      "closest_city": {
        "name": "Inverness",
        "distance_km": 25.13
      }
    },
    {
      "country": "CA",
      "region": "NS",
      "exchange": "352102",
      "name": "BLUE ROCKS",
      "full_name": "Blue Rocks",
      "lata": "888",
      "ilec_name": "MARITIME TELEGRAPH & TELEPHONE, LTD.",
      "lat": "44.374589",
      "long": "-64.315887",
      "closest_city": {
        "name": "Lunenburg",
        "distance_km": 0.97
      }
    },
    {
      "country": "CA",
      "region": "NS",
      "exchange": "352103",
      "name": "BLUEMTKNGS",
      "full_name": "Blue Mountain (Kings)",
      "lata": "888",
      "ilec_name": "MARITIME TELEGRAPH & TELEPHONE, LTD.",
      "lat": "45.075722",
      "long": "-64.499909",
      "closest_city": {
        "name": "Kentville",
        "distance_km": 0.38
      }
    },
    {
      "country": "CA",
      "region": "NS",
      "exchange": "352104",
      "name": "BLUEMTPCTU",
      "full_name": "Blue Mountain (Pictou)",
      "lata": "888",
      "ilec_name": "MARITIME TELEGRAPH & TELEPHONE, LTD.",
      "lat": "45.556267",
      "long": "-62.55646",
      "closest_city": {
        "name": "New Glasgow",
        "distance_km": 8.02
      }
    },
    {
      "country": "CA",
      "region": "NS",
      "exchange": "352105",
      "name": "BLUESEACOR",
      "full_name": "Blue Sea Corner",
      "lata": "888",
      "ilec_name": "MARITIME TELEGRAPH & TELEPHONE, LTD.",
      "lat": "45.81531",
      "long": "-63.475903",
      "closest_city": {
        "name": "Oxford",
        "distance_km": 32.23
      }
    },
    {
      "country": "CA",
      "region": "NS",
      "exchange": "128730",
      "name": "BOISDALE",
      "full_name": "Boisdale",
      "lata": "888",
      "ilec_name": "MARITIME TELEGRAPH & TELEPHONE, LTD.",
      "lat": "46.098271",
      "long": "-60.49814",
      "closest_city": {
        "name": "Cape Breton",
        "distance_km": 23.94
      }
    },
    {
      "country": "CA",
      "region": "NS",
      "exchange": "352107",
      "name": "BORGELS PT",
      "full_name": "Borgels Point",
      "lata": "888",
      "ilec_name": "MARITIME TELEGRAPH & TELEPHONE, LTD.",
      "lat": "44.549303",
      "long": "-64.259415",
      "closest_city": {
        "name": "Chester",
        "distance_km": 11.65
      }
    },
    {
      "country": "CA",
      "region": "NS",
      "exchange": "352108",
      "name": "BOUDREAUVL",
      "full_name": "Boudreauville",
      "lata": "888",
      "ilec_name": "MARITIME TELEGRAPH & TELEPHONE, LTD.",
      "lat": "45.519085",
      "long": "-61.025065",
      "closest_city": {
        "name": "Port Hawkesbury",
        "distance_km": 28.49
      }
    },
    {
      "country": "CA",
      "region": "NS",
      "exchange": "352109",
      "name": "BOULARDERE",
      "full_name": "Boularderie East",
      "lata": "888",
      "ilec_name": "MARITIME TELEGRAPH & TELEPHONE, LTD.",
      "lat": "46.284639",
      "long": "-60.410655",
      "closest_city": {
        "name": "Cape Breton",
        "distance_km": 23.3
      }
    },
    {
      "country": "CA",
      "region": "NS",
      "exchange": "128740",
      "name": "BOULARDRIE",
      "full_name": "Boularderie",
      "lata": "888",
      "ilec_name": "MARITIME TELEGRAPH & TELEPHONE, LTD.",
      "lat": "46.284639",
      "long": "-60.410655",
      "closest_city": {
        "name": "Cape Breton",
        "distance_km": 23.3
      }
    },
    {
      "country": "CA",
      "region": "NS",
      "exchange": "352111",
      "name": "BOULRDRCTR",
      "full_name": "Boularderie Centre",
      "lata": "888",
      "ilec_name": "MARITIME TELEGRAPH & TELEPHONE, LTD.",
      "lat": "46.284639",
      "long": "-60.410655",
      "closest_city": {
        "name": "Cape Breton",
        "distance_km": 23.3
      }
    },
    {
      "country": "CA",
      "region": "NS",
      "exchange": "352112",
      "name": "BOUTILRSPT",
      "full_name": "Boutiliers Point",
      "lata": "888",
      "ilec_name": "MARITIME TELEGRAPH & TELEPHONE, LTD.",
      "lat": "44.684952",
      "long": "-63.914601",
      "closest_city": {
        "name": "Halifax",
        "distance_km": 25.96
      }
    },
    {
      "country": "CA",
      "region": "NS",
      "exchange": "352113",
      "name": "BOYLSTON",
      "full_name": "Boylston",
      "lata": "888",
      "ilec_name": "MARITIME TELEGRAPH & TELEPHONE, LTD.",
      "lat": "45.392581",
      "long": "-61.507187",
      "closest_city": {
        "name": "Port Hawkesbury",
        "distance_km": 27.16
      }
    },
    {
      "country": "CA",
      "region": "NS",
      "exchange": "352114",
      "name": "BRAMBER",
      "full_name": "Bramber",
      "lata": "888",
      "ilec_name": "MARITIME TELEGRAPH & TELEPHONE, LTD.",
      "lat": "45.167371",
      "long": "-64.170052",
      "closest_city": {
        "name": "Wolfville",
        "distance_km": 18.04
      }
    },
    {
      "country": "CA",
      "region": "NS",
      "exchange": "352115",
      "name": "BRANCHHAVE",
      "full_name": "Branch La Have",
      "lata": "888",
      "ilec_name": "MARITIME TELEGRAPH & TELEPHONE, LTD.",
      "lat": "44.365896",
      "long": "-64.52441",
      "closest_city": {
        "name": "Bridgewater",
        "distance_km": 0.58
      }
    },
    {
      "country": "CA",
      "region": "NS",
      "exchange": "352116",
      "name": "BRASS HILL",
      "full_name": "Brass Hill",
      "lata": "888",
      "ilec_name": "MARITIME TELEGRAPH & TELEPHONE, LTD.",
      "lat": "43.557482",
      "long": "-65.576227",
      "closest_city": {
        "name": "Barrington",
        "distance_km": 1.27
      }
    },
    {
      "country": "CA",
      "region": "NS",
      "exchange": "352117",
      "name": "BRAZILLAKE",
      "full_name": "Brazil Lake",
      "lata": "888",
      "ilec_name": "MARITIME TELEGRAPH & TELEPHONE, LTD.",
      "lat": "44.009626",
      "long": "-65.924084",
      "closest_city": {
        "name": "Argyle",
        "distance_km": 24.05
      }
    },
    {
      "country": "CA",
      "region": "NS",
      "exchange": "352118",
      "name": "BRCHSCPBRN",
      "full_name": "Barachois (Cape Breton)",
      "lata": "888",
      "ilec_name": "MARITIME TELEGRAPH & TELEPHONE, LTD.",
      "lat": "46.098271",
      "long": "-60.49814",
      "closest_city": {
        "name": "Cape Breton",
        "distance_km": 23.94
      }
    },
    {
      "country": "CA",
      "region": "NS",
      "exchange": "352119",
      "name": "BRENTWOOD",
      "full_name": "Brentwood",
      "lata": "888",
      "ilec_name": "MARITIME TELEGRAPH & TELEPHONE, LTD.",
      "lat": "45.259087",
      "long": "-63.286311",
      "closest_city": {
        "name": "Truro",
        "distance_km": 11.75
      }
    },
    {
      "country": "CA",
      "region": "NS",
      "exchange": "352120",
      "name": "BRETONCOVE",
      "full_name": "Breton Cove",
      "lata": "888",
      "ilec_name": "MARITIME TELEGRAPH & TELEPHONE, LTD.",
      "lat": "46.309151",
      "long": "-60.625096",
      "closest_city": {
        "name": "Cape Breton",
        "distance_km": 38.25
      }
    },
    {
      "country": "CA",
      "region": "NS",
      "exchange": "352121",
      "name": "BRIDGEPORT",
      "full_name": "Bridgeport",
      "lata": "888",
      "ilec_name": "MARITIME TELEGRAPH & TELEPHONE, LTD.",
      "lat": "46.215075",
      "long": "-59.96504",
      "closest_city": {
        "name": "Cape Breton",
        "distance_km": 19.5
      }
    },
    {
      "country": "CA",
      "region": "NS",
      "exchange": "128750",
      "name": "BRIDGETOWN",
      "full_name": "Bridgetown",
      "lata": "888",
      "ilec_name": "MARITIME TELEGRAPH & TELEPHONE, LTD.",
      "lat": "44.848657",
      "long": "-65.301552",
      "closest_city": {
        "name": "Middleton",
        "distance_km": 21.07
      }
    },
    {
      "country": "CA",
      "region": "NS",
      "exchange": "352123",
      "name": "BRIDGEVL",
      "full_name": "Bridgeville",
      "lata": "888",
      "ilec_name": "MARITIME TELEGRAPH & TELEPHONE, LTD.",
      "lat": "45.459441",
      "long": "-62.711258",
      "closest_city": {
        "name": "Westville",
        "distance_km": 10.11
      }
    },
    {
      "country": "CA",
      "region": "NS",
      "exchange": "128760",
      "name": "BRIDGEWTR",
      "full_name": "Bridgewater",
      "lata": "888",
      "ilec_name": "MARITIME TELEGRAPH & TELEPHONE, LTD.",
      "lat": "44.365896",
      "long": "-64.52441",
      "closest_city": {
        "name": "Bridgewater",
        "distance_km": 0.58
      }
    },
    {
      "country": "CA",
      "region": "NS",
      "exchange": "352125",
      "name": "BRIERLYBRK",
      "full_name": "Brierly Brook",
      "lata": "888",
      "ilec_name": "MARITIME TELEGRAPH & TELEPHONE, LTD.",
      "lat": "45.616867",
      "long": "-61.984727",
      "closest_city": {
        "name": "Antigonish",
        "distance_km": 0.11
      }
    },
    {
      "country": "CA",
      "region": "NS",
      "exchange": "352126",
      "name": "BRIGHTON",
      "full_name": "Brighton",
      "lata": "888",
      "ilec_name": "MARITIME TELEGRAPH & TELEPHONE, LTD.",
      "lat": "44.607522",
      "long": "-65.763495",
      "closest_city": {
        "name": "Digby",
        "distance_km": 1.65
      }
    },
    {
      "country": "CA",
      "region": "NS",
      "exchange": "352127",
      "name": "BRISTOL",
      "full_name": "Bristol",
      "lata": "888",
      "ilec_name": "MARITIME TELEGRAPH & TELEPHONE, LTD.",
      "lat": "44.033778",
      "long": "-64.716051",
      "closest_city": {
        "name": "Queens",
        "distance_km": 0.07
      }
    },
    {
      "country": "CA",
      "region": "NS",
      "exchange": "352128",
      "name": "BRKDLCMBLD",
      "full_name": "Brookdale (Cumberland)",
      "lata": "888",
      "ilec_name": "MARITIME TELEGRAPH & TELEPHONE, LTD.",
      "lat": "45.834942",
      "long": "-64.206331",
      "closest_city": {
        "name": "Amherst",
        "distance_km": 2.18
      }
    },
    {
      "country": "CA",
      "region": "NS",
      "exchange": "352129",
      "name": "BRKDLNGNSH",
      "full_name": "Brookdale (Antigonish)",
      "lata": "888",
      "ilec_name": "MARITIME TELEGRAPH & TELEPHONE, LTD.",
      "lat": "45.616867",
      "long": "-61.984727",
      "closest_city": {
        "name": "Antigonish",
        "distance_km": 0.11
      }
    },
    {
      "country": "CA",
      "region": "NS",
      "exchange": "352130",
      "name": "BRKLYNQUNS",
      "full_name": "Brooklyn (Queens)",
      "lata": "888",
      "ilec_name": "MARITIME TELEGRAPH & TELEPHONE, LTD.",
      "lat": "44.033778",
      "long": "-64.716051",
      "closest_city": {
        "name": "Queens",
        "distance_km": 0.07
      }
    },
    {
      "country": "CA",
      "region": "NS",
      "exchange": "352131",
      "name": "BRKLYNRMTH",
      "full_name": "Brooklyn (Yarmouth)",
      "lata": "888",
      "ilec_name": "MARITIME TELEGRAPH & TELEPHONE, LTD.",
      "lat": "43.832739",
      "long": "-66.122859",
      "closest_city": {
        "name": "Yarmouth",
        "distance_km": 0.57
      }
    },
    {
      "country": "CA",
      "region": "NS",
      "exchange": "352132",
      "name": "BRKSIDHLFX",
      "full_name": "Brookside (Halifax)",
      "lata": "888",
      "ilec_name": "MARITIME TELEGRAPH & TELEPHONE, LTD.",
      "lat": "44.54978",
      "long": "-63.763453",
      "closest_city": {
        "name": "Halifax",
        "distance_km": 17.47
      }
    },
    {
      "country": "CA",
      "region": "NS",
      "exchange": "352133",
      "name": "BRKVILLAGE",
      "full_name": "Brook Village",
      "lata": "888",
      "ilec_name": "MARITIME TELEGRAPH & TELEPHONE, LTD.",
      "lat": "46.077098",
      "long": "-61.383562",
      "closest_city": {
        "name": "Inverness",
        "distance_km": 25.77
      }
    },
    {
      "country": "CA",
      "region": "NS",
      "exchange": "352134",
      "name": "BRLNGNKNGS",
      "full_name": "Burlington (Kings)",
      "lata": "888",
      "ilec_name": "MARITIME TELEGRAPH & TELEPHONE, LTD.",
      "lat": "45.05692",
      "long": "-64.752115",
      "closest_city": {
        "name": "Berwick",
        "distance_km": 1.64
      }
    },
    {
      "country": "CA",
      "region": "NS",
      "exchange": "352135",
      "name": "BRNGTNPSGE",
      "full_name": "Barrington Passage",
      "lata": "888",
      "ilec_name": "MARITIME TELEGRAPH & TELEPHONE, LTD.",
      "lat": "43.557482",
      "long": "-65.576227",
      "closest_city": {
        "name": "Barrington",
        "distance_km": 1.27
      }
    },
    {
      "country": "CA",
      "region": "NS",
      "exchange": "352136",
      "name": "BROADWAY",
      "full_name": "Broadway",
      "lata": "888",
      "ilec_name": "MARITIME TELEGRAPH & TELEPHONE, LTD.",
      "lat": "45.591649",
      "long": "-62.268298",
      "closest_city": {
        "name": "Antigonish",
        "distance_km": 22.35
      }
    },
    {
      "country": "CA",
      "region": "NS",
      "exchange": "352137",
      "name": "BRODCVCHPL",
      "full_name": "Broad Cove Chapel",
      "lata": "888",
      "ilec_name": "MARITIME TELEGRAPH & TELEPHONE, LTD.",
      "lat": "46.232816",
      "long": "-61.291407",
      "closest_city": {
        "name": "Inverness",
        "distance_km": 15.17
      }
    },
    {
      "country": "CA",
      "region": "NS",
      "exchange": "128770",
      "name": "BROOKFIELD",
      "full_name": "Brookfield",
      "lata": "888",
      "ilec_name": "MARITIME TELEGRAPH & TELEPHONE, LTD.",
      "lat": "45.259087",
      "long": "-63.286311",
      "closest_city": {
        "name": "Truro",
        "distance_km": 11.75
      }
    },
    {
      "country": "CA",
      "region": "NS",
      "exchange": "352139",
      "name": "BROOKLAND",
      "full_name": "Brookland",
      "lata": "888",
      "ilec_name": "MARITIME TELEGRAPH & TELEPHONE, LTD.",
      "lat": "45.54245",
      "long": "-62.894769",
      "closest_city": {
        "name": "Westville",
        "distance_km": 15.19
      }
    },
    {
      "country": "CA",
      "region": "NS",
      "exchange": "128780",
      "name": "BROOKLYN",
      "full_name": "Brooklyn",
      "lata": "888",
      "ilec_name": "MARITIME TELEGRAPH & TELEPHONE, LTD.",
      "lat": "45.007041",
      "long": "-64.017351",
      "closest_city": {
        "name": "Windsor",
        "distance_km": 9.28
      }
    },
    {
      "country": "CA",
      "region": "NS",
      "exchange": "352141",
      "name": "BROOKVALE",
      "full_name": "Brookvale",
      "lata": "888",
      "ilec_name": "MARITIME TELEGRAPH & TELEPHONE, LTD.",
      "lat": "44.79139",
      "long": "-63.152259",
      "closest_city": {
        "name": "Lantz",
        "distance_km": 33.55
      }
    },
    {
      "country": "CA",
      "region": "NS",
      "exchange": "352142",
      "name": "BROOKVILLE",
      "full_name": "Brookville",
      "lata": "888",
      "ilec_name": "MARITIME TELEGRAPH & TELEPHONE, LTD.",
      "lat": "45.417257",
      "long": "-64.550591",
      "closest_city": {
        "name": "Parrsboro",
        "distance_km": 17.24
      }
    },
    {
      "country": "CA",
      "region": "NS",
      "exchange": "352143",
      "name": "BROUGHTON",
      "full_name": "Broughton",
      "lata": "888",
      "ilec_name": "MARITIME TELEGRAPH & TELEPHONE, LTD.",
      "lat": "46.133617",
      "long": "-59.872816",
      "closest_city": {
        "name": "Cape Breton",
        "distance_km": 24.69
      }
    },
    {
      "country": "CA",
      "region": "NS",
      "exchange": "352144",
      "name": "BRSDCLCHSR",
      "full_name": "Burnside (Colchester)",
      "lata": "888",
      "ilec_name": "MARITIME TELEGRAPH & TELEPHONE, LTD.",
      "lat": "45.214407",
      "long": "-63.001289",
      "closest_city": {
        "name": "Truro",
        "distance_km": 27.47
      }
    },
    {
      "country": "CA",
      "region": "NS",
      "exchange": "352145",
      "name": "BRULE",
      "full_name": "Brule",
      "lata": "888",
      "ilec_name": "MARITIME TELEGRAPH & TELEPHONE, LTD.",
      "lat": "45.707792",
      "long": "-63.300399",
      "closest_city": {
        "name": "Truro",
        "distance_km": 38.18
      }
    },
    {
      "country": "CA",
      "region": "NS",
      "exchange": "352146",
      "name": "BUCKFIELD",
      "full_name": "Buckfield",
      "lata": "888",
      "ilec_name": "MARITIME TELEGRAPH & TELEPHONE, LTD.",
      "lat": "44.35009",
      "long": "-64.759923",
      "closest_city": {
        "name": "Bridgewater",
        "distance_km": 19.2
      }
    },
    {
      "country": "CA",
      "region": "NS",
      "exchange": "352147",
      "name": "BUCKLAW",
      "full_name": "Bucklaw",
      "lata": "888",
      "ilec_name": "MARITIME TELEGRAPH & TELEPHONE, LTD.",
      "lat": "45.974207",
      "long": "-61.11313",
      "closest_city": {
        "name": "Inverness",
        "distance_km": 25.13
      }
    },
    {
      "country": "CA",
      "region": "NS",
      "exchange": "352148",
      "name": "BURNSDHLFX",
      "full_name": "Burnside (Halifax)",
      "lata": "888",
      "ilec_name": "MARITIME TELEGRAPH & TELEPHONE, LTD.",
      "lat": "44.651753",
      "long": "-63.581629",
      "closest_city": {
        "name": "Halifax",
        "distance_km": 0.85
      }
    },
    {
      "country": "CA",
      "region": "NS",
      "exchange": "352149",
      "name": "BURNSDPCTU",
      "full_name": "Burnside (Pictou)",
      "lata": "888",
      "ilec_name": "MARITIME TELEGRAPH & TELEPHONE, LTD.",
      "lat": "45.582091",
      "long": "-62.639251",
      "closest_city": {
        "name": "New Glasgow",
        "distance_km": 1.27
      }
    },
    {
      "country": "CA",
      "region": "NS",
      "exchange": "352150",
      "name": "BURNTCOAT",
      "full_name": "Burntcoat",
      "lata": "888",
      "ilec_name": "MARITIME TELEGRAPH & TELEPHONE, LTD.",
      "lat": "45.308932",
      "long": "-63.746938",
      "closest_city": {
        "name": "Stewiacke",
        "distance_km": 36.31
      }
    },
    {
      "country": "CA",
      "region": "NS",
      "exchange": "352151",
      "name": "BURTON",
      "full_name": "Burton",
      "lata": "888",
      "ilec_name": "MARITIME TELEGRAPH & TELEPHONE, LTD.",
      "lat": "45.173026",
      "long": "-63.723945",
      "closest_city": {
        "name": "Lantz",
        "distance_km": 28.34
      }
    },
    {
      "country": "CA",
      "region": "NS",
      "exchange": "352152",
      "name": "BUSHISLAND",
      "full_name": "Bush Island",
      "lata": "888",
      "ilec_name": "MARITIME TELEGRAPH & TELEPHONE, LTD.",
      "lat": "44.291783",
      "long": "-64.35985",
      "closest_city": {
        "name": "Lunenburg",
        "distance_km": 10.74
      }
    },
    {
      "country": "CA",
      "region": "NS",
      "exchange": "352153",
      "name": "BYSTLWRNCE",
      "full_name": "Bay Saint Lawrence",
      "lata": "888",
      "ilec_name": "MARITIME TELEGRAPH & TELEPHONE, LTD.",
      "lat": "46.892385",
      "long": "-60.438208",
      "closest_city": {
        "name": "Cape Breton",
        "distance_km": 85.86
      }
    },
    {
      "country": "CA",
      "region": "NS",
      "exchange": "352154",
      "name": "BYVW DIGBY",
      "full_name": "Bay View (Digby)",
      "lata": "888",
      "ilec_name": "MARITIME TELEGRAPH & TELEPHONE, LTD.",
      "lat": "44.607522",
      "long": "-65.763495",
      "closest_city": {
        "name": "Digby",
        "distance_km": 1.65
      }
    },
    {
      "country": "CA",
      "region": "NS",
      "exchange": "352155",
      "name": "BYVWPICTOU",
      "full_name": "Bay View (Pictou)",
      "lata": "888",
      "ilec_name": "MARITIME TELEGRAPH & TELEPHONE, LTD.",
      "lat": "45.683553",
      "long": "-62.711221",
      "closest_city": {
        "name": "Pictou",
        "distance_km": 0.25
      }
    },
    {
      "country": "CA",
      "region": "NS",
      "exchange": "352156",
      "name": "BYVWYARMTH",
      "full_name": "Bay View (Yarmouth)",
      "lata": "888",
      "ilec_name": "MARITIME TELEGRAPH & TELEPHONE, LTD.",
      "lat": "43.832739",
      "long": "-66.122859",
      "closest_city": {
        "name": "Yarmouth",
        "distance_km": 0.57
      }
    },
    {
      "country": "CA",
      "region": "NS",
      "exchange": "352157",
      "name": "CAINSMNTNS",
      "full_name": "Caines Mountains",
      "lata": "888",
      "ilec_name": "MARITIME TELEGRAPH & TELEPHONE, LTD.",
      "lat": "45.974207",
      "long": "-61.11313",
      "closest_city": {
        "name": "Inverness",
        "distance_km": 25.13
      }
    },
    {
      "country": "CA",
      "region": "NS",
      "exchange": "352158",
      "name": "CALEDNPCTU",
      "full_name": "Caledonia (Pictou)",
      "lata": "888",
      "ilec_name": "MARITIME TELEGRAPH & TELEPHONE, LTD.",
      "lat": "45.459441",
      "long": "-62.711258",
      "closest_city": {
        "name": "Westville",
        "distance_km": 10.11
      }
    },
    {
      "country": "CA",
      "region": "NS",
      "exchange": "128790",
      "name": "CALEDONIA",
      "full_name": "Caledonia",
      "lata": "888",
      "ilec_name": "MARITIME TELEGRAPH & TELEPHONE, LTD.",
      "lat": "44.364723",
      "long": "-65.041527",
      "closest_city": {
        "name": "Bridgewater",
        "distance_km": 41.46
      }
    },
    {
      "country": "CA",
      "region": "NS",
      "exchange": "352160",
      "name": "CAMBDGHNTS",
      "full_name": "Cambridge (Hants)",
      "lata": "888",
      "ilec_name": "MARITIME TELEGRAPH & TELEPHONE, LTD.",
      "lat": "45.167371",
      "long": "-64.170052",
      "closest_city": {
        "name": "Wolfville",
        "distance_km": 18.04
      }
    },
    {
      "country": "CA",
      "region": "NS",
      "exchange": "352161",
      "name": "CAMBDGKNGS",
      "full_name": "Cambridge (Kings)",
      "lata": "888",
      "ilec_name": "MARITIME TELEGRAPH & TELEPHONE, LTD.",
      "lat": "45.05692",
      "long": "-64.752115",
      "closest_city": {
        "name": "Berwick",
        "distance_km": 1.64
      }
    },
    {
      "country": "CA",
      "region": "NS",
      "exchange": "352162",
      "name": "CAMDEN",
      "full_name": "Camden",
      "lata": "888",
      "ilec_name": "MARITIME TELEGRAPH & TELEPHONE, LTD.",
      "lat": "45.35704",
      "long": "-63.280851",
      "closest_city": {
        "name": "Truro",
        "distance_km": 0.85
      }
    },
    {
      "country": "CA",
      "region": "NS",
      "exchange": "352163",
      "name": "CAMERON LK",
      "full_name": "Cameron Lake",
      "lata": "888",
      "ilec_name": "MARITIME TELEGRAPH & TELEPHONE, LTD.",
      "lat": "44.900538",
      "long": "-63.833523",
      "closest_city": {
        "name": "Windsor",
        "distance_km": 24.9
      }
    },
    {
      "country": "CA",
      "region": "NS",
      "exchange": "352164",
      "name": "CAMPBELLDL",
      "full_name": "Campbelldale",
      "lata": "888",
      "ilec_name": "MARITIME TELEGRAPH & TELEPHONE, LTD.",
      "lat": "45.983375",
      "long": "-60.206622",
      "closest_city": {
        "name": "Cape Breton",
        "distance_km": 17.33
      }
    },
    {
      "country": "CA",
      "region": "NS",
      "exchange": "352165",
      "name": "CAMPERDOWN",
      "full_name": "Camperdown",
      "lata": "888",
      "ilec_name": "MARITIME TELEGRAPH & TELEPHONE, LTD.",
      "lat": "44.365896",
      "long": "-64.52441",
      "closest_city": {
        "name": "Bridgewater",
        "distance_km": 0.58
      }
    },
    {
      "country": "CA",
      "region": "NS",
      "exchange": "352166",
      "name": "CANANKINGS",
      "full_name": "Canaan (Kings)",
      "lata": "888",
      "ilec_name": "MARITIME TELEGRAPH & TELEPHONE, LTD.",
      "lat": "45.075722",
      "long": "-64.499909",
      "closest_city": {
        "name": "Kentville",
        "distance_km": 0.38
      }
    },
    {
      "country": "CA",
      "region": "NS",
      "exchange": "352167",
      "name": "CANANLNNBG",
      "full_name": "Canaan (Lunenburg)",
      "lata": "888",
      "ilec_name": "MARITIME TELEGRAPH & TELEPHONE, LTD.",
      "lat": "44.549303",
      "long": "-64.259415",
      "closest_city": {
        "name": "Chester",
        "distance_km": 11.65
      }
    },
    {
      "country": "CA",
      "region": "NS",
      "exchange": "352168",
      "name": "CANARD",
      "full_name": "Canard",
      "lata": "888",
      "ilec_name": "MARITIME TELEGRAPH & TELEPHONE, LTD.",
      "lat": "45.158894",
      "long": "-64.418301",
      "closest_city": {
        "name": "Centreville",
        "distance_km": 8.77
      }
    },
    {
      "country": "CA",
      "region": "NS",
      "exchange": "352169",
      "name": "CANNES",
      "full_name": "Cannes",
      "lata": "888",
      "ilec_name": "MARITIME TELEGRAPH & TELEPHONE, LTD.",
      "lat": "45.657683",
      "long": "-60.883357",
      "closest_city": {
        "name": "Port Hawkesbury",
        "distance_km": 37.68
      }
    },
    {
      "country": "CA",
      "region": "NS",
      "exchange": "128800",
      "name": "CANNING",
      "full_name": "Canning",
      "lata": "888",
      "ilec_name": "MARITIME TELEGRAPH & TELEPHONE, LTD.",
      "lat": "45.158894",
      "long": "-64.418301",
      "closest_city": {
        "name": "Centreville",
        "distance_km": 8.77
      }
    },
    {
      "country": "CA",
      "region": "NS",
      "exchange": "128810",
      "name": "CANSO",
      "full_name": "Canso",
      "lata": "888",
      "ilec_name": "MARITIME TELEGRAPH & TELEPHONE, LTD.",
      "lat": "45.332896",
      "long": "-61.001982",
      "closest_city": {
        "name": "Port Hawkesbury",
        "distance_km": 42.23
      }
    },
    {
      "country": "CA",
      "region": "NS",
      "exchange": "352172",
      "name": "CAP MOYNE",
      "full_name": "Cap Lemoine",
      "lata": "888",
      "ilec_name": "MARITIME TELEGRAPH & TELEPHONE, LTD.",
      "lat": "46.4337",
      "long": "-61.106588",
      "closest_city": {
        "name": "Inverness",
        "distance_km": 25.99
      }
    },
    {
      "country": "CA",
      "region": "NS",
      "exchange": "352173",
      "name": "CAPE JACK",
      "full_name": "Cape Jack",
      "lata": "888",
      "ilec_name": "MARITIME TELEGRAPH & TELEPHONE, LTD.",
      "lat": "45.608587",
      "long": "-61.618727",
      "closest_city": {
        "name": "Port Hawkesbury",
        "distance_km": 19.81
      }
    },
    {
      "country": "CA",
      "region": "NS",
      "exchange": "352174",
      "name": "CAPE JOHN",
      "full_name": "Cape John",
      "lata": "888",
      "ilec_name": "MARITIME TELEGRAPH & TELEPHONE, LTD.",
      "lat": "45.751525",
      "long": "-63.067549",
      "closest_city": {
        "name": "Pictou",
        "distance_km": 28.69
      }
    },
    {
      "country": "CA",
      "region": "NS",
      "exchange": "352175",
      "name": "CAPE NORTH",
      "full_name": "Cape North",
      "lata": "888",
      "ilec_name": "MARITIME TELEGRAPH & TELEPHONE, LTD.",
      "lat": "46.892385",
      "long": "-60.438208",
      "closest_city": {
        "name": "Cape Breton",
        "distance_km": 85.86
      }
    },
    {
      "country": "CA",
      "region": "NS",
      "exchange": "352176",
      "name": "CAPE RONDE",
      "full_name": "Cape La Ronde",
      "lata": "888",
      "ilec_name": "MARITIME TELEGRAPH & TELEPHONE, LTD.",
      "lat": "45.519085",
      "long": "-61.025065",
      "closest_city": {
        "name": "Port Hawkesbury",
        "distance_km": 28.49
      }
    },
    {
      "country": "CA",
      "region": "NS",
      "exchange": "352177",
      "name": "CAPE ROUGE",
      "full_name": "Cape Rouge",
      "lata": "888",
      "ilec_name": "MARITIME TELEGRAPH & TELEPHONE, LTD.",
      "lat": "46.626759",
      "long": "-61.010315",
      "closest_city": {
        "name": "Inverness",
        "distance_km": 47.95
      }
    },
    {
      "country": "CA",
      "region": "NS",
      "exchange": "352178",
      "name": "CAPEAUGNET",
      "full_name": "Cape Augnet",
      "lata": "888",
      "ilec_name": "MARITIME TELEGRAPH & TELEPHONE, LTD.",
      "lat": "45.519085",
      "long": "-61.025065",
      "closest_city": {
        "name": "Port Hawkesbury",
        "distance_km": 28.49
      }
    },
    {
      "country": "CA",
      "region": "NS",
      "exchange": "352179",
      "name": "CAPEGEORGE",
      "full_name": "Cape George",
      "lata": "888",
      "ilec_name": "MARITIME TELEGRAPH & TELEPHONE, LTD.",
      "lat": "45.616867",
      "long": "-61.984727",
      "closest_city": {
        "name": "Antigonish",
        "distance_km": 0.11
      }
    },
    {
      "country": "CA",
      "region": "NS",
      "exchange": "352180",
      "name": "CAPESTMARY",
      "full_name": "Cape Saint Mary",
      "lata": "888",
      "ilec_name": "MARITIME TELEGRAPH & TELEPHONE, LTD.",
      "lat": "44.194171",
      "long": "-66.158628",
      "closest_city": {
        "name": "Church Point",
        "distance_km": 15.83
      }
    },
    {
      "country": "CA",
      "region": "NS",
      "exchange": "352181",
      "name": "CAPSTICK",
      "full_name": "Capstick",
      "lata": "888",
      "ilec_name": "MARITIME TELEGRAPH & TELEPHONE, LTD.",
      "lat": "46.892385",
      "long": "-60.438208",
      "closest_city": {
        "name": "Cape Breton",
        "distance_km": 85.86
      }
    },
    {
      "country": "CA",
      "region": "NS",
      "exchange": "352182",
      "name": "CARABOMRSH",
      "full_name": "Carabou Marsh",
      "lata": "888",
      "ilec_name": "MARITIME TELEGRAPH & TELEPHONE, LTD.",
      "lat": "46.149259",
      "long": "-60.180893",
      "closest_city": {
        "name": "Cape Breton",
        "distance_km": 1.49
      }
    },
    {
      "country": "CA",
      "region": "NS",
      "exchange": "352183",
      "name": "CARIBOU",
      "full_name": "Caribou",
      "lata": "888",
      "ilec_name": "MARITIME TELEGRAPH & TELEPHONE, LTD.",
      "lat": "45.683553",
      "long": "-62.711221",
      "closest_city": {
        "name": "Pictou",
        "distance_km": 0.25
      }
    },
    {
      "country": "CA",
      "region": "NS",
      "exchange": "352184",
      "name": "CARIBOUMNS",
      "full_name": "Caribou Mines",
      "lata": "888",
      "ilec_name": "MARITIME TELEGRAPH & TELEPHONE, LTD.",
      "lat": "45.141622",
      "long": "-62.951639",
      "closest_city": {
        "name": "Stewiacke",
        "distance_km": 31.11
      }
    },
    {
      "country": "CA",
      "region": "NS",
      "exchange": "352185",
      "name": "CARLETNSCR",
      "full_name": "Carletons Corner",
      "lata": "888",
      "ilec_name": "MARITIME TELEGRAPH & TELEPHONE, LTD.",
      "lat": "44.848657",
      "long": "-65.301552",
      "closest_city": {
        "name": "Middleton",
        "distance_km": 21.07
      }
    },
    {
      "country": "CA",
      "region": "NS",
      "exchange": "352186",
      "name": "CARLETNVLG",
      "full_name": "Carleton Village",
      "lata": "888",
      "ilec_name": "MARITIME TELEGRAPH & TELEPHONE, LTD.",
      "lat": "43.557482",
      "long": "-65.576227",
      "closest_city": {
        "name": "Barrington",
        "distance_km": 1.27
      }
    },
    {
      "country": "CA",
      "region": "NS",
      "exchange": "128820",
      "name": "CARLETON",
      "full_name": "Carleton",
      "lata": "888",
      "ilec_name": "MARITIME TELEGRAPH & TELEPHONE, LTD.",
      "lat": "44.009626",
      "long": "-65.924084",
      "closest_city": {
        "name": "Argyle",
        "distance_km": 24.05
      }
    },
    {
      "country": "CA",
      "region": "NS",
      "exchange": "352188",
      "name": "CARRINGTON",
      "full_name": "Carrington",
      "lata": "888",
      "ilec_name": "MARITIME TELEGRAPH & TELEPHONE, LTD.",
      "lat": "45.732301",
      "long": "-63.866819",
      "closest_city": {
        "name": "Oxford",
        "distance_km": 0.54
      }
    },
    {
      "country": "CA",
      "region": "NS",
      "exchange": "352189",
      "name": "CARROLSCOR",
      "full_name": "Carrolls Corner",
      "lata": "888",
      "ilec_name": "MARITIME TELEGRAPH & TELEPHONE, LTD.",
      "lat": "45.09154",
      "long": "-63.420782",
      "closest_city": {
        "name": "Stewiacke",
        "distance_km": 8.0
      }
    },
    {
      "country": "CA",
      "region": "NS",
      "exchange": "352190",
      "name": "CARRSBROOK",
      "full_name": "Carrs Brook",
      "lata": "888",
      "ilec_name": "MARITIME TELEGRAPH & TELEPHONE, LTD.",
      "lat": "45.410002",
      "long": "-63.783795",
      "closest_city": {
        "name": "Oxford",
        "distance_km": 36.32
      }
    },
    {
      "country": "CA",
      "region": "NS",
      "exchange": "352191",
      "name": "CASTLE BAY",
      "full_name": "Castle Bay",
      "lata": "888",
      "ilec_name": "MARITIME TELEGRAPH & TELEPHONE, LTD.",
      "lat": "45.940851",
      "long": "-60.615616",
      "closest_city": {
        "name": "Cape Breton",
        "distance_km": 39.35
      }
    },
    {
      "country": "CA",
      "region": "NS",
      "exchange": "352192",
      "name": "CATALONEGT",
      "full_name": "Catalone Gut",
      "lata": "888",
      "ilec_name": "MARITIME TELEGRAPH & TELEPHONE, LTD.",
      "lat": "46.133617",
      "long": "-59.872816",
      "closest_city": {
        "name": "Cape Breton",
        "distance_km": 24.69
      }
    },
    {
      "country": "CA",
      "region": "NS",
      "exchange": "352193",
      "name": "CATALONERD",
      "full_name": "Catalone Road",
      "lata": "888",
      "ilec_name": "MARITIME TELEGRAPH & TELEPHONE, LTD.",
      "lat": "45.923596",
      "long": "-59.991422",
      "closest_city": {
        "name": "Cape Breton",
        "distance_km": 28.56
      }
    },
    {
      "country": "CA",
      "region": "NS",
      "exchange": "352194",
      "name": "CEDAR LAKE",
      "full_name": "Cedar Lake",
      "lata": "888",
      "ilec_name": "MARITIME TELEGRAPH & TELEPHONE, LTD.",
      "lat": "43.832739",
      "long": "-66.122859",
      "closest_city": {
        "name": "Yarmouth",
        "distance_km": 0.57
      }
    },
    {
      "country": "CA",
      "region": "NS",
      "exchange": "352195",
      "name": "CENTRALGRV",
      "full_name": "Central Grove",
      "lata": "888",
      "ilec_name": "MARITIME TELEGRAPH & TELEPHONE, LTD.",
      "lat": "44.272469",
      "long": "-66.316458",
      "closest_city": {
        "name": "Church Point",
        "distance_km": 17.28
      }
    },
    {
      "country": "CA",
      "region": "NS",
      "exchange": "352196",
      "name": "CENTRALWRV",
      "full_name": "Central West River",
      "lata": "888",
      "ilec_name": "MARITIME TELEGRAPH & TELEPHONE, LTD.",
      "lat": "45.54245",
      "long": "-62.894769",
      "closest_city": {
        "name": "Westville",
        "distance_km": 15.19
      }
    },
    {
      "country": "CA",
      "region": "NS",
      "exchange": "352197",
      "name": "CENTRE",
      "full_name": "Centre",
      "lata": "888",
      "ilec_name": "MARITIME TELEGRAPH & TELEPHONE, LTD.",
      "lat": "44.374589",
      "long": "-64.315887",
      "closest_city": {
        "name": "Lunenburg",
        "distance_km": 0.97
      }
    },
    {
      "country": "CA",
      "region": "NS",
      "exchange": "352198",
      "name": "CENTREDALE",
      "full_name": "Centredale",
      "lata": "888",
      "ilec_name": "MARITIME TELEGRAPH & TELEPHONE, LTD.",
      "lat": "45.459441",
      "long": "-62.711258",
      "closest_city": {
        "name": "Westville",
        "distance_km": 10.11
      }
    },
    {
      "country": "CA",
      "region": "NS",
      "exchange": "352199",
      "name": "CENTRELEA",
      "full_name": "Centrelea",
      "lata": "888",
      "ilec_name": "MARITIME TELEGRAPH & TELEPHONE, LTD.",
      "lat": "44.848657",
      "long": "-65.301552",
      "closest_city": {
        "name": "Middleton",
        "distance_km": 21.07
      }
    },
    {
      "country": "CA",
      "region": "NS",
      "exchange": "352200",
      "name": "CENTREVL E",
      "full_name": "Centreville East",
      "lata": "888",
      "ilec_name": "MARITIME TELEGRAPH & TELEPHONE, LTD.",
      "lat": "46.077098",
      "long": "-61.383562",
      "closest_city": {
        "name": "Inverness",
        "distance_km": 25.77
      }
    },
    {
      "country": "CA",
      "region": "NS",
      "exchange": "352201",
      "name": "CHANCE HBR",
      "full_name": "Chance Harbor",
      "lata": "888",
      "ilec_name": "MARITIME TELEGRAPH & TELEPHONE, LTD.",
      "lat": "45.582091",
      "long": "-62.639251",
      "closest_city": {
        "name": "New Glasgow",
        "distance_km": 1.27
      }
    },
    {
      "country": "CA",
      "region": "NS",
      "exchange": "352202",
      "name": "CHAPLIN",
      "full_name": "Chaplin",
      "lata": "888",
      "ilec_name": "MARITIME TELEGRAPH & TELEPHONE, LTD.",
      "lat": "45.141622",
      "long": "-62.951639",
      "closest_city": {
        "name": "Stewiacke",
        "distance_km": 31.11
      }
    },
    {
      "country": "CA",
      "region": "NS",
      "exchange": "352203",
      "name": "CHARLESVL",
      "full_name": "Charlesville",
      "lata": "888",
      "ilec_name": "MARITIME TELEGRAPH & TELEPHONE, LTD.",
      "lat": "43.550559",
      "long": "-65.732592",
      "closest_city": {
        "name": "Barrington",
        "distance_km": 13.68
      }
    },
    {
      "country": "CA",
      "region": "NS",
      "exchange": "352204",
      "name": "CHARLOS CV",
      "full_name": "Charlos Cove",
      "lata": "888",
      "ilec_name": "MARITIME TELEGRAPH & TELEPHONE, LTD.",
      "lat": "45.226752",
      "long": "-61.384857",
      "closest_city": {
        "name": "Port Hawkesbury",
        "distance_km": 43.23
      }
    },
    {
      "country": "CA",
      "region": "NS",
      "exchange": "352205",
      "name": "CHASWOOD",
      "full_name": "Chaswood",
      "lata": "888",
      "ilec_name": "MARITIME TELEGRAPH & TELEPHONE, LTD.",
      "lat": "45.050449",
      "long": "-63.150173",
      "closest_city": {
        "name": "Stewiacke",
        "distance_km": 18.6
      }
    },
    {
      "country": "CA",
      "region": "NS",
      "exchange": "352206",
      "name": "CHEBOQUE",
      "full_name": "Cheboque",
      "lata": "888",
      "ilec_name": "MARITIME TELEGRAPH & TELEPHONE, LTD.",
      "lat": "43.832739",
      "long": "-66.122859",
      "closest_city": {
        "name": "Yarmouth",
        "distance_km": 0.57
      }
    },
    {
      "country": "CA",
      "region": "NS",
      "exchange": "352207",
      "name": "CHEGOGGIN",
      "full_name": "Chegoggin",
      "lata": "888",
      "ilec_name": "MARITIME TELEGRAPH & TELEPHONE, LTD.",
      "lat": "43.832739",
      "long": "-66.122859",
      "closest_city": {
        "name": "Yarmouth",
        "distance_km": 0.57
      }
    },
    {
      "country": "CA",
      "region": "NS",
      "exchange": "128830",
      "name": "CHELSEA",
      "full_name": "Chelsea",
      "lata": "888",
      "ilec_name": "MARITIME TELEGRAPH & TELEPHONE, LTD.",
      "lat": "44.35009",
      "long": "-64.759923",
      "closest_city": {
        "name": "Bridgewater",
        "distance_km": 19.2
      }
    },
    {
      "country": "CA",
      "region": "NS",
      "exchange": "352209",
      "name": "CHERRY BRK",
      "full_name": "Cherry Brook",
      "lata": "888",
      "ilec_name": "MARITIME TELEGRAPH & TELEPHONE, LTD.",
      "lat": "44.651753",
      "long": "-63.581629",
      "closest_city": {
        "name": "Halifax",
        "distance_km": 0.85
      }
    },
    {
      "country": "CA",
      "region": "NS",
      "exchange": "128840",
      "name": "CHESTER",
      "full_name": "Chester",
      "lata": "888",
      "ilec_name": "MARITIME TELEGRAPH & TELEPHONE, LTD.",
      "lat": "44.549303",
      "long": "-64.259415",
      "closest_city": {
        "name": "Chester",
        "distance_km": 11.65
      }
    },
    {
      "country": "CA",
      "region": "NS",
      "exchange": "352211",
      "name": "CHESTERBSN",
      "full_name": "Chester Basin",
      "lata": "888",
      "ilec_name": "MARITIME TELEGRAPH & TELEPHONE, LTD.",
      "lat": "44.549303",
      "long": "-64.259415",
      "closest_city": {
        "name": "Chester",
        "distance_km": 11.65
      }
    },
    {
      "country": "CA",
      "region": "NS",
      "exchange": "128850",
      "name": "CHETICAMP",
      "full_name": "Chticamp",
      "lata": "888",
      "ilec_name": "MARITIME TELEGRAPH & TELEPHONE, LTD.",
      "lat": "46.626759",
      "long": "-61.010315",
      "closest_city": {
        "name": "Inverness",
        "distance_km": 47.95
      }
    },
    {
      "country": "CA",
      "region": "NS",
      "exchange": "128860",
      "name": "CHEVERIE",
      "full_name": "Cheverie",
      "lata": "888",
      "ilec_name": "MARITIME TELEGRAPH & TELEPHONE, LTD.",
      "lat": "45.167371",
      "long": "-64.170052",
      "closest_city": {
        "name": "Wolfville",
        "distance_km": 18.04
      }
    },
    {
      "country": "CA",
      "region": "NS",
      "exchange": "128870",
      "name": "CHEZZETCOK",
      "full_name": "Chezzetcook",
      "lata": "888",
      "ilec_name": "MARITIME TELEGRAPH & TELEPHONE, LTD.",
      "lat": "44.750318",
      "long": "-63.294084",
      "closest_city": {
        "name": "Halifax",
        "distance_km": 26.08
      }
    },
    {
      "country": "CA",
      "region": "NS",
      "exchange": "352215",
      "name": "CHIGNECTO",
      "full_name": "Chignecto",
      "lata": "888",
      "ilec_name": "MARITIME TELEGRAPH & TELEPHONE, LTD.",
      "lat": "45.717549",
      "long": "-64.247635",
      "closest_city": {
        "name": "Amherst",
        "distance_km": 11.28
      }
    },
    {
      "country": "CA",
      "region": "NS",
      "exchange": "352216",
      "name": "CHIMNEYCOR",
      "full_name": "Chimney Corner",
      "lata": "888",
      "ilec_name": "MARITIME TELEGRAPH & TELEPHONE, LTD.",
      "lat": "46.4337",
      "long": "-61.106588",
      "closest_city": {
        "name": "Inverness",
        "distance_km": 25.99
      }
    },
    {
      "country": "CA",
      "region": "NS",
      "exchange": "352217",
      "name": "CHIPMANCOR",
      "full_name": "Chipman Corner",
      "lata": "888",
      "ilec_name": "MARITIME TELEGRAPH & TELEPHONE, LTD.",
      "lat": "45.075722",
      "long": "-64.499909",
      "closest_city": {
        "name": "Kentville",
        "distance_km": 0.38
      }
    },
    {
      "country": "CA",
      "region": "NS",
      "exchange": "352218",
      "name": "CHRISTMASS",
      "full_name": "Christmas Island",
      "lata": "888",
      "ilec_name": "MARITIME TELEGRAPH & TELEPHONE, LTD.",
      "lat": "45.965688",
      "long": "-60.730799",
      "closest_city": {
        "name": "Inverness",
        "distance_km": 38.6
      }
    },
    {
      "country": "CA",
      "region": "NS",
      "exchange": "352219",
      "name": "CHURCH PT",
      "full_name": "Church Point",
      "lata": "888",
      "ilec_name": "MARITIME TELEGRAPH & TELEPHONE, LTD.",
      "lat": "44.258636",
      "long": "-66.125489",
      "closest_city": {
        "name": "Church Point",
        "distance_km": 8.33
      }
    },
    {
      "country": "CA",
      "region": "NS",
      "exchange": "352220",
      "name": "CHURCHOVER",
      "full_name": "Churchover",
      "lata": "888",
      "ilec_name": "MARITIME TELEGRAPH & TELEPHONE, LTD.",
      "lat": "43.76618",
      "long": "-65.324428",
      "closest_city": {
        "name": "Shelburne",
        "distance_km": 0.33
      }
    },
    {
      "country": "CA",
      "region": "NS",
      "exchange": "352221",
      "name": "CHURCHVIEW",
      "full_name": "Church View",
      "lata": "888",
      "ilec_name": "MARITIME TELEGRAPH & TELEPHONE, LTD.",
      "lat": "45.974207",
      "long": "-61.11313",
      "closest_city": {
        "name": "Inverness",
        "distance_km": 25.13
      }
    },
    {
      "country": "CA",
      "region": "NS",
      "exchange": "352222",
      "name": "CHURCHVL",
      "full_name": "Churchville",
      "lata": "888",
      "ilec_name": "MARITIME TELEGRAPH & TELEPHONE, LTD.",
      "lat": "45.582091",
      "long": "-62.639251",
      "closest_city": {
        "name": "New Glasgow",
        "distance_km": 1.27
      }
    },
    {
      "country": "CA",
      "region": "NS",
      "exchange": "352223",
      "name": "CLAMHARBOR",
      "full_name": "Clam Harbor",
      "lata": "888",
      "ilec_name": "MARITIME TELEGRAPH & TELEPHONE, LTD.",
      "lat": "44.816155",
      "long": "-62.886957",
      "closest_city": {
        "name": "Lantz",
        "distance_km": 50.06
      }
    },