{
  "rate_centers": [
    {
      "country": "CA",
      "region": "SK",
      "exchange": "181571",
      "name": "ABBEY",
      "full_name": "Abbey",
      "lata": "888",
      "ilec_name": "SASKTEL",
      "lat": "50.615291",
      "long": "-108.447252",
      "closest_city": {
        "name": "Swift Current",
        "distance_km": 58.85
      }
    },
    {
      "country": "CA",
      "region": "SK",
      "exchange": "358714",
      "name": "ABBOTT",
      "full_name": "Abbott",
      "lata": "888",
      "ilec_name": "SASKTEL",
      "lat": "49.651695",
      "long": "-104.660046",
      "closest_city": {
        "name": "Weyburn",
        "distance_km": 58.14
      }
    },
    {
      "country": "CA",
      "region": "SK",
      "exchange": "181350",
      "name": "ABERDEEN",
      "full_name": "Aberdeen",
      "lata": "888",
      "ilec_name": "SASKTEL",
      "lat": "52.325672",
      "long": "-106.293213",
      "closest_city": {
        "name": "Osler",
        "distance_km": 17.47
      }
    },
    {
      "country": "CA",
      "region": "SK",
      "exchange": "358716",
      "name": "ABERFELDY",
      "full_name": "Aberfeldy",
      "lata": "888",
      "ilec_name": "SASKTEL",
      "lat": "53.281744",
      "long": "-109.990798",
      "closest_city": {
        "name": "Lloydminster",
        "distance_km": 1.02
      }
    },
    {
      "country": "CA",
      "region": "SK",
      "exchange": "181411",
      "name": "ABERNETHY",
      "full_name": "Abernethy",
      "lata": "888",
      "ilec_name": "SASKTEL",
      "lat": "50.799049",
      "long": "-103.545563",
      "closest_city": {
        "name": "Fort Qu’Appelle",
        "distance_km": 17.1
      }
    },
    {
      "country": "CA",
      "region": "SK",
      "exchange": "358718",
      "name": "ACHENINILK",
      "full_name": "Acheninni Lake",
      "lata": "888",
      "ilec_name": "SASKTEL",
      "lat": "55.1742",
      "long": "-102.943484",
      "closest_city": {
        "name": "Pelican Narrows",
        "distance_km": 1.67
      }
    },
    {
      "country": "CA",
      "region": "SK",
      "exchange": "358719",
      "name": "ADA",
      "full_name": "Ada",
      "lata": "888",
      "ilec_name": "SASKTEL",
      "lat": "49.942517",
      "long": "-105.966108",
      "closest_city": {
        "name": "Assiniboia",
        "distance_km": 36.25
      }
    },
    {
      "country": "CA",
      "region": "SK",
      "exchange": "358720",
      "name": "ADAIR",
      "full_name": "Adair",
      "lata": "888",
      "ilec_name": "SASKTEL",
      "lat": "50.415211",
      "long": "-103.272464",
      "closest_city": {
        "name": "Grenfell",
        "distance_km": 25.21
      }
    },
    {
      "country": "CA",
      "region": "SK",
      "exchange": "358721",
      "name": "ADAMS",
      "full_name": "Adams",
      "lata": "888",
      "ilec_name": "SASKTEL",
      "lat": "50.450857",
      "long": "-104.6166",
      "closest_city": {
        "name": "Regina",
        "distance_km": 0.82
      }
    },
    {
      "country": "CA",
      "region": "SK",
      "exchange": "358722",
      "name": "ADANAC",
      "full_name": "Adanac",
      "lata": "888",
      "ilec_name": "SASKTEL",
      "lat": "52.443684",
      "long": "-109.1586",
      "closest_city": {
        "name": "Unity",
        "distance_km": 1.28
      }
    },
    {
      "country": "CA",
      "region": "SK",
      "exchange": "358723",
      "name": "ADMIRAL",
      "full_name": "Admiral",
      "lata": "888",
      "ilec_name": "SASKTEL",
      "lat": "49.631909",
      "long": "-108.397467",
      "closest_city": {
        "name": "Shaunavon",
        "distance_km": 2.37
      }
    },
    {
      "country": "CA",
      "region": "SK",
      "exchange": "358724",
      "name": "AHENAKEWLK",
      "full_name": "Ahenakew Lake",
      "lata": "888",
      "ilec_name": "SASKTEL",
      "lat": "58.113451",
      "long": "-103.164478",
      "closest_city": {
        "name": "Pelican Narrows",
        "distance_km": 325.57
      }
    },
    {
      "country": "CA",
      "region": "SK",
      "exchange": "358725",
      "name": "AIKINS",
      "full_name": "Aikins",
      "lata": "888",
      "ilec_name": "SASKTEL",
      "lat": "50.282245",
      "long": "-107.799758",
      "closest_city": {
        "name": "Swift Current",
        "distance_km": 0.77
      }
    },
    {
      "country": "CA",
      "region": "SK",
      "exchange": "182821",
      "name": "ALAMEDA",
      "full_name": "Alameda",
      "lata": "888",
      "ilec_name": "SASKTEL",
      "lat": "49.222437",
      "long": "-102.174102",
      "closest_city": {
        "name": "Oxbow",
        "distance_km": 1.32
      }
    },
    {
      "country": "CA",
      "region": "SK",
      "exchange": "358727",
      "name": "ALBATROSS",
      "full_name": "Albatross",
      "lata": "888",
      "ilec_name": "SASKTEL",
      "lat": "50.450857",
      "long": "-104.6166",
      "closest_city": {
        "name": "Regina",
        "distance_km": 0.82
      }
    },
    {
      "country": "CA",
      "region": "SK",
      "exchange": "358728",
      "name": "ALBERTVL",
      "full_name": "Albertville",
      "lata": "888",
      "ilec_name": "SASKTEL",
      "lat": "53.441042",
      "long": "-105.364985",
      "closest_city": {
        "name": "Buckland No. 491",
        "distance_km": 30.3
      }
    },
    {
      "country": "CA",
      "region": "SK",
      "exchange": "182824",
      "name": "ALIDA",
      "full_name": "Alida",
      "lata": "888",
      "ilec_name": "SASKTEL",
      "lat": "49.222437",
      "long": "-102.174102",
      "closest_city": {
        "name": "Oxbow",
        "distance_km": 1.32
      }
    },
    {
      "country": "CA",
      "region": "SK",
      "exchange": "358730",
      "name": "ALINGLY",
      "full_name": "Alingly",
      "lata": "888",
      "ilec_name": "SASKTEL",
      "lat": "53.198456",
      "long": "-105.759926",
      "closest_city": {
        "name": "Prince Albert",
        "distance_km": 0.68
      }
    },
    {
      "country": "CA",
      "region": "SK",
      "exchange": "181360",
      "name": "ALLAN",
      "full_name": "Allan",
      "lata": "888",
      "ilec_name": "SASKTEL",
      "lat": "51.893873",
      "long": "-106.058123",
      "closest_city": {
        "name": "Blucher",
        "distance_km": 17.21
      }
    },
    {
      "country": "CA",
      "region": "SK",
      "exchange": "358732",
      "name": "ALS BEACH",
      "full_name": "Als Beach",
      "lata": "888",
      "ilec_name": "SASKTEL",
      "lat": "53.355975",
      "long": "-108.339044",
      "closest_city": {
        "name": "Mervin No. 499",
        "distance_km": 41.34
      }
    },
    {
      "country": "CA",
      "region": "SK",
      "exchange": "358733",
      "name": "ALSASK",
      "full_name": "Alsask",
      "lata": "888",
      "ilec_name": "SASKTEL",
      "lat": "51.466576",
      "long": "-109.152868",
      "closest_city": {
        "name": "Kindersley",
        "distance_km": 0.3
      }
    },
    {
      "country": "CA",
      "region": "SK",
      "exchange": "358734",
      "name": "ALTICANE",
      "full_name": "Alticane",
      "lata": "888",
      "ilec_name": "SASKTEL",
      "lat": "52.710416",
      "long": "-107.561128",
      "closest_city": {
        "name": "North Battleford",
        "distance_km": 49.09
      }
    },
    {
      "country": "CA",
      "region": "SK",
      "exchange": "181370",
      "name": "ALVENA",
      "full_name": "Alvena",
      "lata": "888",
      "ilec_name": "SASKTEL",
      "lat": "52.518031",
      "long": "-106.023841",
      "closest_city": {
        "name": "Rosthern",
        "distance_km": 25.54
      }
    },
    {
      "country": "CA",
      "region": "SK",
      "exchange": "358736",
      "name": "AMAZON",
      "full_name": "Amazon",
      "lata": "888",
      "ilec_name": "SASKTEL",
      "lat": "51.674391",
      "long": "-105.467526",
      "closest_city": {
        "name": "Watrous",
        "distance_km": 1.08
      }
    },
    {
      "country": "CA",
      "region": "SK",
      "exchange": "358737",
      "name": "AMBASSADOR",
      "full_name": "Ambassador",
      "lata": "888",
      "ilec_name": "SASKTEL",
      "lat": "51.50915",
      "long": "-105.008634",
      "closest_city": {
        "name": "Watrous",
        "distance_km": 37.11
      }
    },
    {
      "country": "CA",
      "region": "SK",
      "exchange": "358738",
      "name": "AMISK LAKE",
      "full_name": "Amisk Lake",
      "lata": "888",
      "ilec_name": "SASKTEL",
      "lat": "55.1742",
      "long": "-102.943484",
      "closest_city": {
        "name": "Pelican Narrows",
        "distance_km": 1.67
      }
    },
    {
      "country": "CA",
      "region": "SK",
      "exchange": "358739",
      "name": "AMSTERDAM",
      "full_name": "Amsterdam",
      "lata": "888",
      "ilec_name": "SASKTEL",
      "lat": "51.63331",
      "long": "-102.436675",
      "closest_city": {
        "name": "Canora",
        "distance_km": 0.07
      }
    },
    {
      "country": "CA",
      "region": "SK",
      "exchange": "358740",
      "name": "AMYOT LAKE",
      "full_name": "Amyot Lake",
      "lata": "888",
      "ilec_name": "SASKTEL",
      "lat": "55.152502",
      "long": "-107.601278",
      "closest_city": {
        "name": "Ile-à-la-Crosse",
        "distance_km": 37.59
      }
    },
    {
      "country": "CA",
      "region": "SK",
      "exchange": "182251",
      "name": "ANEROID",
      "full_name": "Aneroid",
      "lata": "888",
      "ilec_name": "SASKTEL",
      "lat": "49.665802",
      "long": "-107.002732",
      "closest_city": {
        "name": "Gravelbourg",
        "distance_km": 39.62
      }
    },
    {
      "country": "CA",
      "region": "SK",
      "exchange": "358742",
      "name": "ANGLIA",
      "full_name": "Anglia",
      "lata": "888",
      "ilec_name": "SASKTEL",
      "lat": "51.55121",
      "long": "-107.991916",
      "closest_city": {
        "name": "Rosetown",
        "distance_km": 0.61
      }
    },
    {
      "country": "CA",
      "region": "SK",
      "exchange": "358743",
      "name": "ANGLINLAKE",
      "full_name": "Anglin Lake",
      "lata": "888",
      "ilec_name": "SASKTEL",
      "lat": "53.914907",
      "long": "-106.103712",
      "closest_city": {
        "name": "Shellbrook No. 493",
        "distance_km": 63.11
      }
    },
    {
      "country": "CA",
      "region": "SK",
      "exchange": "182161",
      "name": "ANNAHEIM",
      "full_name": "Annaheim",
      "lata": "888",
      "ilec_name": "SASKTEL",
      "lat": "52.201039",
      "long": "-105.122048",
      "closest_city": {
        "name": "Humboldt",
        "distance_km": 0.12
      }
    },
    {
      "country": "CA",
      "region": "SK",
      "exchange": "358745",
      "name": "ANTELOPE",
      "full_name": "Antelope",
      "lata": "888",
      "ilec_name": "SASKTEL",
      "lat": "50.090698",
      "long": "-108.481652",
      "closest_city": {
        "name": "Swift Current No. 137",
        "distance_km": 46.88
      }
    },
    {
      "country": "CA",
      "region": "SK",
      "exchange": "358746",
      "name": "ANTLER",
      "full_name": "Antler",
      "lata": "888",
      "ilec_name": "SASKTEL",
      "lat": "49.565027",
      "long": "-101.698442",
      "closest_city": {
        "name": "Carlyle",
        "distance_km": 41.65
      }
    },
    {
      "country": "CA",
      "region": "SK",
      "exchange": "358747",
      "name": "AQUADELL",
      "full_name": "Aquadell",
      "lata": "888",
      "ilec_name": "SASKTEL",
      "lat": "50.410314",
      "long": "-107.040787",
      "closest_city": {
        "name": "Swift Current",
        "distance_km": 55.14
      }
    },
    {
      "country": "CA",
      "region": "SK",
      "exchange": "358748",
      "name": "AQUADEOBCH",
      "full_name": "Aquadeo Beach",
      "lata": "888",
      "ilec_name": "SASKTEL",
      "lat": "52.773585",
      "long": "-108.302108",
      "closest_city": {
        "name": "North Battleford",
        "distance_km": 2.09
      }
    },
    {
      "country": "CA",
      "region": "SK",
      "exchange": "358749",
      "name": "ARABELLA",
      "full_name": "Arabella",
      "lata": "888",
      "ilec_name": "SASKTEL",
      "lat": "51.885024",
      "long": "-102.081828",
      "closest_city": {
        "name": "Canora",
        "distance_km": 37.11
      }
    },
    {
      "country": "CA",
      "region": "SK",
      "exchange": "182741",
      "name": "ARBORFIELD",
      "full_name": "Arborfield",
      "lata": "888",
      "ilec_name": "SASKTEL",
      "lat": "53.356287",
      "long": "-104.009225",
      "closest_city": {
        "name": "Nipawin",
        "distance_km": 0.67
      }
    },
    {
      "country": "CA",
      "region": "SK",
      "exchange": "358751",
      "name": "ARBURY",
      "full_name": "Arbury",
      "lata": "888",
      "ilec_name": "SASKTEL",
      "lat": "51.376075",
      "long": "-104.301397",
      "closest_city": {
        "name": "Wynyard",
        "distance_km": 44.2
      }
    },
    {
      "country": "CA",
      "region": "SK",
      "exchange": "358752",
      "name": "ARBUTHNOT",
      "full_name": "Arbuthnot",
      "lata": "888",
      "ilec_name": "SASKTEL",
      "lat": "49.665802",
      "long": "-107.002732",
      "closest_city": {
        "name": "Gravelbourg",
        "distance_km": 39.62
      }
    },
    {
      "country": "CA",
      "region": "SK",
      "exchange": "183121",
      "name": "ARCHERWILL",
      "full_name": "Archerwill",
      "lata": "888",
      "ilec_name": "SASKTEL",
      "lat": "52.302625",
      "long": "-103.834679",
      "closest_city": {
        "name": "Wadena",
        "distance_km": 39.74
      }
    },
    {
      "country": "CA",
      "region": "SK",
      "exchange": "358754",
      "name": "ARCHIVE",
      "full_name": "Archive",
      "lata": "888",
      "ilec_name": "SASKTEL",
      "lat": "50.394225",
      "long": "-105.53536",
      "closest_city": {
        "name": "Moose Jaw",
        "distance_km": 1.18
      }
    },
    {
      "country": "CA",
      "region": "SK",
      "exchange": "358755",
      "name": "ARCHYDAL",
      "full_name": "Archydal",
      "lata": "888",
      "ilec_name": "SASKTEL",
      "lat": "50.394225",
      "long": "-105.53536",
      "closest_city": {
        "name": "Moose Jaw",
        "distance_km": 1.18
      }
    },
    {
      "country": "CA",
      "region": "SK",
      "exchange": "181621",
      "name": "ARCOLA",
      "full_name": "Arcola",
      "lata": "888",
      "ilec_name": "SASKTEL",
      "lat": "49.631122",
      "long": "-102.265338",
      "closest_city": {
        "name": "Carlyle",
        "distance_km": 0.26
      }
    },
    {
      "country": "CA",
      "region": "SK",
      "exchange": "358757",
      "name": "ARDILL",
      "full_name": "Ardill",
      "lata": "888",
      "ilec_name": "SASKTEL",
      "lat": "49.942517",
      "long": "-105.966108",
      "closest_city": {
        "name": "Assiniboia",
        "distance_km": 36.25
      }
    },
    {
      "country": "CA",
      "region": "SK",
      "exchange": "358758",
      "name": "ARELEE",
      "full_name": "Arelee",
      "lata": "888",
      "ilec_name": "SASKTEL",
      "lat": "52.048322",
      "long": "-107.544428",
      "closest_city": {
        "name": "Biggar",
        "distance_km": 29.74
      }
    },
    {
      "country": "CA",
      "region": "SK",
      "exchange": "358759",
      "name": "ARGO",
      "full_name": "Argo",
      "lata": "888",
      "ilec_name": "SASKTEL",
      "lat": "52.056816",
      "long": "-107.983606",
      "closest_city": {
        "name": "Biggar",
        "distance_km": 0.4
      }
    },
    {
      "country": "CA",
      "region": "SK",
      "exchange": "358760",
      "name": "ARMA",
      "full_name": "Arma",
      "lata": "888",
      "ilec_name": "SASKTEL",
      "lat": "52.657018",
      "long": "-106.335413",
      "closest_city": {
        "name": "Rosthern",
        "distance_km": 0.79
      }
    },
    {
      "country": "CA",
      "region": "SK",
      "exchange": "358761",
      "name": "ARMIT",
      "full_name": "Armit",
      "lata": "888",
      "ilec_name": "SASKTEL",
      "lat": "52.860665",
      "long": "-102.391394",
      "closest_city": {
        "name": "Hudson Bay",
        "distance_km": 1.08
      }
    },
    {
      "country": "CA",
      "region": "SK",
      "exchange": "358762",
      "name": "ARMLEY",
      "full_name": "Armley",
      "lata": "888",
      "ilec_name": "SASKTEL",
      "lat": "52.849412",
      "long": "-104.052406",
      "closest_city": {
        "name": "Tisdale",
        "distance_km": 0.17
      }
    },
    {
      "country": "CA",
      "region": "SK",
      "exchange": "358763",
      "name": "ARPIERS",
      "full_name": "Arpiers",
      "lata": "888",
      "ilec_name": "SASKTEL",
      "lat": "51.976696",
      "long": "-105.876483",
      "closest_city": {
        "name": "Blucher",
        "distance_km": 23.71
      }
    },
    {
      "country": "CA",
      "region": "SK",
      "exchange": "358764",
      "name": "ARRAN",
      "full_name": "Arran",
      "lata": "888",
      "ilec_name": "SASKTEL",
      "lat": "51.860218",
      "long": "-101.916471",
      "closest_city": {
        "name": "Kamsack",
        "distance_km": 32.86
      }
    },
    {
      "country": "CA",
      "region": "SK",
      "exchange": "181380",
      "name": "ASQUITH",
      "full_name": "Asquith",
      "lata": "888",
      "ilec_name": "SASKTEL",
      "lat": "52.134321",
      "long": "-107.226598",
      "closest_city": {
        "name": "Vanscoy No. 345",
        "distance_km": 18.35
      }
    },
    {
      "country": "CA",
      "region": "SK",
      "exchange": "181390",
      "name": "ASSINIBOIA",
      "full_name": "Assiniboia",
      "lata": "888",
      "ilec_name": "SASKTEL",
      "lat": "49.63221",
      "long": "-105.994659",
      "closest_city": {
        "name": "Assiniboia",
        "distance_km": 1.91
      }
    },
    {
      "country": "CA",
      "region": "SK",
      "exchange": "358767",
      "name": "ATTICA",
      "full_name": "Attica",
      "lata": "888",
      "ilec_name": "SASKTEL",
      "lat": "51.8398",
      "long": "-105.033482",
      "closest_city": {
        "name": "Lanigan",
        "distance_km": 1.13
      }
    },
    {
      "country": "CA",
      "region": "SK",
      "exchange": "358768",
      "name": "ATTITTI LK",
      "full_name": "Attitti Lake",
      "lata": "888",
      "ilec_name": "SASKTEL",
      "lat": "55.1742",
      "long": "-102.943484",
      "closest_city": {
        "name": "Pelican Narrows",
        "distance_km": 1.67
      }
    },
    {
      "country": "CA",
      "region": "SK",
      "exchange": "358769",
      "name": "ATTONSLAKE",
      "full_name": "Attons Lake",
      "lata": "888",
      "ilec_name": "SASKTEL",
      "lat": "52.740097",
      "long": "-109.025533",
      "closest_city": {
        "name": "Unity",
        "distance_km": 35.42
      }
    },
    {
      "country": "CA",
      "region": "SK",
      "exchange": "358770",
      "name": "ATWATER",
      "full_name": "Atwater",
      "lata": "888",
      "ilec_name": "SASKTEL",
      "lat": "50.656074",
      "long": "-102.083321",
      "closest_city": {
        "name": "Esterhazy",
        "distance_km": 1.35
      }
    },
    {
      "country": "CA",
      "region": "SK",
      "exchange": "358771",
      "name": "AUBURTON",
      "full_name": "Auburton",
      "lata": "888",
      "ilec_name": "SASKTEL",
      "lat": "49.222437",
      "long": "-102.174102",
      "closest_city": {
        "name": "Oxbow",
        "distance_km": 1.32
      }
    },
    {
      "country": "CA",
      "region": "SK",
      "exchange": "358772",
      "name": "AVA",
      "full_name": "Ava",
      "lata": "888",
      "ilec_name": "SASKTEL",
      "lat": "51.78563",
      "long": "-108.642595",
      "closest_city": {
        "name": "Kerrobert",
        "distance_km": 36.48
      }
    },
    {
      "country": "CA",
      "region": "SK",
      "exchange": "358773",
      "name": "AVONHURST",
      "full_name": "Avonhurst",
      "lata": "888",
      "ilec_name": "SASKTEL",
      "lat": "50.54091",
      "long": "-103.871792",
      "closest_city": {
        "name": "South Qu'Appelle No. 157",
        "distance_km": 10.06
      }
    },
    {
      "country": "CA",
      "region": "SK",
      "exchange": "181400",
      "name": "AVONLEA",
      "full_name": "Avonlea",
      "lata": "888",
      "ilec_name": "SASKTEL",
      "lat": "50.016641",
      "long": "-105.056896",
      "closest_city": {
        "name": "Moose Jaw",
        "distance_km": 54.73
      }
    },
    {
      "country": "CA",
      "region": "SK",
      "exchange": "358775",
      "name": "AXFORD",
      "full_name": "Axford",
      "lata": "888",
      "ilec_name": "SASKTEL",
      "lat": "49.651695",
      "long": "-104.660046",
      "closest_city": {
        "name": "Weyburn",
        "distance_km": 58.14
      }
    },
    {
      "country": "CA",
      "region": "SK",
      "exchange": "358776",
      "name": "AYLESBURY",
      "full_name": "Aylesbury",
      "lata": "888",
      "ilec_name": "SASKTEL",
      "lat": "51.048814",
      "long": "-105.818635",
      "closest_city": {
        "name": "Davidson",
        "distance_km": 26.34
      }
    },
    {
      "country": "CA",
      "region": "SK",
      "exchange": "358777",
      "name": "AYLESHAM",
      "full_name": "Aylesham",
      "lata": "888",
      "ilec_name": "SASKTEL",
      "lat": "53.356287",
      "long": "-104.009225",
      "closest_city": {
        "name": "Nipawin",
        "distance_km": 0.67
      }
    },
    {
      "country": "CA",
      "region": "SK",
      "exchange": "358778",
      "name": "BAGLEY",
      "full_name": "Bagley",
      "lata": "888",
      "ilec_name": "SASKTEL",
      "lat": "52.855647",
      "long": "-104.606728",
      "closest_city": {
        "name": "Melfort",
        "distance_km": 0.24
      }
    },
    {
      "country": "CA",
      "region": "SK",
      "exchange": "358779",
      "name": "BAILDON",
      "full_name": "Baildon",
      "lata": "888",
      "ilec_name": "SASKTEL",
      "lat": "50.394225",
      "long": "-105.53536",
      "closest_city": {
        "name": "Moose Jaw",
        "distance_km": 1.18
      }
    },
    {
      "country": "CA",
      "region": "SK",
      "exchange": "181410",
      "name": "BALCARRES",
      "full_name": "Balcarres",
      "lata": "888",
      "ilec_name": "SASKTEL",
      "lat": "50.799049",
      "long": "-103.545563",
      "closest_city": {
        "name": "Fort Qu’Appelle",
        "distance_km": 17.1
      }
    },
    {
      "country": "CA",
      "region": "SK",
      "exchange": "358781",
      "name": "BALDWINTON",
      "full_name": "Baldwinton",
      "lata": "888",
      "ilec_name": "SASKTEL",
      "lat": "52.740097",
      "long": "-109.025533",
      "closest_city": {
        "name": "Unity",
        "distance_km": 35.42
      }
    },
    {
      "country": "CA",
      "region": "SK",
      "exchange": "181420",
      "name": "BALGONIE",
      "full_name": "Balgonie",
      "lata": "888",
      "ilec_name": "SASKTEL",
      "lat": "50.493821",
      "long": "-104.268169",
      "closest_city": {
        "name": "Balgonie",
        "distance_km": 0.65
      }
    },
    {
      "country": "CA",
      "region": "SK",
      "exchange": "358783",
      "name": "BALIOL",
      "full_name": "Baliol",
      "lata": "888",
      "ilec_name": "SASKTEL",
      "lat": "52.081688",
      "long": "-109.39011",
      "closest_city": {
        "name": "Kerrobert",
        "distance_km": 25.44
      }
    },
    {
      "country": "CA",
      "region": "SK",
      "exchange": "358784",
      "name": "BALJENNIE",
      "full_name": "Baljennie",
      "lata": "888",
      "ilec_name": "SASKTEL",
      "lat": "52.55818",
      "long": "-107.707647",
      "closest_city": {
        "name": "North Battleford",
        "distance_km": 44.87
      }
    },
    {
      "country": "CA",
      "region": "SK",
      "exchange": "358785",
      "name": "BALLINORA",
      "full_name": "Ballinora",
      "lata": "888",
      "ilec_name": "SASKTEL",
      "lat": "52.740097",
      "long": "-109.025533",
      "closest_city": {
        "name": "Unity",
        "distance_km": 35.42
      }
    },
    {
      "country": "CA",
      "region": "SK",
      "exchange": "358786",
      "name": "BANGOR",
      "full_name": "Bangor",
      "lata": "888",
      "ilec_name": "SASKTEL",
      "lat": "50.923804",
      "long": "-102.803669",
      "closest_city": {
        "name": "Melville",
        "distance_km": 0.81
      }
    },
    {
      "country": "CA",
      "region": "SK",
      "exchange": "358787",
      "name": "BANYARD LK",
      "full_name": "Banyard Lake",
      "lata": "888",
      "ilec_name": "SASKTEL",
      "lat": "56.333884",
      "long": "-103.243492",
      "closest_city": {
        "name": "Pelican Narrows",
        "distance_km": 128.84
      }
    },
    {
      "country": "CA",
      "region": "SK",
      "exchange": "358788",
      "name": "BAPAUME",
      "full_name": "Bapaume",
      "lata": "888",
      "ilec_name": "SASKTEL",
      "lat": "53.351989",
      "long": "-107.5094",
      "closest_city": {
        "name": "Spiritwood No. 496",
        "distance_km": 10.92
      }
    },
    {
      "country": "CA",
      "region": "SK",
      "exchange": "358789",
      "name": "BARBOUR",
      "full_name": "Barbour",
      "lata": "888",
      "ilec_name": "SASKTEL",
      "lat": "51.205639",
      "long": "-102.456051",
      "closest_city": {
        "name": "Yorkton",
        "distance_km": 1.03
      }
    },
    {
      "country": "CA",
      "region": "SK",
      "exchange": "358790",
      "name": "BARTHEL",
      "full_name": "Barthel",
      "lata": "888",
      "ilec_name": "SASKTEL",
      "lat": "54.026287",
      "long": "-109.153096",
      "closest_city": {
        "name": "Beaver River",
        "distance_km": 44.86
      }
    },
    {
      "country": "CA",
      "region": "SK",
      "exchange": "358791",
      "name": "BARVAS",
      "full_name": "Barvas",
      "lata": "888",
      "ilec_name": "SASKTEL",
      "lat": "51.205639",
      "long": "-102.456051",
      "closest_city": {
        "name": "Yorkton",
        "distance_km": 1.03
      }
    },
    {
      "country": "CA",
      "region": "SK",
      "exchange": "358792",
      "name": "BATEMAN",
      "full_name": "Bateman",
      "lata": "888",
      "ilec_name": "SASKTEL",
      "lat": "49.873377",
      "long": "-106.560279",
      "closest_city": {
        "name": "Gravelbourg",
        "distance_km": 0.38
      }
    },
    {
      "country": "CA",
      "region": "SK",
      "exchange": "358793",
      "name": "BATTLEFORD",
      "full_name": "Battleford",
      "lata": "888",
      "ilec_name": "SASKTEL",
      "lat": "52.773585",
      "long": "-108.302108",
      "closest_city": {
        "name": "North Battleford",
        "distance_km": 2.09
      }
    },
    {
      "country": "CA",
      "region": "SK",
      "exchange": "358794",
      "name": "BATTRUM",
      "full_name": "Battrum",
      "lata": "888",
      "ilec_name": "SASKTEL",
      "lat": "50.532569",
      "long": "-108.227214",
      "closest_city": {
        "name": "Swift Current",
        "distance_km": 41.01
      }
    },
    {
      "country": "CA",
      "region": "SK",
      "exchange": "358795",
      "name": "BAY TRIAL",
      "full_name": "Bay Trial",
      "lata": "888",
      "ilec_name": "SASKTEL",
      "lat": "52.201039",
      "long": "-105.122048",
      "closest_city": {
        "name": "Humboldt",
        "distance_km": 0.12
      }
    },
    {
      "country": "CA",
      "region": "SK",
      "exchange": "358796",
      "name": "BAYARD IS",
      "full_name": "Bayard Island",
      "lata": "888",
      "ilec_name": "SASKTEL",
      "lat": "55.107925",
      "long": "-105.267684",
      "closest_city": {
        "name": "La Ronge",
        "distance_km": 2.24
      }
    },
    {
      "country": "CA",
      "region": "SK",
      "exchange": "358797",
      "name": "BAYARD STA",
      "full_name": "Bayard Station",
      "lata": "888",
      "ilec_name": "SASKTEL",
      "lat": "50.157464",
      "long": "-105.268272",
      "closest_city": {
        "name": "Moose Jaw",
        "distance_km": 33.07
      }
    },
    {
      "country": "CA",
      "region": "SK",
      "exchange": "358798",
      "name": "BEACONHILL",
      "full_name": "Beacon Hill",
      "lata": "888",
      "ilec_name": "SASKTEL",
      "lat": "54.342494",
      "long": "-109.775562",
      "closest_city": {
        "name": "Beaver River",
        "distance_km": 14.18
      }
    },
    {
      "country": "CA",
      "region": "SK",
      "exchange": "358799",
      "name": "BEADLE",
      "full_name": "Beadle",
      "lata": "888",
      "ilec_name": "SASKTEL",
      "lat": "51.466576",
      "long": "-109.152868",
      "closest_city": {
        "name": "Kindersley",
        "distance_km": 0.3
      }
    },
    {
      "country": "CA",
      "region": "SK",
      "exchange": "358800",
      "name": "BEAR LAKE",
      "full_name": "Bear Lake",
      "lata": "888",
      "ilec_name": "SASKTEL",
      "lat": "55.107925",
      "long": "-105.267684",
      "closest_city": {
        "name": "La Ronge",
        "distance_km": 2.24
      }
    },
    {
      "country": "CA",
      "region": "SK",
      "exchange": "358801",
      "name": "BEATTY",
      "full_name": "Beatty",
      "lata": "888",
      "ilec_name": "SASKTEL",
      "lat": "52.855647",
      "long": "-104.606728",
      "closest_city": {
        "name": "Melfort",
        "distance_km": 0.24
      }
    },
    {
      "country": "CA",
      "region": "SK",
      "exchange": "358802",
      "name": "BEAUFIELD",
      "full_name": "Beaufield",
      "lata": "888",
      "ilec_name": "SASKTEL",
      "lat": "51.916258",
      "long": "-109.131697",
      "closest_city": {
        "name": "Kerrobert",
        "distance_km": 0.52
      }
    },
    {
      "country": "CA",
      "region": "SK",
      "exchange": "181430",
      "name": "BEAUVAL",
      "full_name": "Beauval",
      "lata": "888",
      "ilec_name": "SASKTEL",
      "lat": "55.152502",
      "long": "-107.601278",
      "closest_city": {
        "name": "Ile-à-la-Crosse",
        "distance_km": 37.59
      }
    },
    {
      "country": "CA",
      "region": "SK",
      "exchange": "358804",
      "name": "BEAVERDALE",
      "full_name": "Beaver Dale",
      "lata": "888",
      "ilec_name": "SASKTEL",
      "lat": "51.341563",
      "long": "-102.738752",
      "closest_city": {
        "name": "Orkney No. 244",
        "distance_km": 11.49
      }
    },
    {
      "country": "CA",
      "region": "SK",
      "exchange": "358805",
      "name": "BEAVERFLTS",
      "full_name": "Beaver Flats",
      "lata": "888",
      "ilec_name": "SASKTEL",
      "lat": "50.42336",
      "long": "-107.227801",
      "closest_city": {
        "name": "Swift Current",
        "distance_km": 42.89
      }
    },
    {
      "country": "CA",
      "region": "SK",
      "exchange": "358806",
      "name": "BECHARD",
      "full_name": "Bechard",
      "lata": "888",
      "ilec_name": "SASKTEL",
      "lat": "50.109122",
      "long": "-104.319212",
      "closest_city": {
        "name": "Lajord No. 128",
        "distance_km": 10.87
      }
    },
    {
      "country": "CA",
      "region": "SK",
      "exchange": "181440",
      "name": "BEECHY",
      "full_name": "Beechy",
      "lata": "888",
      "ilec_name": "SASKTEL",
      "lat": "50.872552",
      "long": "-107.38227",
      "closest_city": {
        "name": "Swift Current",
        "distance_km": 71.19
      }
    },
    {
      "country": "CA",
      "region": "SK",
      "exchange": "358808",
      "name": "BELBECK",
      "full_name": "Belbeck",
      "lata": "888",
      "ilec_name": "SASKTEL",
      "lat": "50.394225",
      "long": "-105.53536",
      "closest_city": {
        "name": "Moose Jaw",
        "distance_km": 1.18
      }
    },
    {
      "country": "CA",
      "region": "SK",
      "exchange": "358809",
      "name": "BELBUTTE",
      "full_name": "Belbutte",
      "lata": "888",
      "ilec_name": "SASKTEL",
      "lat": "53.351989",
      "long": "-107.5094",
      "closest_city": {
        "name": "Spiritwood No. 496",
        "distance_km": 10.92
      }
    },
    {
      "country": "CA",
      "region": "SK",
      "exchange": "358810",
      "name": "BELLEGARDE",
      "full_name": "Bellegarde",
      "lata": "888",
      "ilec_name": "SASKTEL",
      "lat": "49.565027",
      "long": "-101.698442",
      "closest_city": {
        "name": "Carlyle",
        "distance_km": 41.65
      }
    },
    {
      "country": "CA",
      "region": "SK",
      "exchange": "358811",
      "name": "BELLEPLAIN",
      "full_name": "Belle Plaine",
      "lata": "888",
      "ilec_name": "SASKTEL",
      "lat": "50.415298",
      "long": "-104.983035",
      "closest_city": {
        "name": "Lumsden",
        "distance_km": 26.95
      }
    },
    {
      "country": "CA",
      "region": "SK",
      "exchange": "358812",
      "name": "BENDER",
      "full_name": "Bender",
      "lata": "888",
      "ilec_name": "SASKTEL",
      "lat": "50.101549",
      "long": "-102.625998",
      "closest_city": {
        "name": "Kipling",
        "distance_km": 0.46
      }
    },
    {
      "country": "CA",
      "region": "SK",
      "exchange": "181450",
      "name": "BENGOUGH",
      "full_name": "Bengough",
      "lata": "888",
      "ilec_name": "SASKTEL",
      "lat": "49.39179",
      "long": "-105.126749",
      "closest_city": {
        "name": "Assiniboia",
        "distance_km": 66.71
      }
    },
    {
      "country": "CA",
      "region": "SK",
      "exchange": "358814",
      "name": "BENSON",
      "full_name": "Benson",
      "lata": "888",
      "ilec_name": "SASKTEL",
      "lat": "49.141858",
      "long": "-102.991056",
      "closest_city": {
        "name": "Estevan",
        "distance_km": 0.47
      }
    },
    {
      "country": "CA",
      "region": "SK",
      "exchange": "358815",
      "name": "BERESINO",
      "full_name": "Beresino",
      "lata": "888",
      "ilec_name": "SASKTEL",
      "lat": "50.891016",
      "long": "-101.886238",
      "closest_city": {
        "name": "Langenburg",
        "distance_km": 14.56
      }
    },
    {
      "country": "CA",
      "region": "SK",
      "exchange": "358816",
      "name": "BERTRUMBAY",
      "full_name": "Bertrum Bay",
      "lata": "888",
      "ilec_name": "SASKTEL",
      "lat": "55.1742",
      "long": "-102.943484",
      "closest_city": {
        "name": "Pelican Narrows",
        "distance_km": 1.67
      }
    },
    {
      "country": "CA",
      "region": "SK",
      "exchange": "358817",
      "name": "BERTWELL",
      "full_name": "Bertwell",
      "lata": "888",
      "ilec_name": "SASKTEL",
      "lat": "52.860665",
      "long": "-102.391394",
      "closest_city": {
        "name": "Hudson Bay",
        "distance_km": 1.08
      }
    },
    {
      "country": "CA",
      "region": "SK",
      "exchange": "358818",
      "name": "BESANT",
      "full_name": "Besant",
      "lata": "888",
      "ilec_name": "SASKTEL",
      "lat": "50.394225",
      "long": "-105.53536",
      "closest_city": {
        "name": "Moose Jaw",
        "distance_km": 1.18
      }
    },
    {
      "country": "CA",
      "region": "SK",
      "exchange": "358819",
      "name": "BETHEL BAY",
      "full_name": "Bethel Bay",
      "lata": "888",
      "ilec_name": "SASKTEL",
      "lat": "55.107925",
      "long": "-105.267684",
      "closest_city": {
        "name": "La Ronge",
        "distance_km": 2.24
      }
    },
    {
      "country": "CA",
      "region": "SK",
      "exchange": "181460",
      "name": "BETHUNE",
      "full_name": "Bethune",
      "lata": "888",
      "ilec_name": "SASKTEL",
      "lat": "50.707608",
      "long": "-105.210885",
      "closest_city": {
        "name": "Regina Beach",
        "distance_km": 18.04
      }
    },
    {
      "country": "CA",
      "region": "SK",
      "exchange": "358821",
      "name": "BETTALOCK",
      "full_name": "Bettalock",
      "lata": "888",
      "ilec_name": "SASKTEL",
      "lat": "51.483975",
      "long": "-107.059753",
      "closest_city": {
        "name": "Outlook",
        "distance_km": 1.91
      }
    },
    {
      "country": "CA",
      "region": "SK",
      "exchange": "358822",
      "name": "BEVERLEY",
      "full_name": "Beverley",
      "lata": "888",
      "ilec_name": "SASKTEL",
      "lat": "50.282245",
      "long": "-107.799758",
      "closest_city": {
        "name": "Swift Current",
        "distance_km": 0.77
      }
    },
    {
      "country": "CA",
      "region": "SK",
      "exchange": "358823",
      "name": "BEXHILL",
      "full_name": "Bexhill",
      "lata": "888",
      "ilec_name": "SASKTEL",
      "lat": "49.63221",
      "long": "-105.994659",
      "closest_city": {
        "name": "Assiniboia",
        "distance_km": 1.91
      }
    },
    {
      "country": "CA",
      "region": "SK",
      "exchange": "358824",
      "name": "BGSNNDRSRV",
      "full_name": "Bigstone Indian Reserve",
      "lata": "888",
      "ilec_name": "SASKTEL",
      "lat": "55.107925",
      "long": "-105.267684",
      "closest_city": {
        "name": "La Ronge",
        "distance_km": 2.24
      }
    },
    {
      "country": "CA",
      "region": "SK",
      "exchange": "181470",
      "name": "BIENFAIT",
      "full_name": "Bienfait",
      "lata": "888",
      "ilec_name": "SASKTEL",
      "lat": "49.141571",
      "long": "-102.808182",
      "closest_city": {
        "name": "Estevan",
        "distance_km": 12.95
      }
    },
    {
      "country": "CA",
      "region": "SK",
      "exchange": "358826",
      "name": "BIG BEAVER",
      "full_name": "Big Beaver",
      "lata": "888",
      "ilec_name": "SASKTEL",
      "lat": "49.107378",
      "long": "-105.518961",
      "closest_city": {
        "name": "Assiniboia",
        "distance_km": 65.86
      }
    },
    {
      "country": "CA",
      "region": "SK",
      "exchange": "358827",
      "name": "BIG ISLAND",
      "full_name": "Big Island",
      "lata": "888",
      "ilec_name": "SASKTEL",
      "lat": "55.152502",
      "long": "-107.601278",
      "closest_city": {
        "name": "Ile-à-la-Crosse",
        "distance_km": 37.59
      }
    },
    {
      "country": "CA",
      "region": "SK",
      "exchange": "181480",
      "name": "BIG RIVER",
      "full_name": "Big River",
      "lata": "888",
      "ilec_name": "SASKTEL",
      "lat": "53.823197",
      "long": "-107.035852",
      "closest_city": {
        "name": "Canwood No. 494",
        "distance_km": 44.11
      }
    },
    {
      "country": "CA",
      "region": "SK",
      "exchange": "181490",
      "name": "BIGGAR",
      "full_name": "Biggar",
      "lata": "888",
      "ilec_name": "SASKTEL",
      "lat": "52.056816",
      "long": "-107.983606",
      "closest_city": {
        "name": "Biggar",
        "distance_km": 0.4
      }
    },
    {
      "country": "CA",
      "region": "SK",
      "exchange": "358830",
      "name": "BIGSTONELK",
      "full_name": "Bigstone Lake",
      "lata": "888",
      "ilec_name": "SASKTEL",
      "lat": "55.1742",
      "long": "-102.943484",
      "closest_city": {
        "name": "Pelican Narrows",
        "distance_km": 1.67
      }
    },
    {
      "country": "CA",
      "region": "SK",
      "exchange": "358831",
      "name": "BING LAKE",
      "full_name": "Bing Lake",
      "lata": "888",
      "ilec_name": "SASKTEL",
      "lat": "55.107925",
      "long": "-105.267684",
      "closest_city": {
        "name": "La Ronge",
        "distance_km": 2.24
      }
    },
    {
      "country": "CA",
      "region": "SK",
      "exchange": "358832",
      "name": "BIRCH LAKE",
      "full_name": "Birch Lake",
      "lata": "888",
      "ilec_name": "SASKTEL",
      "lat": "55.1742",
      "long": "-102.943484",
      "closest_city": {
        "name": "Pelican Narrows",
        "distance_km": 1.67
      }
    },
    {
      "country": "CA",
      "region": "SK",
      "exchange": "358833",
      "name": "BIRCH RPDS",
      "full_name": "Birch Rapids",
      "lata": "888",
      "ilec_name": "SASKTEL",
      "lat": "55.107925",
      "long": "-105.267684",
      "closest_city": {
        "name": "La Ronge",
        "distance_km": 2.24
      }
    },
    {
      "country": "CA",
      "region": "SK",
      "exchange": "181500",
      "name": "BIRCHHILLS",
      "full_name": "Birch Hills",
      "lata": "888",
      "ilec_name": "SASKTEL",
      "lat": "52.984104",
      "long": "-105.433014",
      "closest_city": {
        "name": "Birch Hills",
        "distance_km": 0.09
      }
    },
    {
      "country": "CA",
      "region": "SK",
      "exchange": "358835",
      "name": "BIRCHPOINT",
      "full_name": "Birch Point",
      "lata": "888",
      "ilec_name": "SASKTEL",
      "lat": "56.333884",
      "long": "-103.243492",
      "closest_city": {
        "name": "Pelican Narrows",
        "distance_km": 128.84
      }
    },
    {
      "country": "CA",
      "region": "SK",
      "exchange": "358836",
      "name": "BIRDVIEW",
      "full_name": "Birdview",
      "lata": "888",
      "ilec_name": "SASKTEL",
      "lat": "51.91465",
      "long": "-107.133444",
      "closest_city": {
        "name": "Delisle",
        "distance_km": 1.2
      }
    },
    {
      "country": "CA",
      "region": "SK",
      "exchange": "358837",
      "name": "BIRLING",
      "full_name": "Birling",
      "lata": "888",
      "ilec_name": "SASKTEL",
      "lat": "53.085118",
      "long": "-109.292186",
      "closest_city": {
        "name": "Maidstone",
        "distance_km": 0.77
      }
    },
    {
      "country": "CA",
      "region": "SK",
      "exchange": "358838",
      "name": "BIRMINGHAM",
      "full_name": "Birmingham",
      "lata": "888",
      "ilec_name": "SASKTEL",
      "lat": "50.923804",
      "long": "-102.803669",
      "closest_city": {
        "name": "Melville",
        "distance_km": 0.81
      }
    },
    {
      "country": "CA",
      "region": "SK",
      "exchange": "182451",
      "name": "BIRSAY",
      "full_name": "Birsay",
      "lata": "888",
      "ilec_name": "SASKTEL",
      "lat": "50.983215",
      "long": "-107.136105",
      "closest_city": {
        "name": "Outlook",
        "distance_km": 57.78
      }
    },
    {
      "country": "CA",
      "region": "SK",
      "exchange": "358840",
      "name": "BISHOPRIC",
      "full_name": "Bishopric",
      "lata": "888",
      "ilec_name": "SASKTEL",
      "lat": "49.942517",
      "long": "-105.966108",
      "closest_city": {
        "name": "Assiniboia",
        "distance_km": 36.25
      }
    },
    {
      "country": "CA",
      "region": "SK",
      "exchange": "183371",
      "name": "BJORKDALE",
      "full_name": "Bjorkdale",
      "lata": "888",
      "ilec_name": "SASKTEL",
      "lat": "52.849412",
      "long": "-104.052406",
      "closest_city": {
        "name": "Tisdale",
        "distance_km": 0.17
      }
    },
    {
      "country": "CA",
      "region": "SK",
      "exchange": "358842",
      "name": "BLACK LAKE",
      "full_name": "Black Lake",
      "lata": "888",
      "ilec_name": "SASKTEL",
      "lat": "59.190499",
      "long": "-105.713207",
      "closest_city": {
        "name": "La Loche",
        "distance_km": 372.85
      }
    },
    {
      "country": "CA",
      "region": "SK",
      "exchange": "358843",
      "name": "BLACKBRSLK",
      "full_name": "Black Bear Island Lake",
      "lata": "888",
      "ilec_name": "SASKTEL",
      "lat": "55.107925",
      "long": "-105.267684",
      "closest_city": {
        "name": "La Ronge",
        "distance_km": 2.24
      }
    },
    {
      "country": "CA",
      "region": "SK",
      "exchange": "358844",
      "name": "BLADWORTH",
      "full_name": "Bladworth",
      "lata": "888",
      "ilec_name": "SASKTEL",
      "lat": "51.264326",
      "long": "-105.981474",
      "closest_city": {
        "name": "Davidson",
        "distance_km": 1.06
      }
    },
    {
      "country": "CA",
      "region": "SK",
      "exchange": "181510",
      "name": "BLAINELAKE",
      "full_name": "Blaine Lake",
      "lata": "888",
      "ilec_name": "SASKTEL",
      "lat": "52.824662",
      "long": "-106.885281",
      "closest_city": {
        "name": "Waldheim",
        "distance_km": 26.54
      }
    },
    {
      "country": "CA",
      "region": "SK",
      "exchange": "358846",
      "name": "BLCKSTRPLK",
      "full_name": "Blackstrap Lake",
      "lata": "888",
      "ilec_name": "SASKTEL",
      "lat": "51.807985",
      "long": "-106.499605",
      "closest_city": {
        "name": "Dundurn No. 314",
        "distance_km": 3.52
      }
    },
    {
      "country": "CA",
      "region": "SK",
      "exchange": "358847",
      "name": "BLEWETT",
      "full_name": "Blewett",
      "lata": "888",
      "ilec_name": "SASKTEL",
      "lat": "49.141858",
      "long": "-102.991056",
      "closest_city": {
        "name": "Estevan",
        "distance_km": 0.47
      }
    },
    {
      "country": "CA",
      "region": "SK",
      "exchange": "358848",
      "name": "BLSPNDRSRV",
      "full_name": "Bells Point Indian Reserve",
      "lata": "888",
      "ilec_name": "SASKTEL",
      "lat": "55.107925",
      "long": "-105.267684",
      "closest_city": {
        "name": "La Ronge",
        "distance_km": 2.24
      }
    },
    {
      "country": "CA",
      "region": "SK",
      "exchange": "358849",
      "name": "BLUCHER",
      "full_name": "Blucher",
      "lata": "888",
      "ilec_name": "SASKTEL",
      "lat": "52.1263",
      "long": "-106.662942",
      "closest_city": {
        "name": "Saskatoon",
        "distance_km": 1.59
      }
    },
    {
      "country": "CA",
      "region": "SK",
      "exchange": "358850",
      "name": "BLUE HERON",
      "full_name": "Blue Heron",
      "lata": "888",
      "ilec_name": "SASKTEL",
      "lat": "53.359918",
      "long": "-106.609662",
      "closest_city": {
        "name": "Canwood No. 494",
        "distance_km": 15.5
      }
    },
    {
      "country": "CA",
      "region": "SK",
      "exchange": "358851",
      "name": "BLUEBELL",
      "full_name": "Bluebell",
      "lata": "888",
      "ilec_name": "SASKTEL",
      "lat": "54.123389",
      "long": "-108.416192",
      "closest_city": {
        "name": "Meadow Lake",
        "distance_km": 1.28
      }
    },
    {
      "country": "CA",
      "region": "SK",
      "exchange": "358852",
      "name": "BLUMENHOF",
      "full_name": "Blumenhof",
      "lata": "888",
      "ilec_name": "SASKTEL",
      "lat": "49.958519",
      "long": "-107.624677",
      "closest_city": {
        "name": "Swift Current No. 137",
        "distance_km": 33.54
      }
    },
    {
      "country": "CA",
      "region": "SK",
      "exchange": "358853",
      "name": "BLUMENORT",
      "full_name": "Blumenort",
      "lata": "888",
      "ilec_name": "SASKTEL",
      "lat": "49.958519",
      "long": "-107.624677",
      "closest_city": {
        "name": "Swift Current No. 137",
        "distance_km": 33.54
      }
    },
    {
      "country": "CA",
      "region": "SK",
      "exchange": "358854",
      "name": "BODMIN",
      "full_name": "Bodmin",
      "lata": "888",
      "ilec_name": "SASKTEL",
      "lat": "53.823197",
      "long": "-107.035852",
      "closest_city": {
        "name": "Canwood No. 494",
        "distance_km": 44.11
      }
    },
    {
      "country": "CA",
      "region": "SK",
      "exchange": "358855",
      "name": "BOHARM",
      "full_name": "Boharm",
      "lata": "888",
      "ilec_name": "SASKTEL",
      "lat": "50.394225",
      "long": "-105.53536",
      "closest_city": {
        "name": "Moose Jaw",
        "distance_km": 1.18
      }
    },
    {
      "country": "CA",
      "region": "SK",
      "exchange": "358856",
      "name": "BONANZA PT",
      "full_name": "Bonanza Point",
      "lata": "888",
      "ilec_name": "SASKTEL",
      "lat": "55.107925",
      "long": "-105.267684",
      "closest_city": {
        "name": "La Ronge",
        "distance_km": 2.24
      }
    },
    {
      "country": "CA",
      "region": "SK",
      "exchange": "358857",
      "name": "BONEMADONE",
      "full_name": "Bonne Madone",
      "lata": "888",
      "ilec_name": "SASKTEL",
      "lat": "52.64915",
      "long": "-105.732802",
      "closest_city": {
        "name": "St. Louis No. 431",
        "distance_km": 20.19
      }
    },
    {
      "country": "CA",
      "region": "SK",
      "exchange": "181520",
      "name": "BORDEN",
      "full_name": "Borden",
      "lata": "888",
      "ilec_name": "SASKTEL",
      "lat": "52.397958",
      "long": "-107.241114",
      "closest_city": {
        "name": "Langham",
        "distance_km": 18.95
      }
    },
    {
      "country": "CA",
      "region": "SK",
      "exchange": "358859",
      "name": "BOTHSIDING",
      "full_name": "Booth Siding",
      "lata": "888",
      "ilec_name": "SASKTEL",
      "lat": "51.408775",
      "long": "-104.727431",
      "closest_city": {
        "name": "Longlaketon No. 219",
        "distance_km": 52.34
      }
    },
    {
      "country": "CA",
      "region": "SK",
      "exchange": "358860",
      "name": "BOW RIVER",
      "full_name": "Bow River",
      "lata": "888",
      "ilec_name": "SASKTEL",
      "lat": "55.107925",
      "long": "-105.267684",
      "closest_city": {
        "name": "La Ronge",
        "distance_km": 2.24
      }
    },
    {
      "country": "CA",
      "region": "SK",
      "exchange": "358861",
      "name": "BRABANT LK",
      "full_name": "Brabant Lake",
      "lata": "888",
      "ilec_name": "SASKTEL",
      "lat": "56.333884",
      "long": "-103.243492",
      "closest_city": {
        "name": "Pelican Narrows",
        "distance_km": 128.84
      }
    },
    {
      "country": "CA",
      "region": "SK",
      "exchange": "358862",
      "name": "BRACKEN",
      "full_name": "Bracken",
      "lata": "888",
      "ilec_name": "SASKTEL",
      "lat": "49.198753",
      "long": "-108.384918",
      "closest_city": {
        "name": "Shaunavon",
        "distance_km": 50.33
      }
    },
    {
      "country": "CA",
      "region": "SK",
      "exchange": "358863",
      "name": "BRADA",
      "full_name": "Brada",
      "lata": "888",
      "ilec_name": "SASKTEL",
      "lat": "52.773585",
      "long": "-108.302108",
      "closest_city": {
        "name": "North Battleford",
        "distance_km": 2.09
      }
    },
    {
      "country": "CA",
      "region": "SK",
      "exchange": "358864",
      "name": "BRADDOCK",
      "full_name": "Braddock",
      "lata": "888",
      "ilec_name": "SASKTEL",
      "lat": "50.222494",
      "long": "-107.249031",
      "closest_city": {
        "name": "Swift Current",
        "distance_km": 39.42
      }
    },
    {
      "country": "CA",
      "region": "SK",
      "exchange": "358865",
      "name": "BRADWELL",
      "full_name": "Bradwell",
      "lata": "888",
      "ilec_name": "SASKTEL",
      "lat": "51.893873",
      "long": "-106.058123",
      "closest_city": {
        "name": "Blucher",
        "distance_km": 17.21
      }
    },
    {
      "country": "CA",
      "region": "SK",
      "exchange": "358866",
      "name": "BRANCEPETH",
      "full_name": "Brancepeth",
      "lata": "888",
      "ilec_name": "SASKTEL",
      "lat": "52.984104",
      "long": "-105.433014",
      "closest_city": {
        "name": "Birch Hills",
        "distance_km": 0.09
      }
    },
    {
      "country": "CA",
      "region": "SK",
      "exchange": "358867",
      "name": "BRCRKSLMNT",
      "full_name": "Bear Creek Settlement",
      "lata": "888",
      "ilec_name": "SASKTEL",
      "lat": "56.482221",
      "long": "-109.434436",
      "closest_city": {
        "name": "La Loche",
        "distance_km": 0.14
      }
    },
    {
      "country": "CA",
      "region": "SK",
      "exchange": "358868",
      "name": "BRDSDRSRVN",
      "full_name": "Beardys Indian Reservation",
      "lata": "888",
      "ilec_name": "SASKTEL",
      "lat": "52.809523",
      "long": "-106.222336",
      "closest_city": {
        "name": "Duck Lake No. 463",
        "distance_km": 16.71
      }
    },
    {
      "country": "CA",
      "region": "SK",
      "exchange": "183161",
      "name": "BREDENBURY",
      "full_name": "Bredenbury",
      "lata": "888",
      "ilec_name": "SASKTEL",
      "lat": "51.041368",
      "long": "-102.15872",
      "closest_city": {
        "name": "Yorkton",
        "distance_km": 28.61
      }
    },
    {
      "country": "CA",
      "region": "SK",
      "exchange": "358870",
      "name": "BREEZE",
      "full_name": "Breeze",
      "lata": "888",
      "ilec_name": "SASKTEL",
      "lat": "49.37394",
      "long": "-102.761363",
      "closest_city": {
        "name": "Estevan",
        "distance_km": 30.78
      }
    },
    {
      "country": "CA",
      "region": "SK",
      "exchange": "358871",
      "name": "BREMEN",
      "full_name": "Bremen",
      "lata": "888",
      "ilec_name": "SASKTEL",
      "lat": "52.491549",
      "long": "-105.733334",
      "closest_city": {
        "name": "St. Louis No. 431",
        "distance_km": 37.56
      }
    },
    {
      "country": "CA",
      "region": "SK",
      "exchange": "358872",
      "name": "BREWER",
      "full_name": "Brewer",
      "lata": "888",
      "ilec_name": "SASKTEL",
      "lat": "50.923804",
      "long": "-102.803669",
      "closest_city": {
        "name": "Melville",
        "distance_km": 0.81
      }
    },
    {
      "country": "CA",
      "region": "SK",
      "exchange": "358873",
      "name": "BRIARLEA",
      "full_name": "Briarlea",
      "lata": "888",
      "ilec_name": "SASKTEL",
      "lat": "53.198456",
      "long": "-105.759926",
      "closest_city": {
        "name": "Prince Albert",
        "distance_km": 0.68
      }
    },
    {
      "country": "CA",
      "region": "SK",
      "exchange": "358874",
      "name": "BRIDGEFORD",
      "full_name": "Bridgeford",
      "lata": "888",
      "ilec_name": "SASKTEL",
      "lat": "50.789006",
      "long": "-106.506232",
      "closest_city": {
        "name": "Davidson",
        "distance_km": 65.15
      }
    },
    {
      "country": "CA",
      "region": "SK",
      "exchange": "181530",
      "name": "BRIERCREST",
      "full_name": "Briercrest",
      "lata": "888",
      "ilec_name": "SASKTEL",
      "lat": "50.157464",
      "long": "-105.268272",
      "closest_city": {
        "name": "Moose Jaw",
        "distance_km": 33.07
      }
    },
    {
      "country": "CA",
      "region": "SK",
      "exchange": "358876",
      "name": "BRIGHTHLME",
      "full_name": "Brightholme",
      "lata": "888",
      "ilec_name": "SASKTEL",
      "lat": "53.214134",
      "long": "-106.389824",
      "closest_city": {
        "name": "Shellbrook",
        "distance_km": 0.74
      }
    },
    {
      "country": "CA",
      "region": "SK",
      "exchange": "358877",
      "name": "BRIGHTMORE",
      "full_name": "Brightmore",
      "lata": "888",
      "ilec_name": "SASKTEL",
      "lat": "49.808242",
      "long": "-104.161753",
      "closest_city": {
        "name": "Weyburn",
        "distance_km": 27.6
      }
    },
    {
      "country": "CA",
      "region": "SK",
      "exchange": "358878",
      "name": "BROADACRES",
      "full_name": "Broadacres",
      "lata": "888",
      "ilec_name": "SASKTEL",
      "lat": "51.916258",
      "long": "-109.131697",
      "closest_city": {
        "name": "Kerrobert",
        "distance_km": 0.52
      }
    },
    {
      "country": "CA",
      "region": "SK",
      "exchange": "181540",
      "name": "BROADVIEW",
      "full_name": "Broadview",
      "lata": "888",
      "ilec_name": "SASKTEL",
      "lat": "50.376193",
      "long": "-102.571624",
      "closest_city": {
        "name": "Grenfell",
        "distance_km": 24.87
      }
    },
    {
      "country": "CA",
      "region": "SK",
      "exchange": "182262",
      "name": "BROCK",
      "full_name": "Brock",
      "lata": "888",
      "ilec_name": "SASKTEL",
      "lat": "51.466576",
      "long": "-109.152868",
      "closest_city": {
        "name": "Kindersley",
        "distance_km": 0.3
      }
    },
    {
      "country": "CA",
      "region": "SK",
      "exchange": "358881",
      "name": "BROCKINGTN",
      "full_name": "Brockington",
      "lata": "888",
      "ilec_name": "SASKTEL",
      "lat": "52.855647",
      "long": "-104.606728",
      "closest_city": {
        "name": "Melfort",
        "distance_km": 0.24
      }
    },
    {
      "country": "CA",
      "region": "SK",
      "exchange": "358882",
      "name": "BRODERICK",
      "full_name": "Broderick",
      "lata": "888",
      "ilec_name": "SASKTEL",
      "lat": "51.483975",
      "long": "-107.059753",
      "closest_city": {
        "name": "Outlook",
        "distance_km": 1.91
      }
    },
    {
      "country": "CA",
      "region": "SK",
      "exchange": "358883",
      "name": "BROMHEAD",
      "full_name": "Bromhead",
      "lata": "888",
      "ilec_name": "SASKTEL",
      "lat": "49.241325",
      "long": "-103.814398",
      "closest_city": {
        "name": "Weyburn No. 67",
        "distance_km": 45.86
      }
    },
    {
      "country": "CA",
      "region": "SK",
      "exchange": "358884",
      "name": "BRONCHO",
      "full_name": "Broncho",
      "lata": "888",
      "ilec_name": "SASKTEL",
      "lat": "49.740893",
      "long": "-107.490546",
      "closest_city": {
        "name": "Swift Current No. 137",
        "distance_km": 59.44
      }
    },
    {
      "country": "CA",
      "region": "SK",
      "exchange": "358885",
      "name": "BROOKING",
      "full_name": "Brooking",
      "lata": "888",
      "ilec_name": "SASKTEL",
      "lat": "49.460016",
      "long": "-104.299287",
      "closest_city": {
        "name": "Weyburn",
        "distance_km": 39.22
      }
    },
    {
      "country": "CA",
      "region": "SK",
      "exchange": "358886",
      "name": "BRORA",
      "full_name": "Brora",
      "lata": "888",
      "ilec_name": "SASKTEL",
      "lat": "50.450857",
      "long": "-104.6166",
      "closest_city": {
        "name": "Regina",
        "distance_km": 0.82
      }
    },
    {
      "country": "CA",
      "region": "SK",
      "exchange": "358887",
      "name": "BROUGH",
      "full_name": "Brough",
      "lata": "888",
      "ilec_name": "SASKTEL",
      "lat": "49.658298",
      "long": "-103.847853",
      "closest_city": {
        "name": "Weyburn",
        "distance_km": 0.46
      }
    },
    {
      "country": "CA",
      "region": "SK",
      "exchange": "358888",
      "name": "BROWNELLLK",
      "full_name": "Brownell Lake",
      "lata": "888",
      "ilec_name": "SASKTEL",
      "lat": "55.1742",
      "long": "-102.943484",
      "closest_city": {
        "name": "Pelican Narrows",
        "distance_km": 1.67
      }
    },
    {
      "country": "CA",
      "region": "SK",
      "exchange": "358889",
      "name": "BROWNING",
      "full_name": "Browning",
      "lata": "888",
      "ilec_name": "SASKTEL",
      "lat": "49.37394",
      "long": "-102.761363",
      "closest_city": {
        "name": "Estevan",
        "distance_km": 30.78
      }
    },
    {
      "country": "CA",
      "region": "SK",
      "exchange": "358890",
      "name": "BROWNLEE",
      "full_name": "Brownlee",
      "lata": "888",
      "ilec_name": "SASKTEL",
      "lat": "50.802298",
      "long": "-106.149539",
      "closest_city": {
        "name": "Davidson",
        "distance_km": 53.2
      }
    },
    {
      "country": "CA",
      "region": "SK",
      "exchange": "358891",
      "name": "BROXFIELD",
      "full_name": "Broxfield",
      "lata": "888",
      "ilec_name": "SASKTEL",
      "lat": "50.410314",
      "long": "-107.040787",
      "closest_city": {
        "name": "Swift Current",
        "distance_km": 55.14
      }
    },
    {
      "country": "CA",
      "region": "SK",
      "exchange": "181550",
      "name": "BRUNO",
      "full_name": "Bruno",
      "lata": "888",
      "ilec_name": "SASKTEL",
      "lat": "52.26823",
      "long": "-105.523895",
      "closest_city": {
        "name": "Humboldt",
        "distance_km": 28.27
      }
    },
    {
      "country": "CA",
      "region": "SK",
      "exchange": "358893",
      "name": "BRYANT",
      "full_name": "Bryant",
      "lata": "888",
      "ilec_name": "SASKTEL",
      "lat": "49.141858",
      "long": "-102.991056",
      "closest_city": {
        "name": "Estevan",
        "distance_km": 0.47
      }
    },
    {
      "country": "CA",
      "region": "SK",
      "exchange": "358894",
      "name": "BSAYTAH PT",
      "full_name": "B Say Tah Point",
      "lata": "888",
      "ilec_name": "SASKTEL",
      "lat": "50.766714",
      "long": "-103.794711",
      "closest_city": {
        "name": "Fort Qu’Appelle",
        "distance_km": 0.8
      }
    },
    {
      "country": "CA",
      "region": "SK",
      "exchange": "358895",
      "name": "BUCCLEUGH",
      "full_name": "Buccleugh",
      "lata": "888",
      "ilec_name": "SASKTEL",
      "lat": "52.443684",
      "long": "-109.1586",
      "closest_city": {
        "name": "Unity",
        "distance_km": 1.28
      }
    },
    {
      "country": "CA",
      "region": "SK",
      "exchange": "181601",
      "name": "BUCHANAN",
      "full_name": "Buchanan",
      "lata": "888",
      "ilec_name": "SASKTEL",
      "lat": "51.63331",
      "long": "-102.436675",
      "closest_city": {
        "name": "Canora",
        "distance_km": 0.07
      }
    },
    {
      "country": "CA",
      "region": "SK",
      "exchange": "358897",
      "name": "BUCKLAND",
      "full_name": "Buckland",
      "lata": "888",
      "ilec_name": "SASKTEL",
      "lat": "53.198456",
      "long": "-105.759926",
      "closest_city": {
        "name": "Prince Albert",
        "distance_km": 0.68
      }
    },
    {
      "country": "CA",
      "region": "SK",
      "exchange": "358898",
      "name": "BUENAVISTA",
      "full_name": "Buena Vista",
      "lata": "888",
      "ilec_name": "SASKTEL",
      "lat": "50.790261",
      "long": "-104.98653",
      "closest_city": {
        "name": "Regina Beach",
        "distance_km": 0.25
      }
    },
    {
      "country": "CA",
      "region": "SK",
      "exchange": "358899",
      "name": "BUFALOHORN",
      "full_name": "Buffalo Horn",
      "lata": "888",
      "ilec_name": "SASKTEL",
      "lat": "49.740893",
      "long": "-107.490546",
      "closest_city": {
        "name": "Swift Current No. 137",
        "distance_km": 59.44
      }
    },
    {
      "country": "CA",
      "region": "SK",
      "exchange": "358900",
      "name": "BUFALPNDLK",
      "full_name": "Buffalo Pound Lake",
      "lata": "888",
      "ilec_name": "SASKTEL",
      "lat": "50.394225",
      "long": "-105.53536",
      "closest_city": {
        "name": "Moose Jaw",
        "distance_km": 1.18
      }
    },
    {
      "country": "CA",
      "region": "SK",
      "exchange": "181560",
      "name": "BUFFALNRWS",
      "full_name": "Buffalo Narrows",
      "lata": "888",
      "ilec_name": "SASKTEL",
      "lat": "55.855361",
      "long": "-108.480204",
      "closest_city": {
        "name": "Buffalo Narrows",
        "distance_km": 3.65
      }
    },
    {
      "country": "CA",
      "region": "SK",
      "exchange": "358902",
      "name": "BUFFALOGAP",
      "full_name": "Buffalo Gap",
      "lata": "888",
      "ilec_name": "SASKTEL",
      "lat": "49.107378",
      "long": "-105.518961",
      "closest_city": {
        "name": "Assiniboia",
        "distance_km": 65.86
      }
    },
    {
      "country": "CA",
      "region": "SK",
      "exchange": "358903",
      "name": "BULYEA",
      "full_name": "Bulyea",
      "lata": "888",
      "ilec_name": "SASKTEL",
      "lat": "51.072571",
      "long": "-104.956799",
      "closest_city": {
        "name": "Longlaketon No. 219",
        "distance_km": 23.81
      }
    },
    {
      "country": "CA",
      "region": "SK",
      "exchange": "358904",
      "name": "BURDICK",
      "full_name": "Burdick",
      "lata": "888",
      "ilec_name": "SASKTEL",
      "lat": "50.394225",
      "long": "-105.53536",
      "closest_city": {
        "name": "Moose Jaw",
        "distance_km": 1.18
      }
    },
    {
      "country": "CA",
      "region": "SK",
      "exchange": "358905",
      "name": "BURGESS LK",
      "full_name": "Burgess Lake",
      "lata": "888",
      "ilec_name": "SASKTEL",
      "lat": "55.107925",
      "long": "-105.267684",
      "closest_city": {
        "name": "La Ronge",
        "distance_km": 2.24
      }
    },
    {
      "country": "CA",
      "region": "SK",
      "exchange": "358906",
      "name": "BURGESSBCH",
      "full_name": "Burgess Beach",
      "lata": "888",
      "ilec_name": "SASKTEL",
      "lat": "51.63331",
      "long": "-102.436675",
      "closest_city": {
        "name": "Canora",
        "distance_km": 0.07
      }
    },
    {
      "country": "CA",
      "region": "SK",
      "exchange": "358907",
      "name": "BURGIS",
      "full_name": "Burgis",
      "lata": "888",
      "ilec_name": "SASKTEL",
      "lat": "51.63331",
      "long": "-102.436675",
      "closest_city": {
        "name": "Canora",
        "distance_km": 0.07
      }
    },
    {
      "country": "CA",
      "region": "SK",
      "exchange": "358908",
      "name": "BURNHAM",
      "full_name": "Burnham",
      "lata": "888",
      "ilec_name": "SASKTEL",
      "lat": "50.282245",
      "long": "-107.799758",
      "closest_city": {
        "name": "Swift Current",
        "distance_km": 0.77
      }
    },
    {
      "country": "CA",
      "region": "SK",
      "exchange": "358909",
      "name": "BURR",
      "full_name": "Burr",
      "lata": "888",
      "ilec_name": "SASKTEL",
      "lat": "52.201039",
      "long": "-105.122048",
      "closest_city": {
        "name": "Humboldt",
        "distance_km": 0.12
      }
    },
    {
      "country": "CA",
      "region": "SK",
      "exchange": "358910",
      "name": "BURROWS",
      "full_name": "Burrows",
      "lata": "888",
      "ilec_name": "SASKTEL",
      "lat": "50.325988",
      "long": "-102.266494",
      "closest_city": {
        "name": "Kipling",
        "distance_km": 36.07
      }
    },
    {
      "country": "CA",
      "region": "SK",
      "exchange": "182382",
      "name": "BURSTALL",
      "full_name": "Burstall",
      "lata": "888",
      "ilec_name": "SASKTEL",
      "lat": "50.883583",
      "long": "-109.541248",
      "closest_city": {
        "name": "Eston",
        "distance_km": 62.78
      }
    },
    {
      "country": "CA",
      "region": "SK",
      "exchange": "358912",
      "name": "BURTONLAKE",
      "full_name": "Burton Lake",
      "lata": "888",
      "ilec_name": "SASKTEL",
      "lat": "52.201039",
      "long": "-105.122048",
      "closest_city": {
        "name": "Humboldt",
        "distance_km": 0.12
      }
    },
    {
      "country": "CA",
      "region": "SK",
      "exchange": "358913",
      "name": "BUSHEL BAY",
      "full_name": "Bushel Bay",
      "lata": "888",
      "ilec_name": "SASKTEL",
      "lat": "59.566256",
      "long": "-108.61553",
      "closest_city": {
        "name": "La Loche",
        "distance_km": 346.17
      }
    },
    {
      "country": "CA",
      "region": "SK",
      "exchange": "358914",
      "name": "BUTTESTPRR",
      "full_name": "Butte St Pierre",
      "lata": "888",
      "ilec_name": "SASKTEL",
      "lat": "53.390736",
      "long": "-108.959772",
      "closest_city": {
        "name": "Mervin No. 499",
        "distance_km": 18.08
      }
    },
    {
      "country": "CA",
      "region": "SK",
      "exchange": "358915",
      "name": "BUTTRESS",
      "full_name": "Buttress",
      "lata": "888",
      "ilec_name": "SASKTEL",
      "lat": "50.394225",
      "long": "-105.53536",
      "closest_city": {
        "name": "Moose Jaw",
        "distance_km": 1.18
      }
    },
    {
      "country": "CA",
      "region": "SK",
      "exchange": "181570",
      "name": "CABRI",
      "full_name": "Cabri",
      "lata": "888",
      "ilec_name": "SASKTEL",
      "lat": "50.615291",
      "long": "-108.447252",
      "closest_city": {
        "name": "Swift Current",
        "distance_km": 58.85
      }
    },
    {
      "country": "CA",
      "region": "SK",
      "exchange": "182951",
      "name": "CADILLAC",
      "full_name": "Cadillac",
      "lata": "888",
      "ilec_name": "SASKTEL",
      "lat": "49.740893",
      "long": "-107.490546",
      "closest_city": {
        "name": "Swift Current No. 137",
        "distance_km": 59.44
      }
    },
    {
      "country": "CA",
      "region": "SK",
      "exchange": "181580",
      "name": "CALDER",
      "full_name": "Calder",
      "lata": "888",
      "ilec_name": "SASKTEL",
      "lat": "51.156449",
      "long": "-101.740009",
      "closest_city": {
        "name": "Langenburg",
        "distance_km": 36.04
      }
    },
    {
      "country": "CA",
      "region": "SK",
      "exchange": "358919",
      "name": "CALDERBANK",
      "full_name": "Calderbank",
      "lata": "888",
      "ilec_name": "SASKTEL",
      "lat": "50.410314",
      "long": "-107.040787",
      "closest_city": {
        "name": "Swift Current",
        "distance_km": 55.14
      }
    },
    {
      "country": "CA",
      "region": "SK",
      "exchange": "358920",
      "name": "CAMEO",
      "full_name": "Cameo",
      "lata": "888",
      "ilec_name": "SASKTEL",
      "lat": "53.214134",
      "long": "-106.389824",
      "closest_city": {
        "name": "Shellbrook",
        "distance_km": 0.74
      }
    },
    {
      "country": "CA",
      "region": "SK",
      "exchange": "358921",
      "name": "CAMPBELLLK",
      "full_name": "Campbell Lake",
      "lata": "888",
      "ilec_name": "SASKTEL",
      "lat": "55.107925",
      "long": "-105.267684",
      "closest_city": {
        "name": "La Ronge",
        "distance_km": 2.24
      }
    },
    {
      "country": "CA",
      "region": "SK",
      "exchange": "358922",
      "name": "CAMPCARMEL",
      "full_name": "Camp Carmel",
      "lata": "888",
      "ilec_name": "SASKTEL",
      "lat": "54.276026",
      "long": "-107.7877",
      "closest_city": {
        "name": "Meadow Lake No. 588",
        "distance_km": 36.56
      }
    },
    {
      "country": "CA",
      "region": "SK",
      "exchange": "358923",
      "name": "CAMSELPRTG",
      "full_name": "Camsell Portage",
      "lata": "888",
      "ilec_name": "SASKTEL",
      "lat": "59.566256",
      "long": "-108.61553",
      "closest_city": {
        "name": "La Loche",
        "distance_km": 346.17
      }
    },
    {
      "country": "CA",
      "region": "SK",
      "exchange": "358924",
      "name": "CANA",
      "full_name": "Cana",
      "lata": "888",
      "ilec_name": "SASKTEL",
      "lat": "50.923804",
      "long": "-102.803669",
      "closest_city": {
        "name": "Melville",
        "distance_km": 0.81
      }
    },
    {
      "country": "CA",
      "region": "SK",
      "exchange": "358925",
      "name": "CANDIAC",
      "full_name": "Candiac",
      "lata": "888",
      "ilec_name": "SASKTEL",
      "lat": "50.214902",
      "long": "-103.451243",
      "closest_city": {
        "name": "Indian Head",
        "distance_km": 38.56
      }
    },
    {
      "country": "CA",
      "region": "SK",
      "exchange": "358926",
      "name": "CANDLELAKE",
      "full_name": "Candle Lake",
      "lata": "888",
      "ilec_name": "SASKTEL",
      "lat": "53.441042",
      "long": "-105.364985",
      "closest_city": {
        "name": "Buckland No. 491",
        "distance_km": 30.3
      }
    },
    {
      "country": "CA",
      "region": "SK",
      "exchange": "358927",
      "name": "CANDO",
      "full_name": "Cando",
      "lata": "888",
      "ilec_name": "SASKTEL",
      "lat": "52.773585",
      "long": "-108.302108",
      "closest_city": {
        "name": "North Battleford",
        "distance_km": 2.09
      }
    },
    {
      "country": "CA",
      "region": "SK",
      "exchange": "358928",
      "name": "CANNGTNMNR",
      "full_name": "Cannington Manor",
      "lata": "888",
      "ilec_name": "SASKTEL",
      "lat": "49.908653",
      "long": "-102.021532",
      "closest_city": {
        "name": "Carlyle",
        "distance_km": 35.32
      }
    },
    {
      "country": "CA",
      "region": "SK",
      "exchange": "358929",
      "name": "CANOE LAKE",
      "full_name": "Canoe Lake",
      "lata": "888",
      "ilec_name": "SASKTEL",
      "lat": "55.152502",
      "long": "-107.601278",
      "closest_city": {
        "name": "Ile-à-la-Crosse",
        "distance_km": 37.59
      }
    },
    {
      "country": "CA",
      "region": "SK",
      "exchange": "181590",
      "name": "CANOE NRWS",
      "full_name": "Canoe Narrows",
      "lata": "888",
      "ilec_name": "SASKTEL",
      "lat": "55.162236",
      "long": "-108.152728",
      "closest_city": {
        "name": "Ile-à-la-Crosse",
        "distance_km": 36.26
      }
    },
    {
      "country": "CA",
      "region": "SK",
      "exchange": "358931",
      "name": "CANOERIVER",
      "full_name": "Canoe River",
      "lata": "888",
      "ilec_name": "SASKTEL",
      "lat": "55.152502",
      "long": "-107.601278",
      "closest_city": {
        "name": "Ile-à-la-Crosse",
        "distance_km": 37.59
      }
    },
    {
      "country": "CA",
      "region": "SK",
      "exchange": "358932",
      "name": "CANOPUS",
      "full_name": "Canopus",
      "lata": "888",
      "ilec_name": "SASKTEL",
      "lat": "49.173873",
      "long": "-105.947306",
      "closest_city": {
        "name": "Assiniboia",
        "distance_km": 49.31
      }
    },
    {
      "country": "CA",
      "region": "SK",
      "exchange": "181600",
      "name": "CANORA",
      "full_name": "Canora",
      "lata": "888",
      "ilec_name": "SASKTEL",
      "lat": "51.63331",
      "long": "-102.436675",
      "closest_city": {
        "name": "Canora",
        "distance_km": 0.07
      }
    },
    {
      "country": "CA",
      "region": "SK",
      "exchange": "358934",
      "name": "CANTUAR",
      "full_name": "Cantuar",
      "lata": "888",
      "ilec_name": "SASKTEL",
      "lat": "50.282245",
      "long": "-107.799758",
      "closest_city": {
        "name": "Swift Current",
        "distance_km": 0.77
      }
    },
    {
      "country": "CA",
      "region": "SK",
      "exchange": "358935",
      "name": "CANUCK",
      "full_name": "Canuck",
      "lata": "888",
      "ilec_name": "SASKTEL",
      "lat": "49.198753",
      "long": "-108.384918",
      "closest_city": {
        "name": "Shaunavon",
        "distance_km": 50.33
      }
    },
    {
      "country": "CA",
      "region": "SK",
      "exchange": "181610",
      "name": "CANWOOD",
      "full_name": "Canwood",
      "lata": "888",
      "ilec_name": "SASKTEL",
      "lat": "53.359918",
      "long": "-106.609662",
      "closest_city": {
        "name": "Canwood No. 494",
        "distance_km": 15.5
      }
    },
    {
      "country": "CA",
      "region": "SK",
      "exchange": "181631",
      "name": "CARIEVALE",
      "full_name": "Carievale",
      "lata": "888",
      "ilec_name": "SASKTEL",
      "lat": "49.17397",
      "long": "-101.801298",
      "closest_city": {
        "name": "Carnduff",
        "distance_km": 1.54
      }
    },
    {
      "country": "CA",
      "region": "SK",
      "exchange": "358938",
      "name": "CARLEA",
      "full_name": "Carlea",
      "lata": "888",
      "ilec_name": "SASKTEL",
      "lat": "53.356287",
      "long": "-104.009225",
      "closest_city": {
        "name": "Nipawin",
        "distance_km": 0.67
      }
    },
    {
      "country": "CA",
      "region": "SK",
      "exchange": "358939",
      "name": "CARLTON",
      "full_name": "Carlton",
      "lata": "888",
      "ilec_name": "SASKTEL",
      "lat": "52.809523",
      "long": "-106.222336",
      "closest_city": {
        "name": "Duck Lake No. 463",
        "distance_km": 16.71
      }
    },
    {
      "country": "CA",
      "region": "SK",
      "exchange": "181620",
      "name": "CARLYLE",
      "full_name": "Carlyle",
      "lata": "888",
      "ilec_name": "SASKTEL",
      "lat": "49.631122",
      "long": "-102.265338",
      "closest_city": {
        "name": "Carlyle",
        "distance_km": 0.26
      }
    },
    {
      "country": "CA",
      "region": "SK",
      "exchange": "358941",
      "name": "CARMEL",
      "full_name": "Carmel",
      "lata": "888",
      "ilec_name": "SASKTEL",
      "lat": "52.201039",
      "long": "-105.122048",
      "closest_city": {
        "name": "Humboldt",
        "distance_km": 0.12
      }
    },
    {
      "country": "CA",
      "region": "SK",
      "exchange": "358942",
      "name": "CARMICHAEL",
      "full_name": "Carmichael",
      "lata": "888",
      "ilec_name": "SASKTEL",
      "lat": "50.090698",
      "long": "-108.481652",
      "closest_city": {
        "name": "Swift Current No. 137",
        "distance_km": 46.88
      }
    },
    {
      "country": "CA",
      "region": "SK",
      "exchange": "181630",
      "name": "CARNDUFF",
      "full_name": "Carnduff",
      "lata": "888",
      "ilec_name": "SASKTEL",
      "lat": "49.17397",
      "long": "-101.801298",
      "closest_city": {
        "name": "Carnduff",
        "distance_km": 1.54
      }
    },
    {
      "country": "CA",
      "region": "SK",
      "exchange": "181640",
      "name": "CARON",
      "full_name": "Caron",
      "lata": "888",
      "ilec_name": "SASKTEL",
      "lat": "50.394225",
      "long": "-105.53536",
      "closest_city": {
        "name": "Moose Jaw",
        "distance_km": 1.18
      }
    },
    {
      "country": "CA",
      "region": "SK",
      "exchange": "358945",
      "name": "CARPENTER",
      "full_name": "Carpenter",
      "lata": "888",
      "ilec_name": "SASKTEL",
      "lat": "52.64915",
      "long": "-105.732802",
      "closest_city": {
        "name": "St. Louis No. 431",
        "distance_km": 20.19
      }
    },
    {
      "country": "CA",
      "region": "SK",
      "exchange": "358946",
      "name": "CARRAGANA",
      "full_name": "Carragana",
      "lata": "888",
      "ilec_name": "SASKTEL",
      "lat": "52.601238",
      "long": "-103.257297",
      "closest_city": {
        "name": "Tisdale",
        "distance_km": 60.12
      }
    },
    {
      "country": "CA",
      "region": "SK",
      "exchange": "181650",
      "name": "CARROT RIV",
      "full_name": "Carrot River",
      "lata": "888",
      "ilec_name": "SASKTEL",
      "lat": "53.281871",
      "long": "-103.585477",
      "closest_city": {
        "name": "Nipawin",
        "distance_km": 30.0
      }
    },
    {
      "country": "CA",
      "region": "SK",
      "exchange": "358948",
      "name": "CARRUTHERS",
      "full_name": "Carruthers",
      "lata": "888",
      "ilec_name": "SASKTEL",
      "lat": "52.740097",
      "long": "-109.025533",
      "closest_city": {
        "name": "Unity",
        "distance_km": 35.42
      }
    },
    {
      "country": "CA",
      "region": "SK",
      "exchange": "358949",
      "name": "CASTLEWOOD",
      "full_name": "Castlewood",
      "lata": "888",
      "ilec_name": "SASKTEL",
      "lat": "52.056816",
      "long": "-107.983606",
      "closest_city": {
        "name": "Biggar",
        "distance_km": 0.4
      }
    },
    {
      "country": "CA",
      "region": "SK",
      "exchange": "358950",
      "name": "CATER",
      "full_name": "Cater",
      "lata": "888",
      "ilec_name": "SASKTEL",
      "lat": "53.355975",
      "long": "-108.339044",
      "closest_city": {
        "name": "Mervin No. 499",
        "distance_km": 41.34
      }
    },
    {
      "country": "CA",
      "region": "SK",
      "exchange": "358951",
      "name": "CAVALIER",
      "full_name": "Cavalier",
      "lata": "888",
      "ilec_name": "SASKTEL",
      "lat": "53.033388",
      "long": "-108.457029",
      "closest_city": {
        "name": "North Battleford",
        "distance_km": 32.75
      }
    },
    {
      "country": "CA",
      "region": "SK",
      "exchange": "358952",
      "name": "CAXTON",
      "full_name": "Caxton",
      "lata": "888",
      "ilec_name": "SASKTEL",
      "lat": "49.677312",
      "long": "-103.027027",
      "closest_city": {
        "name": "Carlyle",
        "distance_km": 54.95
      }
    },
    {
      "country": "CA",
      "region": "SK",
      "exchange": "358953",
      "name": "CBDGRVLDSV",
      "full_name": "Cote Badgerville Indian Reserve",
      "lata": "888",
      "ilec_name": "SASKTEL",
      "lat": "51.565385",
      "long": "-101.901589",
      "closest_city": {
        "name": "Kamsack",
        "distance_km": 0.48
      }
    },
    {
      "country": "CA",
      "region": "SK",
      "exchange": "358954",
      "name": "CEDOUX",
      "full_name": "Cedoux",
      "lata": "888",
      "ilec_name": "SASKTEL",
      "lat": "49.658298",
      "long": "-103.847853",
      "closest_city": {
        "name": "Weyburn",
        "distance_km": 0.46
      }
    },
    {
      "country": "CA",
      "region": "SK",
      "exchange": "358955",
      "name": "CEEPEE",
      "full_name": "Ceepee",
      "lata": "888",
      "ilec_name": "SASKTEL",
      "lat": "52.356349",
      "long": "-106.95813",
      "closest_city": {
        "name": "Langham",
        "distance_km": 1.29
      }
    },
    {
      "country": "CA",
      "region": "SK",
      "exchange": "358956",
      "name": "CELTIC",
      "full_name": "Celtic",
      "lata": "888",
      "ilec_name": "SASKTEL",
      "lat": "53.390736",
      "long": "-108.959772",
      "closest_city": {
        "name": "Mervin No. 499",
        "distance_km": 18.08
      }
    },
    {
      "country": "CA",
      "region": "SK",
      "exchange": "181660",
      "name": "CENTRALBTE",
      "full_name": "Central Butte",
      "lata": "888",
      "ilec_name": "SASKTEL",
      "lat": "50.789006",
      "long": "-106.506232",
      "closest_city": {
        "name": "Davidson",
        "distance_km": 65.15
      }
    },
    {
      "country": "CA",
      "region": "SK",
      "exchange": "181670",
      "name": "CEYLON",
      "full_name": "Ceylon",
      "lata": "888",
      "ilec_name": "SASKTEL",
      "lat": "49.457313",
      "long": "-104.600758",
      "closest_city": {
        "name": "Weyburn",
        "distance_km": 58.53
      }
    },
    {
      "country": "CA",
      "region": "SK",
      "exchange": "358959",
      "name": "CHAMBERLAN",
      "full_name": "Chamberlain",
      "lata": "888",
      "ilec_name": "SASKTEL",
      "lat": "50.707608",
      "long": "-105.210885",
      "closest_city": {
        "name": "Regina Beach",
        "distance_km": 18.04
      }
    },
    {
      "country": "CA",
      "region": "SK",
      "exchange": "358960",
      "name": "CHAMBERS",
      "full_name": "Chambers",
      "lata": "888",
      "ilec_name": "SASKTEL",
      "lat": "51.91465",
      "long": "-107.133444",
      "closest_city": {
        "name": "Delisle",
        "distance_km": 1.2
      }
    },
    {
      "country": "CA",
      "region": "SK",
      "exchange": "358961",
      "name": "CHAMBERY",
      "full_name": "Chambery",
      "lata": "888",
      "ilec_name": "SASKTEL",
      "lat": "49.631909",
      "long": "-108.397467",
      "closest_city": {
        "name": "Shaunavon",
        "distance_km": 2.37
      }
    },
    {
      "country": "CA",
      "region": "SK",
      "exchange": "181661",
      "name": "CHAPLIN",
      "full_name": "Chaplin",
      "lata": "888",
      "ilec_name": "SASKTEL",
      "lat": "50.789006",
      "long": "-106.506232",
      "closest_city": {
        "name": "Davidson",
        "distance_km": 65.15
      }
    },
    {
      "country": "CA",
      "region": "SK",
      "exchange": "358963",
      "name": "CHARLOTELK",
      "full_name": "Charlotte Lake",
      "lata": "888",
      "ilec_name": "SASKTEL",
      "lat": "59.566256",
      "long": "-108.61553",
      "closest_city": {
        "name": "La Loche",
        "distance_km": 346.17
      }
    },
    {
      "country": "CA",
      "region": "SK",
      "exchange": "358964",
      "name": "CHELAN",
      "full_name": "Chelan",
      "lata": "888",
      "ilec_name": "SASKTEL",
      "lat": "52.601238",
      "long": "-103.257297",
      "closest_city": {
        "name": "Tisdale",
        "distance_km": 60.12
      }
    },
    {
      "country": "CA",
      "region": "SK",
      "exchange": "358965",
      "name": "CHEVIOT",
      "full_name": "Cheviot",
      "lata": "888",
      "ilec_name": "SASKTEL",
      "lat": "52.1263",
      "long": "-106.662942",
      "closest_city": {
        "name": "Saskatoon",
        "distance_km": 1.59
      }
    },
    {
      "country": "CA",
      "region": "SK",
      "exchange": "358966",
      "name": "CHIPPERFLD",
      "full_name": "Chipperfield",
      "lata": "888",
      "ilec_name": "SASKTEL",
      "lat": "51.197466",
      "long": "-108.03168",
      "closest_city": {
        "name": "Rosetown",
        "distance_km": 39.34
      }
    },
    {
      "country": "CA",
      "region": "SK",
      "exchange": "358967",
      "name": "CHITEKLAKE",
      "full_name": "Chitek Lake",
      "lata": "888",
      "ilec_name": "SASKTEL",
      "lat": "54.123389",
      "long": "-108.416192",
      "closest_city": {
        "name": "Meadow Lake",
        "distance_km": 1.28
      }
    },
    {
      "country": "CA",
      "region": "SK",
      "exchange": "182742",
      "name": "CHOICELAND",
      "full_name": "Choiceland",
      "lata": "888",
      "ilec_name": "SASKTEL",
      "lat": "53.356287",
      "long": "-104.009225",
      "closest_city": {
        "name": "Nipawin",
        "distance_km": 0.67
      }
    },
    {
      "country": "CA",
      "region": "SK",
      "exchange": "358969",
      "name": "CHORTIZ",
      "full_name": "Chortiz",
      "lata": "888",
      "ilec_name": "SASKTEL",
      "lat": "50.282245",
      "long": "-107.799758",
      "closest_city": {
        "name": "Swift Current",
        "distance_km": 0.77
      }
    },
    {
      "country": "CA",
      "region": "SK",
      "exchange": "181680",
      "name": "CHRISTORLK",
      "full_name": "Christopher Lake",
      "lata": "888",
      "ilec_name": "SASKTEL",
      "lat": "53.543285",
      "long": "-105.793716",
      "closest_city": {
        "name": "Buckland No. 491",
        "distance_km": 24.0
      }
    },
    {
      "country": "CA",
      "region": "SK",
      "exchange": "358971",
      "name": "CHRYSLER",
      "full_name": "Chrysler",
      "lata": "888",
      "ilec_name": "SASKTEL",
      "lat": "51.205639",
      "long": "-102.456051",
      "closest_city": {
        "name": "Yorkton",
        "distance_km": 1.03
      }
    },
    {
      "country": "CA",
      "region": "SK",
      "exchange": "181690",
      "name": "CHURCHBDG",
      "full_name": "Churchbridge",
      "lata": "888",
      "ilec_name": "SASKTEL",
      "lat": "50.891016",
      "long": "-101.886238",
      "closest_city": {
        "name": "Langenburg",
        "distance_km": 14.56
      }
    },
    {
      "country": "CA",
      "region": "SK",
      "exchange": "358973",
      "name": "CLAIR",
      "full_name": "Clair",
      "lata": "888",
      "ilec_name": "SASKTEL",
      "lat": "52.065496",
      "long": "-104.258882",
      "closest_city": {
        "name": "Wynyard",
        "distance_km": 33.63
      }
    },
    {
      "country": "CA",
      "region": "SK",
      "exchange": "358974",
      "name": "CLAM LAKE",
      "full_name": "Clam Lake",
      "lata": "888",
      "ilec_name": "SASKTEL",
      "lat": "55.107925",
      "long": "-105.267684",
      "closest_city": {
        "name": "La Ronge",
        "distance_km": 2.24
      }
    },
    {
      "country": "CA",
      "region": "SK",
      "exchange": "358975",
      "name": "CLARK LAKE",
      "full_name": "Clark Lake",
      "lata": "888",
      "ilec_name": "SASKTEL",
      "lat": "55.152502",
      "long": "-107.601278",
      "closest_city": {
        "name": "Ile-à-la-Crosse",
        "distance_km": 37.59
      }
    },
    {
      "country": "CA",
      "region": "SK",
      "exchange": "358976",
      "name": "CLARKBORO",
      "full_name": "Clarkboro",
      "lata": "888",
      "ilec_name": "SASKTEL",
      "lat": "52.325672",
      "long": "-106.293213",
      "closest_city": {
        "name": "Osler",
        "distance_km": 17.47
      }
    },
    {
      "country": "CA",
      "region": "SK",
      "exchange": "358977",
      "name": "CLARKSCSNG",
      "full_name": "Clarks Crossing",
      "lata": "888",
      "ilec_name": "SASKTEL",
      "lat": "52.1263",
      "long": "-106.662942",
      "closest_city": {
        "name": "Saskatoon",
        "distance_km": 1.59
      }
    },
    {
      "country": "CA",
      "region": "SK",
      "exchange": "358978",
      "name": "CLAVET",
      "full_name": "Clavet",
      "lata": "888",
      "ilec_name": "SASKTEL",
      "lat": "52.1263",
      "long": "-106.662942",
      "closest_city": {
        "name": "Saskatoon",
        "distance_km": 1.59
      }
    },
    {
      "country": "CA",
      "region": "SK",
      "exchange": "358979",
      "name": "CLAYBANK",
      "full_name": "Claybank",
      "lata": "888",
      "ilec_name": "SASKTEL",
      "lat": "50.157464",
      "long": "-105.268272",
      "closest_city": {
        "name": "Moose Jaw",
        "distance_km": 33.07
      }
    },
    {
      "country": "CA",
      "region": "SK",
      "exchange": "358980",
      "name": "CLAYDON",
      "full_name": "Claydon",
      "lata": "888",
      "ilec_name": "SASKTEL",
      "lat": "49.209968",
      "long": "-108.567809",
      "closest_city": {
        "name": "Shaunavon",
        "distance_km": 50.32
      }
    },
    {
      "country": "CA",
      "region": "SK",
      "exchange": "358981",
      "name": "CLEARFIELD",
      "full_name": "Clearfield",
      "lata": "888",
      "ilec_name": "SASKTEL",
      "lat": "49.658298",
      "long": "-103.847853",
      "closest_city": {
        "name": "Weyburn",
        "distance_km": 0.46
      }
    },
    {
      "country": "CA",
      "region": "SK",
      "exchange": "358982",
      "name": "CLEARWTRLK",
      "full_name": "Clearwater Lake",
      "lata": "888",
      "ilec_name": "SASKTEL",
      "lat": "50.833572",
      "long": "-108.037935",
      "closest_city": {
        "name": "Eston",
        "distance_km": 61.01
      }
    },
    {
      "country": "CA",
      "region": "SK",
      "exchange": "358983",
      "name": "CLEEVES",
      "full_name": "Cleeves",
      "lata": "888",
      "ilec_name": "SASKTEL",
      "lat": "53.390736",
      "long": "-108.959772",
      "closest_city": {
        "name": "Mervin No. 499",
        "distance_km": 18.08
      }
    },
    {
      "country": "CA",
      "region": "SK",
      "exchange": "358984",
      "name": "CLEMENCEAU",
      "full_name": "Clemenceau",
      "lata": "888",
      "ilec_name": "SASKTEL",
      "lat": "52.860665",
      "long": "-102.391394",
      "closest_city": {
        "name": "Hudson Bay",
        "distance_km": 1.08
      }
    },
    {
      "country": "CA",
      "region": "SK",
      "exchange": "358985",
      "name": "CLEMENS",
      "full_name": "Clemens",
      "lata": "888",
      "ilec_name": "SASKTEL",
      "lat": "52.855647",
      "long": "-104.606728",
      "closest_city": {
        "name": "Melfort",
        "distance_km": 0.24
      }
    },
    {
      "country": "CA",
      "region": "SK",
      "exchange": "181700",
      "name": "CLIMAX",
      "full_name": "Climax",
      "lata": "888",
      "ilec_name": "SASKTEL",
      "lat": "49.198753",
      "long": "-108.384918",
      "closest_city": {
        "name": "Shaunavon",
        "distance_km": 50.33
      }
    },
    {
      "country": "CA",
      "region": "SK",
      "exchange": "358987",
      "name": "CLOAN",
      "full_name": "Cloan",
      "lata": "888",
      "ilec_name": "SASKTEL",
      "lat": "52.740097",
      "long": "-109.025533",
      "closest_city": {
        "name": "Unity",
        "distance_km": 35.42
      }
    },
    {
      "country": "CA",
      "region": "SK",
      "exchange": "358988",
      "name": "CLONMEL",
      "full_name": "Clonmel",
      "lata": "888",
      "ilec_name": "SASKTEL",
      "lat": "51.041368",
      "long": "-102.15872",
      "closest_city": {
        "name": "Yorkton",
        "distance_km": 28.61
      }
    },
    {
      "country": "CA",
      "region": "SK",
      "exchange": "358989",
      "name": "CLOUSTON",
      "full_name": "Clouston",
      "lata": "888",
      "ilec_name": "SASKTEL",
      "lat": "53.198456",
      "long": "-105.759926",
      "closest_city": {
        "name": "Prince Albert",
        "distance_km": 0.68
      }
    },
    {
      "country": "CA",
      "region": "SK",
      "exchange": "358990",
      "name": "COALFIELDS",
      "full_name": "Coalfields",
      "lata": "888",
      "ilec_name": "SASKTEL",
      "lat": "49.141571",
      "long": "-102.808182",
      "closest_city": {
        "name": "Estevan",
        "distance_km": 12.95
      }
    },
    {
      "country": "CA",
      "region": "SK",
      "exchange": "358991",
      "name": "COCHIN",
      "full_name": "Cochin",
      "lata": "888",
      "ilec_name": "SASKTEL",
      "lat": "52.773585",
      "long": "-108.302108",
      "closest_city": {
        "name": "North Battleford",
        "distance_km": 2.09
      }
    },
    {
      "country": "CA",
      "region": "SK",
      "exchange": "181710",
      "name": "CODERRE",
      "full_name": "Coderre",
      "lata": "888",
      "ilec_name": "SASKTEL",
      "lat": "50.133349",
      "long": "-106.386557",
      "closest_city": {
        "name": "Gravelbourg",
        "distance_km": 31.25
      }
    },
    {
      "country": "CA",
      "region": "SK",
      "exchange": "358993",
      "name": "CODETTE",
      "full_name": "Codette",
      "lata": "888",
      "ilec_name": "SASKTEL",
      "lat": "53.356287",
      "long": "-104.009225",
      "closest_city": {
        "name": "Nipawin",
        "distance_km": 0.67
      }
    },
    {
      "country": "CA",
      "region": "SK",
      "exchange": "358994",
      "name": "COLE BAY",
      "full_name": "Cole Bay",
      "lata": "888",
      "ilec_name": "SASKTEL",
      "lat": "55.162236",
      "long": "-108.152728",
      "closest_city": {
        "name": "Ile-à-la-Crosse",
        "distance_km": 36.26
      }
    },
    {
      "country": "CA",
      "region": "SK",
      "exchange": "182263",
      "name": "COLEVILLE",
      "full_name": "Coleville",
      "lata": "888",
      "ilec_name": "SASKTEL",
      "lat": "51.466576",
      "long": "-109.152868",
      "closest_city": {
        "name": "Kindersley",
        "distance_km": 0.3
      }
    },
    {
      "country": "CA",
      "region": "SK",
      "exchange": "358996",
      "name": "COLFAX",
      "full_name": "Colfax",
      "lata": "888",
      "ilec_name": "SASKTEL",
      "lat": "50.100304",
      "long": "-103.86295",
      "closest_city": {
        "name": "Lajord No. 128",
        "distance_km": 29.63
      }
    },
    {
      "country": "CA",
      "region": "SK",
      "exchange": "358997",
      "name": "COLGATE",
      "full_name": "Colgate",
      "lata": "888",
      "ilec_name": "SASKTEL",
      "lat": "49.241325",
      "long": "-103.814398",
      "closest_city": {
        "name": "Weyburn No. 67",
        "distance_km": 45.86
      }
    },
    {
      "country": "CA",
      "region": "SK",
      "exchange": "358998",
      "name": "COLLINSBAY",
      "full_name": "Collins Bay",
      "lata": "888",
      "ilec_name": "SASKTEL",
      "lat": "58.113451",
      "long": "-103.164478",
      "closest_city": {
        "name": "Pelican Narrows",
        "distance_km": 325.57
      }
    },
    {
      "country": "CA",
      "region": "SK",
      "exchange": "358999",
      "name": "COLMER",
      "full_name": "Colmer",
      "lata": "888",
      "ilec_name": "SASKTEL",
      "lat": "50.923804",
      "long": "-102.803669",
      "closest_city": {
        "name": "Melville",
        "distance_km": 0.81
      }
    },
    {
      "country": "CA",
      "region": "SK",
      "exchange": "181720",
      "name": "COLONSAY",
      "full_name": "Colonsay",
      "lata": "888",
      "ilec_name": "SASKTEL",
      "lat": "51.976696",
      "long": "-105.876483",
      "closest_city": {
        "name": "Blucher",
        "distance_km": 23.71
      }
    },
    {
      "country": "CA",
      "region": "SK",
      "exchange": "359001",
      "name": "COMO",
      "full_name": "Como",
      "lata": "888",
      "ilec_name": "SASKTEL",
      "lat": "50.766714",
      "long": "-103.794711",
      "closest_city": {
        "name": "Fort Qu’Appelle",
        "distance_km": 0.8
      }
    },
    {
      "country": "CA",
      "region": "SK",
      "exchange": "359002",
      "name": "COMO PARK",
      "full_name": "Como Park",
      "lata": "888",
      "ilec_name": "SASKTEL",
      "lat": "50.766714",
      "long": "-103.794711",
      "closest_city": {
        "name": "Fort Qu’Appelle",
        "distance_km": 0.8
      }
    },
    {
      "country": "CA",
      "region": "SK",
      "exchange": "359003",
      "name": "COMPASS",
      "full_name": "Compass",
      "lata": "888",
      "ilec_name": "SASKTEL",
      "lat": "54.123389",
      "long": "-108.416192",
      "closest_city": {
        "name": "Meadow Lake",
        "distance_km": 1.28
      }
    },
    {
      "country": "CA",
      "region": "SK",
      "exchange": "359004",
      "name": "CONDIE",
      "full_name": "Condie",
      "lata": "888",
      "ilec_name": "SASKTEL",
      "lat": "50.450857",
      "long": "-104.6166",
      "closest_city": {
        "name": "Regina",
        "distance_km": 0.82
      }
    },
    {
      "country": "CA",
      "region": "SK",
      "exchange": "359005",
      "name": "CONGRESS",
      "full_name": "Congress",
      "lata": "888",
      "ilec_name": "SASKTEL",
      "lat": "49.63221",
      "long": "-105.994659",
      "closest_city": {
        "name": "Assiniboia",
        "distance_km": 1.91
      }
    },