---
rate_centers:
  us:
    il:
    - region: IL
      exchange: '320063'
      name: Abbott Park
      short_name: ABBOTT PK
      lata: '358'
      ilec_name: ILLINOIS BELL TEL CO
      lat:
      long:
    - region: IL
      exchange: '046140'
      name: Abingdon
      short_name: ABINGDON
      lata: '977'
      ilec_name: CITIZENS TELECOM CO ILLINOIS-FRONTIER CITIZENS -IL
      lat: '40.807055'
      long: "-90.394996"
    - region: IL
      exchange: '046150'
      name: Adair
      short_name: ADAIR
      lata: '977'
      ilec_name: MCDONOUGH TEL. COOP.
      lat: '40.42423'
      long: "-90.486988"
    - region: IL
      exchange: '321536'
      name: Adams
      short_name: ADAMS
      lata: '376'
      ilec_name: ILLINOIS BELL TEL CO
      lat:
      long:
    - region: IL
      exchange: '046160'
      name: Addieville
      short_name: ADDIEVILLE
      lata: '520'
      ilec_name: CITIZENS TELECOM CO ILLINOIS-FRONTIER CITIZENS -IL
      lat: '38.389487'
      long: "-89.48444"
    - region: IL
      exchange: '320064'
      name: Addison
      short_name: ADDISON
      lata: '358'
      ilec_name: ILLINOIS BELL TEL CO
      lat:
      long:
    - region: IL
      exchange: '320678'
      name: Adeline
      short_name: ADELINE
      lata: '360'
      ilec_name: FRONTIER NORTH, INC. - IL
      lat:
      long:
    - region: IL
      exchange: '363183'
      name: Adrian
      short_name: ADRIAN
      lata: '977'
      ilec_name: CITIZENS TELECOM CO ILLINOIS-FRONTIER CITIZENS -IL
      lat:
      long:
    - region: IL
      exchange: '320904'
      name: Agnew
      short_name: AGNEW
      lata: '364'
      ilec_name: ILLINOIS BELL TEL CO
      lat:
      long:
    - region: IL
      exchange: '320749'
      name: Akin
      short_name: AKIN
      lata: '362'
      ilec_name: FRONTIER NORTH, INC. - IL
      lat:
      long:
    - region: IL
      exchange: '046170'
      name: Albany
      short_name: ALBANY
      lata: '634'
      ilec_name: CITIZENS TELECOM CO ILLINOIS-FRONTIER CITIZENS -IL
      lat: '41.789171'
      long: "-90.221275"
    - region: IL
      exchange: '046180'
      name: Albers
      short_name: ALBERS
      lata: '520'
      ilec_name: FRONTIER NORTH, INC. - IL
      lat: '38.542481'
      long: "-89.609501"
    - region: IL
      exchange: '046190'
      name: Albion
      short_name: ALBION
      lata: '978'
      ilec_name: FRONTIER NORTH, INC. - IL
      lat: '38.376672'
      long: "-88.054987"
    - region: IL
      exchange: '320065'
      name: Alden
      short_name: ALDEN
      lata: '358'
      ilec_name: FRONTIER NORTH, INC. - IL
      lat:
      long:
    - region: IL
      exchange: '046200'
      name: Aledo
      short_name: ALEDO
      lata: '634'
      ilec_name: CITIZENS TELECOM CO ILLINOIS-FRONTIER CITIZENS -IL
      lat: '41.201321'
      long: "-90.748285"
    - region: IL
      exchange: '046210'
      name: Alexander
      short_name: ALEXANDER
      lata: '376'
      ilec_name: FRONTIER NORTH, INC. - IL
      lat: '39.721749'
      long: "-90.036728"
    - region: IL
      exchange: '046220'
      name: Alexis
      short_name: ALEXIS
      lata: '634'
      ilec_name: CITIZENS TELECOM CO ILLINOIS-FRONTIER CITIZENS -IL
      lat: '41.062287'
      long: "-90.553941"
    - region: IL
      exchange: '046230'
      name: Algonquin
      short_name: ALGONQUIN
      lata: '358'
      ilec_name: ILLINOIS BELL TEL CO
      lat: '42.168276'
      long: "-88.29021"
    - region: IL
      exchange: '046240'
      name: Alhambra
      short_name: ALHAMBRA
      lata: '520'
      ilec_name: ALHAMBRA-GRANTFORK TEL. CO.
      lat: '38.889584'
      long: "-89.729548"
    - region: IL
      exchange: '321124'
      name: Allen
      short_name: ALLEN
      lata: '368'
      ilec_name: ILLINOIS BELL TEL CO
      lat:
      long:
    - region: IL
      exchange: '046250'
      name: Allendale
      short_name: ALLENDALE
      lata: '978'
      ilec_name: FRONTIER NORTH, INC. - IL
      lat: '38.52626'
      long: "-87.710852"
    - region: IL
      exchange: '321125'
      name: Allentown
      short_name: ALLENTOWN
      lata: '368'
      ilec_name: FRONTIER NORTH, INC. - IL
      lat:
      long:
    - region: IL
      exchange: '363036'
      name: Allenville
      short_name: ALLENVILLE
      lata: '976'
      ilec_name: ILLINOIS CONSOLIDATED TEL. CO.
      lat:
      long:
    - region: IL
      exchange: '321294'
      name: Allerton
      short_name: ALLERTON
      lata: '370'
      ilec_name: FRONTIER NORTH, INC. - IL
      lat:
      long:
    - region: IL
      exchange: '329478'
      name: Alma
      short_name: ALMA
      lata: '520'
      ilec_name: ILLINOIS BELL TEL CO
      lat:
      long:
    - region: IL
      exchange: '320067'
      name: Almora
      short_name: ALMORA
      lata: '358'
      ilec_name: ILLINOIS BELL TEL CO
      lat:
      long:
    - region: IL
      exchange: '329479'
      name: Alorton
      short_name: ALORTON
      lata: '520'
      ilec_name: ILLINOIS BELL TEL CO
      lat:
      long:
    - region: IL
      exchange: '046260'
      name: Alpha
      short_name: ALPHA
      lata: '634'
      ilec_name: CITIZENS TELECOM CO ILLINOIS-FRONTIER CITIZENS -IL
      lat: '41.19146'
      long: "-90.375251"
    - region: IL
      exchange: '320068'
      name: Alpine
      short_name: ALPINE
      lata: '358'
      ilec_name: ILLINOIS BELL TEL CO
      lat:
      long:
    - region: IL
      exchange: '321538'
      name: Alsey
      short_name: ALSEY
      lata: '376'
      ilec_name: FRONTIER NORTH, INC. - IL
      lat:
      long:
    - region: IL
      exchange: '320069'
      name: Alsip
      short_name: ALSIP
      lata: '358'
      ilec_name: ILLINOIS BELL TEL CO
      lat:
      long:
    - region: IL
      exchange: '321126'
      name: Alta
      short_name: ALTA
      lata: '368'
      ilec_name: FRONTIER NORTH, INC. - IL
      lat:
      long:
    - region: IL
      exchange: '046270'
      name: Altamont
      short_name: ALTAMONT
      lata: '520'
      ilec_name: CITIZENS TELECOM CO ILLINOIS-FRONTIER CITIZENS -IL
      lat: '39.058668'
      long: "-88.755343"
    - region: IL
      exchange: '320750'
      name: Alto Pass
      short_name: ALTO PASS
      lata: '362'
      ilec_name: FRONTIER NORTH, INC. - IL
      lat:
      long:
    - region: IL
      exchange: '046280'
      name: Alton
      short_name: ALTON
      lata: '520'
      ilec_name: ILLINOIS BELL TEL CO
      lat: '38.890454'
      long: "-90.182265"
    - region: IL
      exchange: '046290'
      name: Altona
      short_name: ALTONA
      lata: '977'
      ilec_name: MID CENTURY TEL. COOP., INC.
      lat: '41.111804'
      long: "-90.162802"
    - region: IL
      exchange: '046300'
      name: Alvin
      short_name: ALVIN
      lata: '370'
      ilec_name: FRONTIER NORTH, INC. - IL
      lat: '40.308178'
      long: "-87.608626"
    - region: IL
      exchange: '046310'
      name: Amboy
      short_name: AMBOY
      lata: '364'
      ilec_name: FRONTIER NORTH, INC. - IL
      lat: '41.718811'
      long: "-89.334832"
    - region: IL
      exchange: '329482'
      name: Ames
      short_name: AMES
      lata: '520'
      ilec_name: HARRISONVILLE TEL. CO.
      lat:
      long:
    - region: IL
      exchange: '321004'
      name: Anchor
      short_name: ANCHOR
      lata: '366'
      ilec_name: FRONTIER NORTH, INC. - IL
      lat:
      long:
    - region: IL
      exchange: '321005'
      name: Ancona
      short_name: ANCONA
      lata: '366'
      ilec_name: FRONTIER NORTH, INC. - IL
      lat:
      long:
    - region: IL
      exchange: '338593'
      name: Andalusia
      short_name: ANDALUSIA
      lata: '634'
      ilec_name: ILLINOIS BELL TEL CO
      lat:
      long:
    - region: IL
      exchange: '046320'
      name: Andover
      short_name: ANDOVER
      lata: '634'
      ilec_name: CITIZENS TELECOM CO ILLINOIS-FRONTIER CITIZENS -IL
      lat: '41.293111'
      long: "-90.288483"
    - region: IL
      exchange: '046321'
      name: Andover (Cambridge Telephone)
      short_name:
      lata: '634'
      ilec_name: CAMBRIDGE TEL. CO.
      lat: '41.293111'
      long: "-90.288483"
    - region: IL
      exchange: '320070'
      name: Andres
      short_name: ANDRES
      lata: '358'
      ilec_name: ILLINOIS BELL TEL CO
      lat:
      long:
    - region: IL
      exchange: '321414'
      name: Andrew
      short_name: ANDREW
      lata: '374'
      ilec_name: ILLINOIS BELL TEL CO
      lat:
      long:
    - region: IL
      exchange: '046330'
      name: Anna
      short_name: ANNA
      lata: '362'
      ilec_name: FRONTIER NORTH, INC. - IL
      lat: '37.461235'
      long: "-89.247677"
    - region: IL
      exchange: '046340'
      name: Annapolis
      short_name: ANNAPOLIS
      lata: '978'
      ilec_name: FRONTIER NORTH, INC. - IL
      lat: '39.147358'
      long: "-87.811048"
    - region: IL
      exchange: '046350'
      name: Annawan
      short_name: ANNAWAN
      lata: '634'
      ilec_name: HENRY COUNTY TEL. CO.
      lat: '41.393314'
      long: "-89.909276"
    - region: IL
      exchange: '046360'
      name: Antioch
      short_name: ANTIOCH
      lata: '358'
      ilec_name: ILLINOIS BELL TEL CO
      lat: '42.479327'
      long: "-88.097762"
    - region: IL
      exchange: '046371'
      name: Apple Canyon Lake
      short_name: APPLCNYNLK
      lata: '360'
      ilec_name: FRONTIER NORTH, INC. - IL
      lat:
      long:
    - region: IL
      exchange: '046370'
      name: Apple River
      short_name: APPLERIVER
      lata: '360'
      ilec_name: FRONTIER NORTH, INC. - IL
      lat: '42.49799'
      long: "-90.099843"
    - region: IL
      exchange: '363185'
      name: Appleton
      short_name: APPLETON
      lata: '977'
      ilec_name: GALLATIN RIVER COMMUNICATIONS DBA CENTURYLINK
      lat:
      long:
    - region: IL
      exchange: '320072'
      name: Aptakisic
      short_name: APTAKISIC
      lata: '358'
      ilec_name: ILLINOIS BELL TEL CO
      lat:
      long:
    - region: IL
      exchange: '321539'
      name: Arcadia
      short_name: ARCADIA
      lata: '376'
      ilec_name: FRONTIER NORTH, INC. - IL
      lat:
      long:
    - region: IL
      exchange: '321415'
      name: Archer
      short_name: ARCHER
      lata: '374'
      ilec_name: ILLINOIS BELL TEL CO
      lat:
      long:
    - region: IL
      exchange: '046380'
      name: Arcola
      short_name: ARCOLA
      lata: '976'
      ilec_name: ILLINOIS CONSOLIDATED TEL. CO.
      lat: '39.687004'
      long: "-88.303465"
    - region: IL
      exchange: '320073'
      name: Ardmore
      short_name: ARDMORE
      lata: '358'
      ilec_name: ILLINOIS BELL TEL CO
      lat:
      long:
    - region: IL
      exchange: '046390'
      name: Arenzville
      short_name: ARENZVILLE
      lata: '376'
      ilec_name: FRONTIER COMMUNICATIONS-MIDLAND, INC.
      lat: '39.875265'
      long: "-90.370662"
    - region: IL
      exchange: '046400'
      name: Argenta
      short_name: ARGENTA
      lata: '374'
      ilec_name: FRONTIER NORTH, INC. - IL
      lat: '39.987403'
      long: "-88.820484"
    - region: IL
      exchange: '320074'
      name: Argo
      short_name: ARGO
      lata: '358'
      ilec_name: ILLINOIS BELL TEL CO
      lat:
      long:
    - region: IL
      exchange: '320906'
      name: Argo Fay
      short_name: ARGO FAY
      lata: '364'
      ilec_name: GALLATIN RIVER COMMUNICATIONS DBA CENTURYLINK
      lat:
      long:
    - region: IL
      exchange: '320075'
      name: Argonne
      short_name: ARGONNE
      lata: '358'
      ilec_name: ILLINOIS BELL TEL CO
      lat:
      long:
    - region: IL
      exchange: '320680'
      name: Argyle
      short_name: ARGYLE
      lata: '360'
      ilec_name: FRONTIER NORTH, INC. - IL
      lat:
      long:
    - region: IL
      exchange: '321127'
      name: Arlington
      short_name: ARLINGTON
      lata: '368'
      ilec_name: FRONTIER NORTH, INC. - IL
      lat:
      long:
    - region: IL
      exchange: '046410'
      name: Arlington Heights
      short_name: ARLIGTNHTS
      lata: '358'
      ilec_name: ILLINOIS BELL TEL CO
      lat: '42.089588'
      long: "-87.983307"
    - region: IL
      exchange: '321006'
      name: Armington
      short_name: ARMINGTON
      lata: '366'
      ilec_name: FRONTIER NORTH, INC. - IL
      lat:
      long:
    - region: IL
      exchange: '046420'
      name: Armstrong
      short_name: ARMSTRONG
      lata: '370'
      ilec_name: FRONTIER COMMUNICATIONS OF THE CAROLINAS, INC - IL
      lat: '40.308698'
      long: "-87.88003"
    - region: IL
      exchange: '321541'
      name: Arnold
      short_name: ARNOLD
      lata: '376'
      ilec_name: FRONTIER NORTH, INC. - IL
      lat:
      long:
    - region: IL
      exchange: '320077'
      name: Aroma
      short_name: AROMA
      lata: '358'
      ilec_name: ILLINOIS BELL TEL CO
      lat:
      long:
    - region: IL
      exchange: '320078'
      name: Aroma Park
      short_name: AROMA PARK
      lata: '358'
      ilec_name: ILLINOIS BELL TEL CO
      lat:
      long:
    - region: IL
      exchange: '046430'
      name: Arrowsmith
      short_name: ARROWSMITH
      lata: '366'
      ilec_name: FRONTIER NORTH, INC. - IL
      lat: '40.450451'
      long: "-88.637638"
    - region: IL
      exchange: '046440'
      name: Arthur
      short_name: ARTHUR
      lata: '976'
      ilec_name: ILLINOIS CONSOLIDATED TEL. CO.
      lat: '39.71781'
      long: "-88.470565"
    - region: IL
      exchange: '046450'
      name: Ashkum
      short_name: ASHKUM
      lata: '358'
      ilec_name: FRONTIER NORTH, INC. - IL
      lat: '40.877581'
      long: "-87.95684"
    - region: IL
      exchange: '046460'
      name: Ashland
      short_name: ASHLAND
      lata: '374'
      ilec_name: CASS TELEPHONE COMPANY
      lat: '39.887119'
      long: "-90.010289"
    - region: IL
      exchange: '046470'
      name: Ashley
      short_name: ASHLEY
      lata: '520'
      ilec_name: CITIZENS TELECOM CO ILLINOIS-FRONTIER CITIZENS -IL
      lat: '38.324702'
      long: "-89.192242"
    - region: IL
      exchange: '046480'
      name: Ashmore
      short_name: ASHMORE
      lata: '976'
      ilec_name: ILLINOIS CONSOLIDATED TEL. CO.
      lat: '39.532593'
      long: "-88.02542"
    - region: IL
      exchange: '046490'
      name: Ashton
      short_name: ASHTON
      lata: '364'
      ilec_name: FRONTIER NORTH, INC. - IL
      lat: '41.866971'
      long: "-89.220278"
    - region: IL
      exchange: '046500'
      name: Assumption
      short_name: ASSUMPTION
      lata: '976'
      ilec_name: ILLINOIS CONSOLIDATED TEL. CO.
      lat: '39.520068'
      long: "-89.043066"
    - region: IL
      exchange: '046510'
      name: Astoria
      short_name: ASTORIA
      lata: '977'
      ilec_name: FRONTIER NORTH, INC. - IL
      lat: '40.230772'
      long: "-90.356738"
    - region: IL
      exchange: '046520'
      name: Athens
      short_name: ATHENS
      lata: '374'
      ilec_name: ILLINOIS BELL TEL CO
      lat: '39.963963'
      long: "-89.727033"
    - region: IL
      exchange: '321542'
      name: Athensville
      short_name: ATHENSVL
      lata: '376'
      ilec_name: FRONTIER NORTH, INC. - IL
      lat:
      long:
    - region: IL
      exchange: '046530'
      name: Atkinson
      short_name: ATKINSON
      lata: '634'
      ilec_name: HENRY COUNTY TEL. CO.
      lat: '41.42207'
      long: "-90.013002"
    - region: IL
      exchange: '046540'
      name: Atlanta
      short_name: ATLANTA
      lata: '366'
      ilec_name: FRONTIER NORTH, INC. - IL
      lat: '40.260425'
      long: "-89.237423"
    - region: IL
      exchange: '321543'
      name: Atlas
      short_name: ATLAS
      lata: '376'
      ilec_name: FRONTIER NORTH, INC. - IL
      lat:
      long:
    - region: IL
      exchange: '321419'
      name: Atterberry
      short_name: ATTERBERRY
      lata: '374'
      ilec_name: ILLINOIS BELL TEL CO
      lat:
      long:
    - region: IL
      exchange: '363041'
      name: Atwater
      short_name: ATWATER
      lata: '976'
      ilec_name: ILLINOIS CONSOLIDATED TEL. CO.
      lat:
      long:
    - region: IL
      exchange: '046550'
      name: Atwood
      short_name: ATWOOD
      lata: '976'
      ilec_name: ILLINOIS CONSOLIDATED TEL. CO.
      lat: '39.800244'
      long: "-88.455492"
    - region: IL
      exchange: '046560'
      name: Auburn
      short_name: AUBURN
      lata: '374'
      ilec_name: FRONTIER NORTH, INC. - IL
      lat: '39.594154'
      long: "-89.746706"
    - region: IL
      exchange: '046570'
      name: Augusta
      short_name: AUGUSTA
      lata: '376'
      ilec_name: ADAMS TEL. COOP.
      lat: '40.234342'
      long: "-90.941793"
    - region: IL
      exchange: '046580'
      name: Aurora
      short_name: AURORA
      lata: '358'
      ilec_name: ILLINOIS BELL TEL CO
      lat: '41.755781'
      long: "-88.315663"
    - region: IL
      exchange: '046581'
      name: Aurora East
      short_name: AURORA EAS
      lata: '358'
      ilec_name: ILLINOIS BELL TEL CO
      lat: '41.755781'
      long: "-88.315663"
    - region: IL
      exchange: '046590'
      name: Ava
      short_name: AVA
      lata: '362'
      ilec_name: FRONTIER NORTH, INC. - IL
      lat: '37.891516'
      long: "-89.494124"
    - region: IL
      exchange: '329484'
      name: Avena
      short_name: AVENA
      lata: '520'
      ilec_name: CITIZENS TELECOM CO ILLINOIS-FRONTIER CITIZENS -IL
      lat:
      long:
    - region: IL
      exchange: '046600'
      name: Aviston
      short_name: AVISTON
      lata: '520'
      ilec_name: ILLINOIS BELL TEL CO
      lat: '38.612732'
      long: "-89.604064"
    - region: IL
      exchange: '046610'
      name: Avon
      short_name: AVON
      lata: '977'
      ilec_name: GALLATIN RIVER COMMUNICATIONS DBA CENTURYLINK
      lat: '40.666338'
      long: "-90.43202"
    - region: IL
      exchange: '329486'
      name: Ayers
      short_name: AYERS
      lata: '520'
      ilec_name: ILLINOIS BELL TEL CO
      lat:
      long:
    - region: IL
      exchange: '321128'
      name: Babylon
      short_name: BABYLON
      lata: '368'
      ilec_name: MID CENTURY TEL. COOP., INC.
      lat:
      long:
    - region: IL
      exchange: '363188'
      name: Bader
      short_name: BADER
      lata: '977'
      ilec_name: FRONTIER NORTH, INC. - IL
      lat:
      long:
    - region: IL
      exchange: '320681'
      name: Baileyville
      short_name: BAILEYVL
      lata: '360'
      ilec_name: FRONTIER NORTH, INC. - IL
      lat:
      long:
    - region: IL
      exchange: '320081'
      name: Baker
      short_name: BAKER
      lata: '358'
      ilec_name: ILLINOIS BELL TEL CO
      lat:
      long:
    - region: IL
      exchange: '320082'
      name: Bald Mound
      short_name: BALD MOUND
      lata: '358'
      ilec_name: ILLINOIS BELL TEL CO
      lat:
      long:
    - region: IL
      exchange: '046620'
      name: Baldwin
      short_name: BALDWIN
      lata: '362'
      ilec_name: EGYPTIAN TEL. COOP. ASSN.
      lat: '38.18478'
      long: "-89.842319"
    - region: IL
      exchange: '321129'
      name: Banner
      short_name: BANNER
      lata: '368'
      ilec_name: ILLINOIS BELL TEL CO
      lat:
      long:
    - region: IL
      exchange: '320083'
      name: Bannockburn
      short_name: BANOCKBURN
      lata: '358'
      ilec_name: ILLINOIS BELL TEL CO
      lat:
      long:
    - region: IL
      exchange: '321421'
      name: Barclay
      short_name: BARCLAY
      lata: '374'
      ilec_name: ILLINOIS BELL TEL CO
      lat:
      long:
    - region: IL
      exchange: '046630'
      name: Bardolph
      short_name: BARDOLPH
      lata: '977'
      ilec_name: MCDONOUGH TEL. COOP.
      lat: '40.495998'
      long: "-90.568333"
    - region: IL
      exchange: '363282'
      name: Barnhill
      short_name: BARNHILL
      lata: '978'
      ilec_name: FRONTIER NORTH, INC. - IL
      lat:
      long:
    - region: IL
      exchange: '321422'
      name: Barr
      short_name: BARR
      lata: '374'
      ilec_name: FRONTIER NORTH, INC. - IL
      lat:
      long:
    - region: IL
      exchange: '046640'
      name: Barrington
      short_name: BARRINGTON
      lata: '358'
      ilec_name: ILLINOIS BELL TEL CO
      lat: '42.153746'
      long: "-88.133129"
    - region: IL
      exchange: '320084'
      name: Barrington Hills
      short_name: BARRGTN HL
      lata: '358'
      ilec_name: ILLINOIS BELL TEL CO
      lat:
      long:
    - region: IL
      exchange: '046641'
      name: Barrington South
      short_name: BARRNGTN S
      lata: '358'
      ilec_name: ILLINOIS BELL TEL CO
      lat: '42.153746'
      long: "-88.133129"
    - region: IL
      exchange: '321545'
      name: Barrow
      short_name: BARROW
      lata: '376'
      ilec_name: FRONTIER NORTH, INC. - IL
      lat:
      long:
    - region: IL
      exchange: '046650'
      name: Barry
      short_name: BARRY
      lata: '376'
      ilec_name: FRONTIER NORTH, INC. - IL
      lat: '39.69163'
      long: "-91.043098"
    - region: IL
      exchange: '338597'
      name: Barstow
      short_name: BARSTOW
      lata: '634'
      ilec_name: CITIZENS TELECOM CO ILLINOIS-FRONTIER CITIZENS -IL
      lat:
      long:
    - region: IL
      exchange: '046660'
      name: Bartelso
      short_name: BARTELSO
      lata: '520'
      ilec_name: CITIZENS TELECOM CO ILLINOIS-FRONTIER CITIZENS -IL
      lat: '38.536155'
      long: "-89.462854"
    - region: IL
      exchange: '046670'
      name: Bartlett
      short_name: BARTLETT
      lata: '358'
      ilec_name: ILLINOIS BELL TEL CO
      lat: '41.993562'
      long: "-88.190492"
    - region: IL
      exchange: '053155'
      name: Bartonville
      short_name: BARTONVL
      lata: '368'
      ilec_name: ILLINOIS BELL TEL CO
      lat:
      long:
    - region: IL
      exchange: '046680'
      name: Basco
      short_name: BASCO
      lata: '977'
      ilec_name: CITIZENS TELECOM CO ILLINOIS-FRONTIER CITIZENS -IL
      lat: '40.328542'
      long: "-91.195757"
    - region: IL
      exchange: '046690'
      name: Batavia
      short_name: BATAVIA
      lata: '358'
      ilec_name: ILLINOIS BELL TEL CO
      lat: '41.856819'
      long: "-88.307355"
    - region: IL
      exchange: '046700'
      name: Batchtown
      short_name: BATCHTOWN
      lata: '520'
      ilec_name: CITIZENS TELECOM CO ILLINOIS-FRONTIER CITIZENS -IL
      lat: '39.031968'
      long: "-90.657679"
    - region: IL
      exchange: '321423'
      name: Bates
      short_name: BATES
      lata: '374'
      ilec_name: FRONTIER NORTH, INC. - IL
      lat:
      long:
    - region: IL
      exchange: '046710'
      name: Bath
      short_name: BATH
      lata: '368'
      ilec_name: CITIZENS TELECOM CO ILLINOIS-FRONTIER CITIZENS -IL
      lat: '40.194572'
      long: "-90.139289"
    - region: IL
      exchange: '046720'
      name: Baylis
      short_name: BAYLIS
      lata: '376'
      ilec_name: FRONTIER NORTH, INC. - IL
      lat: '39.728275'
      long: "-90.90783"
    - region: IL
      exchange: '321132'
      name: Bayview Gardens
      short_name: BAYVW GARD
      lata: '368'
      ilec_name: ILLINOIS BELL TEL CO
      lat:
      long:
    - region: IL
      exchange: '320088'
      name: Beach Park
      short_name: BEACH PARK
      lata: '358'
      ilec_name: ILLINOIS BELL TEL CO
      lat:
      long:
    - region: IL
      exchange: '046730'
      name: Beardstown
      short_name: BEARDSTOWN
      lata: '376'
      ilec_name: ILLINOIS BELL TEL CO
      lat: '40.017478'
      long: "-90.433078"
    - region: IL
      exchange: '321424'
      name: Bearsdale
      short_name: BEARSDALE
      lata: '374'
      ilec_name: ILLINOIS BELL TEL CO
      lat:
      long:
    - region: IL
      exchange: '046740'
      name: Beason
      short_name: BEASON
      lata: '366'
      ilec_name: FRONTIER COMMUNICATIONS OF THE CAROLINAS, INC - IL
      lat: '40.146662'
      long: "-89.198438"
    - region: IL
      exchange: '329489'
      name: Beaucoup
      short_name: BEAUCOUP
      lata: '520'
      ilec_name: CITIZENS TELECOM CO ILLINOIS-FRONTIER CITIZENS -IL
      lat:
      long:
    - region: IL
      exchange: '329490'
      name: Beaver Creek
      short_name: BEAVERCREK
      lata: '520'
      ilec_name: ILLINOIS BELL TEL CO
      lat:
      long:
    - region: IL
      exchange: '046750'
      name: Beaverville
      short_name: BEAVERVL
      lata: '358'
      ilec_name: FRONTIER NORTH, INC. - IL
      lat: '40.957261'
      long: "-87.661307"
    - region: IL
      exchange: '046760'
      name: Beckemeyer
      short_name: BECKEMEYER
      lata: '520'
      ilec_name: ILLINOIS BELL TEL CO
      lat: '38.608426'
      long: "-89.436291"
    - region: IL
      exchange: '321549'
      name: Bedford
      short_name: BEDFORD
      lata: '376'
      ilec_name: FRONTIER NORTH, INC. - IL
      lat:
      long:
    - region: IL
      exchange: '320090'
      name: Bedford Park
      short_name: BEDFORD PK
      lata: '358'
      ilec_name: ILLINOIS BELL TEL CO
      lat:
      long:
    - region: IL
      exchange: '046770'
      name: Beecher
      short_name: BEECHER
      lata: '358'
      ilec_name: ILLINOIS BELL TEL CO
      lat: '41.338592'
      long: "-87.633817"
    - region: IL
      exchange: '046780'
      name: Beecher City
      short_name: BEECHER CY
      lata: '520'
      ilec_name: CITIZENS TELECOM CO ILLINOIS-FRONTIER CITIZENS -IL
      lat: '39.187896'
      long: "-88.782714"
    - region: IL
      exchange: '329493'
      name: Beechville
      short_name: BEECHVILLE
      lata: '520'
      ilec_name: CITIZENS TELECOM CO ILLINOIS-FRONTIER CITIZENS -IL
      lat:
      long:
    - region: IL
      exchange: '320754'
      name: Belknap
      short_name: BELKNAP
      lata: '362'
      ilec_name: FRONTIER NORTH, INC. - IL
      lat:
      long:
    - region: IL
      exchange: '046790'
      name: Belle Prairie
      short_name: BELLEPRARI
      lata: '978'
      ilec_name: HAMILTON COUNTY TELEPHONE CO-OP
      lat: '38.221334'
      long: "-88.551593"
    - region: IL
      exchange: '046800'
      name: Belle Rive
      short_name: BELLE RIVE
      lata: '978'
      ilec_name: HAMILTON COUNTY TELEPHONE CO-OP
      lat: '38.23122'
      long: "-88.741816"
    - region: IL
      exchange: '046810'
      name: Belleville-Adams
      short_name: BELLEVILLE
      lata: '520'
      ilec_name: ILLINOIS BELL TEL CO
      lat: '38.515116'
      long: "-89.973507"
    - region: IL
      exchange: '046811'
      name: Belleville-Pioneer
      short_name:
      lata: '520'
      ilec_name: ILLINOIS BELL TEL CO
      lat: '38.515116'
      long: "-89.973507"
    - region: IL
      exchange: '321133'
      name: Bellevue
      short_name: BELLEVUE
      lata: '368'
      ilec_name: ILLINOIS BELL TEL CO
      lat:
      long:
    - region: IL
      exchange: '046820'
      name: Bellflower
      short_name: BELLFLOWER
      lata: '366'
      ilec_name: FRONTIER NORTH, INC. - IL
      lat: '40.339948'
      long: "-88.529626"
    - region: IL
      exchange: '046830'
      name: Bellmont (Wabash)
      short_name: BELLMONT
      lata: '978'
      ilec_name: FRONTIER NORTH, INC. - IL
      lat: '38.38492'
      long: "-87.911019"
    - region: IL
      exchange: '046840'
      name: Bellwood
      short_name: BELLWOOD
      lata: '358'
      ilec_name: ILLINOIS BELL TEL CO
      lat: '41.885404'
      long: "-87.863511"
    - region: IL
      exchange: '329495'
      name: Beltrees
      short_name: BELTREES
      lata: '520'
      ilec_name: ILLINOIS BELL TEL CO
      lat:
      long:
    - region: IL
      exchange: '046850'
      name: Belvidere
      short_name: BELVIDERE
      lata: '360'
      ilec_name: FRONTIER NORTH, INC. - IL
      lat: '42.25672'
      long: "-88.841117"
    - region: IL
      exchange: '046860'
      name: Bement
      short_name: BEMENT
      lata: '370'
      ilec_name: FRONTIER NORTH, INC. - IL
      lat: '39.929453'
      long: "-88.570276"
    - region: IL
      exchange: '046870'
      name: Benld
      short_name: BENLD
      lata: '976'
      ilec_name: CITIZENS TELECOM CO ILLINOIS-FRONTIER CITIZENS -IL
      lat: '39.098198'
      long: "-89.800478"
    - region: IL
      exchange: '321298'
      name: Bennett
      short_name: BENNETT
      lata: '370'
      ilec_name: ILLINOIS BELL TEL CO
      lat:
      long:
    - region: IL
      exchange: '046880'
      name: Bensenville
      short_name: BENSENVL
      lata: '358'
      ilec_name: ILLINOIS BELL TEL CO
      lat: '41.956788'
      long: "-87.93815"
    - region: IL
      exchange: '046890'
      name: Benson
      short_name: BENSON
      lata: '368'
      ilec_name: FRONTIER NORTH, INC. - IL
      lat: '40.852571'
      long: "-89.119637"
    - region: IL
      exchange: '363191'
      name: Bentley
      short_name: BENTLEY
      lata: '977'
      ilec_name: CITIZENS TELECOM CO ILLINOIS-FRONTIER CITIZENS -IL
      lat:
      long:
    - region: IL
      exchange: '046900'
      name: Benton
      short_name: BENTON
      lata: '362'
      ilec_name: FRONTIER NORTH, INC. - IL
      lat: '38.005177'
      long: "-88.913983"
    - region: IL
      exchange: '320094'
      name: Berkeley
      short_name: BERKELEY
      lata: '358'
      ilec_name: ILLINOIS BELL TEL CO
      lat:
      long:
    - region: IL
      exchange: '321425'
      name: Berlin
      short_name: BERLIN
      lata: '374'
      ilec_name: FRONTIER NORTH, INC. - IL
      lat:
      long:
    - region: IL
      exchange: '320095'
      name: Bernice
      short_name: BERNICE
      lata: '358'
      ilec_name: ILLINOIS BELL TEL CO
      lat:
      long:
    - region: IL
      exchange: '321426'
      name: Berry
      short_name: BERRY
      lata: '374'
      ilec_name: ILLINOIS BELL TEL CO
      lat:
      long:
    - region: IL
      exchange: '363192'
      name: Berwick
      short_name: BERWICK
      lata: '977'
      ilec_name: CITIZENS TELECOM CO ILLINOIS-FRONTIER CITIZENS -IL
      lat:
      long:
    - region: IL
      exchange: '046910'
      name: Berwyn
      short_name: BERWYN
      lata: '358'
      ilec_name: ILLINOIS BELL TEL CO
      lat: '41.85115'
      long: "-87.79044"
    - region: IL
      exchange: '046920'
      name: Bethalto
      short_name: BETHALTO
      lata: '520'
      ilec_name: ILLINOIS BELL TEL CO
      lat: '38.903412'
      long: "-90.042802"
    - region: IL
      exchange: '046930'
      name: Bethany
      short_name: BETHANY
      lata: '374'
      ilec_name: FRONTIER NORTH, INC. - IL
      lat: '39.643957'
      long: "-88.740857"
    - region: IL
      exchange: '321550'
      name: Beverly
      short_name: BEVERLY
      lata: '376'
      ilec_name: FRONTIER NORTH, INC. - IL
      lat:
      long:
    - region: IL
      exchange: '046940'
      name: Bible Grove
      short_name: BIBLEGROVE
      lata: '978'
      ilec_name: WABASH TEL. COOP., INC.
      lat: '38.868734'
      long: "-88.442839"
    - region: IL
      exchange: '046950'
      name: Big Rock
      short_name: BIG ROCK
      lata: '358'
      ilec_name: ILLINOIS BELL TEL CO
      lat: '41.766697'
      long: "-88.543325"
    - region: IL
      exchange: '321135'
      name: Biggs
      short_name: BIGGS
      lata: '368'
      ilec_name: CASS TELEPHONE COMPANY
      lat:
      long:
    - region: IL
      exchange: '046960'
      name: Biggsville
      short_name: BIGGSVILLE
      lata: '977'
      ilec_name: CITIZENS TELECOM CO ILLINOIS-FRONTIER CITIZENS -IL
      lat: '40.853105'
      long: "-90.863794"
    - region: IL
      exchange: '321551'
      name: Bigneck
      short_name: BIGNECK
      lata: '376'
      ilec_name: ADAMS TEL. COOP.
      lat:
      long:
    - region: IL
      exchange: '363044'
      name: Bingham
      short_name: BINGHAM
      lata: '976'
      ilec_name: CITIZENS TELECOM CO ILLINOIS-FRONTIER CITIZENS -IL
      lat:
      long:
    - region: IL
      exchange: '046970'
      name: Birds
      short_name: BIRDS
      lata: '978'
      ilec_name: FRONTIER NORTH, INC. - IL
      lat: '38.835915'
      long: "-87.667868"
    - region: IL
      exchange: '321011'
      name: Birkbeck
      short_name: BIRKBECK
      lata: '366'
      ilec_name: FRONTIER NORTH, INC. - IL
      lat:
      long:
    - region: IL
      exchange: '329497'
      name: Birkner
      short_name: BIRKNER
      lata: '520'
      ilec_name: ILLINOIS BELL TEL CO
      lat:
      long:
    - region: IL
      exchange: '363194'
      name: Birmingham
      short_name: BIRMINGHAM
      lata: '977'
      ilec_name: ADAMS TEL. COOP.
      lat:
      long:
    - region: IL
      exchange: '321136'
      name: Bishop
      short_name: BISHOP
      lata: '368'
      ilec_name: GALLATIN RIVER COMMUNICATIONS DBA CENTURYLINK
      lat:
      long:
    - region: IL
      exchange: '046980'
      name: Bishop Hill
      short_name: BISHOPHILL
      lata: '977'
      ilec_name: MID CENTURY TEL. COOP., INC.
      lat: '41.202848'
      long: "-90.116661"
    - region: IL
      exchange: '046990'
      name: Bismarck
      short_name: BISMARCK
      lata: '370'
      ilec_name: FRONTIER NORTH, INC. - IL
      lat: '40.262844'
      long: "-87.612891"
    - region: IL
      exchange: '321428'
      name: Bissell
      short_name: BISSELL
      lata: '374'
      ilec_name: ILLINOIS BELL TEL CO
      lat:
      long:
    - region: IL
      exchange: '329498'
      name: Bixby
      short_name: BIXBY
      lata: '520'
      ilec_name: HARRISONVILLE TEL. CO.
      lat:
      long:
    - region: IL
      exchange: '321012'
      name: Blackstone
      short_name: BLACKSTONE
      lata: '366'
      ilec_name: FRONTIER NORTH, INC. - IL
      lat:
      long:
    - region: IL
      exchange: '047000'
      name: Blair
      short_name: BLAIR
      lata: '362'
      ilec_name: EGYPTIAN TEL. COOP. ASSN.
      lat: '38.046477'
      long: "-89.740709"
    - region: IL
      exchange: '047010'
      name: Blairsville (Hamilton)
      short_name: BLAIRSVL
      lata: '978'
      ilec_name: HAMILTON COUNTY TELEPHONE CO-OP
      lat: '38.166699'
      long: "-88.456098"
    - region: IL
      exchange: '320683'
      name: Blanding
      short_name: BLANDING
      lata: '360'
      ilec_name: FRONTIER NORTH, INC. - IL
      lat:
      long:
    - region: IL
      exchange: '047020'
      name: Blandinsville
      short_name: BLANDINSVL
      lata: '977'
      ilec_name: MCDONOUGH TEL. COOP.
      lat: '40.555482'
      long: "-90.865438"
    - region: IL
      exchange: '321300'
      name: Block
      short_name: BLOCK
      lata: '370'
      ilec_name: FRONTIER NORTH, INC. - IL
      lat:
      long:
    - region: IL
      exchange: '320098'
      name: Bloomingdale
      short_name: BLOOMINGDL
      lata: '358'
      ilec_name: ILLINOIS BELL TEL CO
      lat:
      long:
    - region: IL
      exchange: '047030'
      name: Bloomington
      short_name: BLOOMINGTN
      lata: '366'
      ilec_name: FRONTIER NORTH, INC. - IL
      lat: '40.482189'
      long: "-88.995254"
    - region: IL
      exchange: '047040'
      name: Blue Island
      short_name: BLUEISLAND
      lata: '358'
      ilec_name: ILLINOIS BELL TEL CO
      lat: '41.655195'
      long: "-87.679509"
    - region: IL
      exchange: '047050'
      name: Blue Mound
      short_name: BLUE MOUND
      lata: '374'
      ilec_name: ILLINOIS CONSOLIDATED TEL. CO.
      lat: '39.702247'
      long: "-89.123336"
    - region: IL
      exchange: '321301'
      name: Blue Ridge
      short_name: BLUE RIDGE
      lata: '370'
      ilec_name: FRONTIER NORTH, INC. - IL
      lat:
      long:
    - region: IL
      exchange: '329499'
      name: Bluff City
      short_name: BLUFF CITY
      lata: '520'
      ilec_name: ILLINOIS BELL TEL CO
      lat:
      long:
    - region: IL
      exchange: '321552'
      name: Bluff City
      short_name: BLUFF CITY
      lata: '376'
      ilec_name: ILLINOIS BELL TEL CO
      lat:
      long:
    - region: IL
      exchange: '321553'
      name: Bluff Hall
      short_name: BLUFF HALL
      lata: '376'
      ilec_name: ILLINOIS BELL TEL CO
      lat:
      long:
    - region: IL
      exchange: '320100'
      name: Bluff Lake
      short_name: BLUFF LAKE
      lata: '358'
      ilec_name: ILLINOIS BELL TEL CO
      lat:
      long:
    - region: IL
      exchange: '321554'
      name: Bluff Springs
      short_name: BLUFF SPG
      lata: '376'
      ilec_name: ILLINOIS BELL TEL CO
      lat:
      long:
    - region: IL
      exchange: '047060'
      name: Bluffs
      short_name: BLUFFS
      lata: '376'
      ilec_name: FRONTIER NORTH, INC. - IL
      lat: '39.752261'
      long: "-90.535092"
    - region: IL
      exchange: '047070'
      name: Bluford
      short_name: BLUFORD
      lata: '520'
      ilec_name: ILLINOIS BELL TEL CO
      lat: '38.326268'
      long: "-88.745673"
    - region: IL
      exchange: '321137'
      name: Blyton
      short_name: BLYTON
      lata: '368'
      ilec_name: MID CENTURY TEL. COOP., INC.
      lat:
      long:
    - region: IL
      exchange: '320101'
      name: Bolingbrook
      short_name: BOLINGBRK
      lata: '358'
      ilec_name: ILLINOIS BELL TEL CO
      lat:
      long:
    - region: IL
      exchange: '051171'
      name: Bolingbrook
      short_name: BOLINGBROK
      lata: '358'
      ilec_name: ILLINOIS BELL TEL CO
      lat: '41.668632'
      long: "-87.988951"
    - region: IL
      exchange: '321430'
      name: Bolivia
      short_name: BOLIVIA
      lata: '374'
      ilec_name: ILLINOIS BELL TEL CO
      lat:
      long:
    - region: IL
      exchange: '363046'
      name: Bolivia
      short_name: BOLIVIA
      lata: '976'
      ilec_name: ILLINOIS CONSOLIDATED TEL. CO.
      lat:
      long:
    - region: IL
      exchange: '047080'
      name: Bondville
      short_name: BONDVILLE
      lata: '370'
      ilec_name: FRONTIER COMMUNICATIONS OF THE CAROLINAS, INC - IL
      lat: '40.108987'
      long: "-88.368407"
    - region: IL
      exchange: '363289'
      name: Bone Gap
      short_name: BONE GAP
      lata: '978'
      ilec_name: WABASH TEL. COOP., INC.
      lat:
      long:
    - region: IL
      exchange: '320102'
      name: Bonfield
      short_name: BONFIELD
      lata: '358'
      ilec_name: ILLINOIS BELL TEL CO
      lat:
      long:
    - region: IL
      exchange: '321303'
      name: Bongard
      short_name: BONGARD
      lata: '370'
      ilec_name: FRONTIER COMMUNICATIONS OF THE CAROLINAS, INC - IL
      lat:
      long:
    - region: IL
      exchange: '329501'
      name: Bonnie
      short_name: BONNIE
      lata: '520'
      ilec_name: ILLINOIS BELL TEL CO
      lat:
      long:
    - region: IL
      exchange: '321431'
      name: Boody
      short_name: BOODY
      lata: '374'
      ilec_name: FRONTIER NORTH, INC. - IL
      lat:
      long:
    - region: IL
      exchange: '363047'
      name: Borton
      short_name: BORTON
      lata: '976'
      ilec_name: ILLINOIS CONSOLIDATED TEL. CO.
      lat:
      long:
    - region: IL
      exchange: '329502'
      name: Boulder
      short_name: BOULDER
      lata: '520'
      ilec_name: CITIZENS TELECOM CO ILLINOIS-FRONTIER CITIZENS -IL
      lat:
      long:
    - region: IL
      exchange: '363048'
      name: Bourbon
      short_name: BOURBON
      lata: '976'
      ilec_name: ILLINOIS CONSOLIDATED TEL. CO.
      lat:
      long:
    - region: IL
      exchange: '320103'
      name: Bourbonnais
      short_name: BOURBONNAS
      lata: '358'
      ilec_name: ILLINOIS BELL TEL CO
      lat:
      long:
    - region: IL
      exchange: '047090'
      name: Bowen
      short_name: BOWEN
      lata: '977'
      ilec_name: CITIZENS TELECOM CO ILLINOIS-FRONTIER CITIZENS -IL
      lat: '40.233004'
      long: "-91.06254"
    - region: IL
      exchange: '320104'
      name: Bowes
      short_name: BOWES
      lata: '358'
      ilec_name: ILLINOIS BELL TEL CO
      lat:
      long:
    - region: IL
      exchange: '329503'
      name: Boyd
      short_name: BOYD
      lata: '520'
      ilec_name: ILLINOIS BELL TEL CO
      lat:
      long:
    - region: IL
      exchange: '320105'
      name: Braceville
      short_name: BRACEVILLE
      lata: '358'
      ilec_name: ILLINOIS BELL TEL CO
      lat:
      long:
    - region: IL
      exchange: '047100'
      name: Bradford
      short_name: BRADFORD
      lata: '368'
      ilec_name: FRONTIER NORTH, INC. - IL
      lat: '41.180597'
      long: "-89.662127"
    - region: IL
      exchange: '321432'
      name: Bradfordton
      short_name: BRADFRDTON
      lata: '374'
      ilec_name: ILLINOIS BELL TEL CO
      lat:
      long:
    - region: IL
      exchange: '320106'
      name: Bradley
      short_name: BRADLEY
      lata: '358'
      ilec_name: ILLINOIS BELL TEL CO
      lat:
      long:
    - region: IL
      exchange: '047110'
      name: Braidwood
      short_name: BRAIDWOOD
      lata: '358'
      ilec_name: ILLINOIS BELL TEL CO
      lat: '41.263216'
      long: "-88.217213"
    - region: IL
      exchange: '321433'
      name: Breckenridge
      short_name: BRECKENRDG
      lata: '374'
      ilec_name: ILLINOIS BELL TEL CO
      lat:
      long:
    - region: IL
      exchange: '321139'
      name: Breeds
      short_name: BREEDS
      lata: '368'
      ilec_name: ILLINOIS BELL TEL CO
      lat:
      long:
    - region: IL
      exchange: '047120'
      name: Breese
      short_name: BREESE
      lata: '520'
      ilec_name: ILLINOIS BELL TEL CO
      lat: '38.612681'
      long: "-89.52541"
    - region: IL
      exchange: '321140'
      name: Brereton
      short_name: BRERETON
      lata: '368'
      ilec_name: ILLINOIS BELL TEL CO
      lat:
      long:
    - region: IL
      exchange: '047130'
      name: Bridgeport
      short_name: BRIDGEPORT
      lata: '978'
      ilec_name: FRONTIER NORTH, INC. - IL
      lat: '38.712852'
      long: "-87.757872"
    - region: IL
      exchange: '320108'
      name: Bridgeview
      short_name: BRIDGEVIEW
      lata: '358'
      ilec_name: ILLINOIS BELL TEL CO
      lat:
      long:
    - region: IL
      exchange: '047140'
      name: Brighton
      short_name: BRIGHTON
      lata: '520'
      ilec_name: ILLINOIS BELL TEL CO
      lat: '39.039432'
      long: "-90.140777"
    - region: IL
      exchange: '047150'
      name: Brimfield
      short_name: BRIMFIELD
      lata: '368'
      ilec_name: FRONTIER NORTH, INC. - IL
      lat: '40.835625'
      long: "-89.88342"
    - region: IL
      exchange: '320109'
      name: Bristol
      short_name: BRISTOL
      lata: '358'
      ilec_name: ILLINOIS BELL TEL CO
      lat:
      long:
    - region: IL
      exchange: '047160'
      name: Broadlands
      short_name: BROADLANDS
      lata: '370'
      ilec_name: FRONTIER NORTH, INC. - IL
      lat: '39.912051'
      long: "-87.99627"
    - region: IL
      exchange: '320110'
      name: Broadview
      short_name: BROADVIEW
      lata: '358'
      ilec_name: ILLINOIS BELL TEL CO
      lat:
      long:
    - region: IL
      exchange: '321014'
      name: Broadwell
      short_name: BROADWELL
      lata: '366'
      ilec_name: FRONTIER NORTH, INC. - IL
      lat:
      long:
    - region: IL
      exchange: '047170'
      name: Brocton
      short_name: BROCTON
      lata: '938'
      ilec_name: FRONTIER NORTH, INC. - IL
      lat: '39.717145'
      long: "-87.940464"
    - region: IL
      exchange: '321305'
      name: Bronson
      short_name: BRONSON
      lata: '370'
      ilec_name: ILLINOIS BELL TEL CO
      lat:
      long:
    - region: IL
      exchange: '047180'
      name: Brookfield
      short_name: BROOKFIELD
      lata: '358'
      ilec_name: ILLINOIS BELL TEL CO
      lat: '41.821141'
      long: "-87.846504"
    - region: IL
      exchange: '329506'
      name: Brooklyn
      short_name: BROOKLYN
      lata: '520'
      ilec_name: ILLINOIS BELL TEL CO
      lat:
      long:
    - region: IL
      exchange: '047190'
      name: Brookport
      short_name: BROOKPORT
      lata: '362'
      ilec_name: FRONTIER NORTH, INC. - IL
      lat: '37.127237'
      long: "-88.633048"
    - region: IL
      exchange: '051081'
      name: Brookville
      short_name: BROOKVILLE
      lata: '364'
      ilec_name: CITIZENS TELECOM CO ILLINOIS-FRONTIER CITIZENS -IL
      lat:
      long:
    - region: IL
      exchange: '321306'
      name: Brothers
      short_name: BROTHERS
      lata: '370'
      ilec_name: ILLINOIS BELL TEL CO
      lat:
      long:
    - region: IL
      exchange: '047200'
      name: Broughton
      short_name: BROUGHTON
      lata: '978'
      ilec_name: HAMILTON COUNTY TELEPHONE CO-OP
      lat: '37.935437'
      long: "-88.462828"
    - region: IL
      exchange: '320759'
      name: Brownfield
      short_name: BROWNFIELD
      lata: '362'
      ilec_name: SHAWNEE TEL. CO.
      lat:
      long:
    - region: IL
      exchange: '321556'
      name: Browning
      short_name: BROWNING
      lata: '376'
      ilec_name: ILLINOIS BELL TEL CO
      lat:
      long:
    - region: IL
      exchange: '047210'
      name: Browns
      short_name: BROWNS
      lata: '978'
      ilec_name: WABASH TEL. COOP., INC.
      lat: '38.375564'
      long: "-87.976605"
    - region: IL
      exchange: '047220'
      name: Brownstown
      short_name: BROWNSTOWN
      lata: '520'
      ilec_name: CITIZENS TELECOM CO ILLINOIS-FRONTIER CITIZENS -IL
      lat: '38.994825'
      long: "-88.949126"
    - region: IL
      exchange: '363293'
      name: Brownsville
      short_name: BROWNSVL
      lata: '978'
      ilec_name: FRONTIER NORTH, INC. - IL
      lat:
      long:
    - region: IL
      exchange: '329508'
      name: Brubaker
      short_name: BRUBAKER
      lata: '520'
      ilec_name: ILLINOIS BELL TEL CO
      lat:
      long:
    - region: IL
      exchange: '321434'
      name: Bruce
      short_name: BRUCE
      lata: '374'
      ilec_name: FRONTIER NORTH, INC. - IL
      lat:
      long:
    - region: IL
      exchange: '047230'
      name: Brussels
      short_name: BRUSSELS
      lata: '520'
      ilec_name: CITIZENS TELECOM CO ILLINOIS-FRONTIER CITIZENS -IL
      lat: '38.949848'
      long: "-90.590876"
    - region: IL
      exchange: '321142'
      name: Bryant
      short_name: BRYANT
      lata: '368'
      ilec_name: ILLINOIS BELL TEL CO
      lat:
      long:
    - region: IL
      exchange: '320112'
      name: Bryce
      short_name: BRYCE
      lata: '358'
      ilec_name: FRONTIER COMMUNICATIONS OF THE CAROLINAS, INC - IL
      lat:
      long:
    - region: IL
      exchange: '321435'
      name: Buckhart
      short_name: BUCKHART
      lata: '374'
      ilec_name: ILLINOIS BELL TEL CO
      lat:
      long:
    - region: IL
      exchange: '320113'
      name: Buckingham
      short_name: BUCKINGHAM
      lata: '358'
      ilec_name: ILLINOIS BELL TEL CO
      lat:
      long:
    - region: IL
      exchange: '047240'
      name: Buckley
      short_name: BUCKLEY
      lata: '370'
      ilec_name: FRONTIER NORTH, INC. - IL
      lat: '40.598105'
      long: "-88.040986"
    - region: IL
      exchange: '320760'
      name: Buckner
      short_name: BUCKNER
      lata: '362'
      ilec_name: FRONTIER NORTH, INC. - IL
      lat:
      long:
    - region: IL
      exchange: '047250'
      name: Buda
      short_name: BUDA
      lata: '368'
      ilec_name: FRONTIER NORTH, INC. - IL
      lat: '41.323126'
      long: "-89.683071"
    - region: IL
      exchange: '321015'
      name: Budd
      short_name: BUDD
      lata: '366'
      ilec_name: C-R TELEPHONE CO.
      lat:
      long:
    - region: IL
      exchange: '320684'
      name: Buena Vista
      short_name: BUENAVISTA
      lata: '360'
      ilec_name: FRONTIER NORTH, INC. - IL
      lat:
      long:
    - region: IL
      exchange: '047260'
      name: Buffalo
      short_name: BUFFALO
      lata: '374'
      ilec_name: ILLINOIS BELL TEL CO
      lat: '39.849966'
      long: "-89.407157"
    - region: IL
      exchange: '320114'
      name: Buffalo Grove
      short_name: BUFFALOGRV
      lata: '358'
      ilec_name: ILLINOIS BELL TEL CO
      lat:
      long:
    - region: IL
      exchange: '321436'
      name: Buffalo Hart
      short_name: BUFFALHART
      lata: '374'
      ilec_name: ILLINOIS BELL TEL CO
      lat:
      long:
    - region: IL
      exchange: '338598'
      name: Buffalo Prairie
      short_name: BUFFALPRRI
      lata: '634'
      ilec_name: CITIZENS TELECOM CO ILLINOIS-FRONTIER CITIZENS -IL
      lat:
      long:
    - region: IL
      exchange: '320115'
      name: Bull Valley
      short_name: BULLVALLEY
      lata: '358'
      ilec_name: ILLINOIS BELL TEL CO
      lat:
      long:
    - region: IL
      exchange: '363049'
      name: Bulpitt
      short_name: BULPITT
      lata: '976'
      ilec_name: ILLINOIS CONSOLIDATED TEL. CO.
      lat:
      long:
    - region: IL
      exchange: '320761'
      name: Buncombe
      short_name: BUNCOMBE
      lata: '362'
      ilec_name: FRONTIER NORTH, INC. - IL
      lat:
      long:
    - region: IL
      exchange: '047270'
      name: Bunker Hill
      short_name: BUNKERHILL
      lata: '520'
      ilec_name: CITIZENS TELECOM CO ILLINOIS-FRONTIER CITIZENS -IL
      lat: '39.042141'
      long: "-89.948233"
    - region: IL
      exchange: '320116'
      name: Burbank
      short_name: BURBANK
      lata: '358'
      ilec_name: ILLINOIS BELL TEL CO
      lat:
      long:
    - region: IL
      exchange: '047280'
      name: Bureau
      short_name: BUREAU
      lata: '368'
      ilec_name: FRONTIER NORTH, INC. - IL
      lat: '41.289397'
      long: "-89.364307"
    - region: IL
      exchange: '338599'
      name: Burgess
      short_name: BURGESS
      lata: '634'
      ilec_name: CITIZENS TELECOM CO ILLINOIS-FRONTIER CITIZENS -IL
      lat:
      long:
    - region: IL
      exchange: '320117'
      name: Burlington
      short_name: BURLINGTON
      lata: '358'
      ilec_name: ILLINOIS BELL TEL CO
      lat:
      long:
    - region: IL
      exchange: '320118'
      name: Burnham
      short_name: BURNHAM
      lata: '358'
      ilec_name: ILLINOIS BELL TEL CO
      lat:
      long:
    - region: IL
      exchange: '363198'
      name: Burnside
      short_name: BURNSIDE
      lata: '977'
      ilec_name: CITIZENS TELECOM CO ILLINOIS-FRONTIER CITIZENS -IL
      lat:
      long:
    - region: IL
      exchange: '047290'
      name: Burnt Prairie
      short_name: BURNTPRARI
      lata: '978'
      ilec_name: FRONTIER NORTH, INC. - IL
      lat: '38.249257'
      long: "-88.264148"
    - region: IL
      exchange: '320119'
      name: Burr Ridge
      short_name: BURR RIDGE
      lata: '358'
      ilec_name: ILLINOIS BELL TEL CO
      lat:
      long:
    - region: IL
      exchange: '047300'
      name: Burton
      short_name: BURTON
      lata: '376'
      ilec_name: ILLINOIS BELL TEL CO
      lat: '39.901972'
      long: "-91.249488"
    - region: IL
      exchange: '321016'
      name: Burton View
      short_name: BURTONVIEW
      lata: '366'
      ilec_name: FRONTIER NORTH, INC. - IL
      lat:
      long:
    - region: IL
      exchange: '320120'
      name: Burtons Bridge
      short_name: BURTONSBDG
      lata: '358'
      ilec_name: ILLINOIS BELL TEL CO
      lat:
      long:
    - region: IL
      exchange: '320762'
      name: Bush
      short_name: BUSH
      lata: '362'
      ilec_name: FRONTIER NORTH, INC. - IL
      lat:
      long:
    - region: IL
      exchange: '047310'
      name: Bushnell
      short_name: BUSHNELL
      lata: '977'
      ilec_name: FRONTIER NORTH, INC. - IL
      lat: '40.556333'
      long: "-90.509521"
    - region: IL
      exchange: '363050'
      name: Bushton
      short_name: BUSHTON
      lata: '976'
      ilec_name: ILLINOIS CONSOLIDATED TEL. CO.
      lat:
      long:
    - region: IL
      exchange: '363051'
      name: Butler
      short_name: BUTLER
      lata: '976'
      ilec_name: ILLINOIS CONSOLIDATED TEL. CO.
      lat:
      long:
    - region: IL
      exchange: '047320'
      name: Byron
      short_name: BYRON
      lata: '360'
      ilec_name: FRONTIER NORTH, INC. - IL
      lat: '42.131456'
      long: "-89.260703"
    - region: IL
      exchange: '047330'
      name: Cabery
      short_name: CABERY
      lata: '366'
      ilec_name: FRONTIER NORTH, INC. - IL
      lat: '40.996729'
      long: "-88.202876"
    - region: IL
      exchange: '338600'
      name: Cable
      short_name: CABLE
      lata: '634'
      ilec_name: CITIZENS TELECOM CO ILLINOIS-FRONTIER CITIZENS -IL
      lat:
      long:
    - region: IL
      exchange: '320763'
      name: Cache
      short_name: CACHE
      lata: '362'
      ilec_name: ILLINOIS BELL TEL CO
      lat:
      long:
    - region: IL
      exchange: '363052'
      name: Cadwell
      short_name: CADWELL
      lata: '976'
      ilec_name: ILLINOIS CONSOLIDATED TEL. CO.
      lat:
      long:
    - region: IL
      exchange: '048771'
      name: Cahokia
      short_name: CAHOKIA
      lata: '520'
      ilec_name: ILLINOIS BELL TEL CO
      lat:
      long:
    - region: IL
      exchange: '047340'
      name: Cairo
      short_name: CAIRO
      lata: '362'
      ilec_name: ILLINOIS BELL TEL CO
      lat: '37.012606'
      long: "-89.17582"
    - region: IL
      exchange: '320686'
      name: Caledonia
      short_name: CALEDONIA
      lata: '360'
      ilec_name: FRONTIER NORTH, INC. - IL
      lat:
      long:
    - region: IL
      exchange: '047350'
      name: Calhoun
      short_name: CALHOUN
      lata: '978'
      ilec_name: FRONTIER NORTH, INC. - IL
      lat: '38.655343'
      long: "-88.048169"
    - region: IL
      exchange: '047360'
      name: Calumet City
      short_name: CALUMET CY
      lata: '358'
      ilec_name: ILLINOIS BELL TEL CO
      lat: '41.617371'
      long: "-87.532906"
    - region: IL
      exchange: '320122'
      name: Calumet Park
      short_name: CALUMET PK
      lata: '358'
      ilec_name: ILLINOIS BELL TEL CO
      lat:
      long:
    - region: IL
      exchange: '321308'
      name: Camargo
      short_name: CAMARGO
      lata: '370'
      ilec_name: FRONTIER NORTH, INC. - IL
      lat:
      long:
    - region: IL
      exchange: '320765'
      name: Cambria
      short_name: CAMBRIA
      lata: '362'
      ilec_name: FRONTIER NORTH, INC. - IL
      lat:
      long:
    - region: IL
      exchange: '047370'
      name: Cambridge
      short_name: CAMBRIDGE
      lata: '634'
      ilec_name: CAMBRIDGE TEL. CO.
      lat: '41.307963'
      long: "-90.190363"
    - region: IL
      exchange: '321558'
      name: Camden
      short_name: CAMDEN
      lata: '376'
      ilec_name: FRONTIER COMMUNICATIONS-SCHUYLER, INC. - IL
      lat:
      long:
    - region: IL
      exchange: '047380'
      name: Cameron
      short_name: CAMERON
      lata: '977'
      ilec_name: GALLATIN RIVER COMMUNICATIONS DBA CENTURYLINK
      lat: '40.888963'
      long: "-90.517384"
    - region: IL
      exchange: '047390'
      name: Camp Point
      short_name: CAMP POINT
      lata: '376'
      ilec_name: FRONTIER NORTH, INC. - IL
      lat: '40.044836'
      long: "-91.067538"
    - region: IL
      exchange: '320766'
      name: Campbell Hill
      short_name: CAMPBELLHL
      lata: '362'
      ilec_name: FRONTIER NORTH, INC. - IL
      lat:
      long:
    - region: IL
      exchange: '047400'
      name: Campgrove
      short_name: CAMPGROVE
      lata: '368'
      ilec_name: FRONTIER NORTH, INC. - IL
      lat: '41.077301'
      long: "-89.635566"
    - region: IL
      exchange: '320123'
      name: Campton Hills
      short_name: CAMPTON HL
      lata: '358'
      ilec_name: ILLINOIS BELL TEL CO
      lat:
      long:
    - region: IL
      exchange: '047410'
      name: Campus
      short_name: CAMPUS
      lata: '366'
      ilec_name: FRONTIER NORTH, INC. - IL
      lat: '41.022861'
      long: "-88.308066"
    - region: IL
      exchange: '047420'
      name: Canton
      short_name: CANTON
      lata: '368'
      ilec_name: ILLINOIS BELL TEL CO
      lat: '40.560603'
      long: "-90.029571"
    - region: IL
      exchange: '047430'
      name: Cantrall
      short_name: CANTRALL
      lata: '374'
      ilec_name: ILLINOIS BELL TEL CO
      lat: '39.935039'
      long: "-89.679031"
    - region: IL
      exchange: '047440'
      name: Capron
      short_name: CAPRON
      lata: '360'
      ilec_name: FRONTIER NORTH, INC. - IL
      lat: '42.400343'
      long: "-88.741064"
    - region: IL
      exchange: '338602'
      name: Carbon Cliff
      short_name: CARBON CLF
      lata: '634'
      ilec_name: ILLINOIS BELL TEL CO
      lat:
      long:
    - region: IL
      exchange: '320124'
      name: Carbon Hill
      short_name: CARBONHILL
      lata: '358'
      ilec_name: ILLINOIS BELL TEL CO
      lat:
      long:
    - region: IL
      exchange: '047450'
      name: Carbondale
      short_name: CARBONDALE
      lata: '362'
      ilec_name: FRONTIER NORTH, INC. - IL
      lat: '37.729765'
      long: "-89.220104"
    - region: IL
      exchange: '047460'
      name: Carlinville
      short_name: CARLINVL
      lata: '976'
      ilec_name: CITIZENS TELECOM CO ILLINOIS-FRONTIER CITIZENS -IL
      lat: '39.28015'
      long: "-89.882279"
    - region: IL
      exchange: '047470'
      name: Carlock
      short_name: CARLOCK
      lata: '366'
      ilec_name: FRONTIER NORTH, INC. - IL
      lat: '40.577988'
      long: "-89.13409"
    - region: IL
      exchange: '047480'
      name: Carlyle
      short_name: CARLYLE
      lata: '520'
      ilec_name: ILLINOIS BELL TEL CO
      lat: '38.612417'
      long: "-89.368102"
    - region: IL
      exchange: '363201'
      name: Carman
      short_name: CARMAN
      lata: '977'
      ilec_name: CITIZENS TELECOM CO ILLINOIS-FRONTIER CITIZENS -IL
      lat:
      long:
    - region: IL
      exchange: '047490'
      name: Carmi
      short_name: CARMI
      lata: '978'
      ilec_name: FRONTIER NORTH, INC. - IL
      lat: '38.095254'
      long: "-88.16842"
    - region: IL
      exchange: '320125'
      name: Carol Stream
      short_name: CAROL STRM
      lata: '358'
      ilec_name: ILLINOIS BELL TEL CO
      lat:
      long:
    - region: IL
      exchange: '329513'
      name: Carpenter
      short_name: CARPENTER
      lata: '520'
      ilec_name: ILLINOIS BELL TEL CO
      lat:
      long:
    - region: IL
      exchange: '320126'
      name: Carpentersville
      short_name: CARPETRSVL
      lata: '358'
      ilec_name: ILLINOIS BELL TEL CO
      lat:
      long:
    - region: IL
      exchange: '047500'
      name: Carriers Mills
      short_name: CARRIERSML
      lata: '362'
      ilec_name: FRONTIER NORTH, INC. - IL
      lat: '37.691157'
      long: "-88.627562"
    - region: IL
      exchange: '047510'
      name: Carrollton
      short_name: CARROLLTON
      lata: '376'
      ilec_name: FRONTIER NORTH, INC. - IL
      lat: '39.30047'
      long: "-90.403919"
    - region: IL
      exchange: '047520'
      name: Carterville
      short_name: CARTERVL
      lata: '362'
      ilec_name: FRONTIER NORTH, INC. - IL
      lat: '37.766408'
      long: "-89.079924"
    - region: IL
      exchange: '047530'
      name: Carthage
      short_name: CARTHAGE
      lata: '977'
      ilec_name: CITIZENS TELECOM CO ILLINOIS-FRONTIER CITIZENS -IL
      lat: '40.414045'
      long: "-91.135394"
    - region: IL
      exchange: '363203'
      name: Carthage Lake
      short_name: CARTHAGELK
      lata: '977'
      ilec_name: CITIZENS TELECOM CO ILLINOIS-FRONTIER CITIZENS -IL
      lat:
      long:
    - region: IL
      exchange: '329514'
      name: Cartter
      short_name: CARTTER
      lata: '520'
      ilec_name: ILLINOIS BELL TEL CO
      lat:
      long:
    - region: IL
      exchange: '047540'
      name: Cary
      short_name: CARY
      lata: '358'
      ilec_name: ILLINOIS BELL TEL CO
      lat: '42.213084'
      long: "-88.244658"
    - region: IL
      exchange: '321439'
      name: Cascade
      short_name: CASCADE
      lata: '374'
      ilec_name: ILLINOIS BELL TEL CO
      lat:
      long:
    - region: IL
      exchange: '047550'
      name: Casey
      short_name: CASEY
      lata: '976'
      ilec_name: FRONTIER COMMUNICATIONS OF THE CAROLINAS, INC - IL
      lat: '39.300902'
      long: "-87.994542"
    - region: IL
      exchange: '329515'
      name: Caseyville
      short_name: CASEYVILLE
      lata: '520'
      ilec_name: ILLINOIS BELL TEL CO
      lat:
      long:
    - region: IL
      exchange: '047560'
      name: Castleton
      short_name: CASTLETON
      lata: '368'
      ilec_name: FRONTIER NORTH, INC. - IL
      lat: '41.120732'
      long: "-89.708711"
    - region: IL
      exchange: '047570'
      name: Catlin
      short_name: CATLIN
      lata: '370'
      ilec_name: ILLINOIS BELL TEL CO
      lat: '40.066371'
      long: "-87.708032"
    - region: IL
      exchange: '047580'
      name: Cave In Rock
      short_name: CAVEINROCK
      lata: '362'
      ilec_name: SHAWNEE TEL. CO.
      lat: '37.469438'
      long: "-88.166223"
    - region: IL
      exchange: '321020'
      name: Cayuga
      short_name: CAYUGA
      lata: '366'
      ilec_name: FRONTIER NORTH, INC. - IL
      lat:
      long:
    - region: IL
      exchange: '321148'
      name: Cazenovia
      short_name: CAZENOVIA
      lata: '368'
      ilec_name: FRONTIER NORTH, INC. - IL
      lat:
      long:
    - region: IL
      exchange: '047590'
      name: Cedar Point
      short_name: CEDARPOINT
      lata: '358'
      ilec_name: FRONTIER NORTH, INC. - IL
      lat: '41.261497'
      long: "-89.130247"
    - region: IL
      exchange: '047600'
      name: Cedarville
      short_name: CEDARVILLE
      lata: '360'
      ilec_name: FRONTIER NORTH, INC. - IL
      lat: '42.37422'
      long: "-89.628751"
    - region: IL
      exchange: '363297'
      name: Centerville
      short_name: CENTERVL
      lata: '978'
      ilec_name: FRONTIER NORTH, INC. - IL
      lat:
      long:
    - region: IL
      exchange: '320129'
      name: Central
      short_name: CENTRAL
      lata: '358'
      ilec_name: ILLINOIS BELL TEL CO
      lat:
      long:
    - region: IL
      exchange: '329516'
      name: Central City
      short_name: CENTRAL CY
      lata: '520'
      ilec_name: ILLINOIS BELL TEL CO
      lat:
      long:
    - region: IL
      exchange: '047610'
      name: Centralia
      short_name: CENTRALIA
      lata: '520'
      ilec_name: ILLINOIS BELL TEL CO
      lat: '38.533104'
      long: "-89.130265"
    - region: IL
      exchange: '329518'
      name: Centreville
      short_name: CENTREVL
      lata: '520'
      ilec_name: ILLINOIS BELL TEL CO
      lat:
      long:
    - region: IL
      exchange: '047620'
      name: Cerro Gordo
      short_name: CERROGORDO
      lata: '374'
      ilec_name: FRONTIER NORTH, INC. - IL
      lat: '39.887627'
      long: "-88.739336"
    - region: IL
      exchange: '047630'
      name: Chadwick
      short_name: CHADWICK
      lata: '364'
      ilec_name: CITIZENS TELECOM CO ILLINOIS-FRONTIER CITIZENS -IL
      lat: '42.017085'
      long: "-89.890801"
    - region: IL
      exchange: '320130'
      name: Chain O'Lakes
      short_name: CHAINO LKS
      lata: '358'
      ilec_name: ILLINOIS BELL TEL CO
      lat:
      long:
    - region: IL
      exchange: '047640'
      name: Chambersburg
      short_name: CHAMBERSBG
      lata: '376'
      ilec_name: ADAMS TEL. COOP.
      lat: '39.815347'
      long: "-90.661011"
    - region: IL
      exchange: '321310'
      name: Champaign
      short_name: CHAMPAIGN
      lata: '370'
      ilec_name: ILLINOIS BELL TEL CO
      lat:
      long:
    - region: IL
      exchange: '047650'
      name: Champaign-Urbana
      short_name: CHAMPAURBN
      lata: '370'
      ilec_name: ILLINOIS BELL TEL CO
      lat: '40.117839'
      long: "-88.247626"
    - region: IL
      exchange: '320910'
      name: Chana
      short_name: CHANA
      lata: '364'
      ilec_name: FRONTIER NORTH, INC. - IL
      lat:
      long:
    - region: IL
      exchange: '047660'
      name: Chandlerville
      short_name: CHANDLERVL
      lata: '374'
      ilec_name: CASS TELEPHONE COMPANY
      lat: '40.054032'
      long: "-90.149626"
    - region: IL
      exchange: '320131'
      name: Channahon
      short_name: CHANNAHON
      lata: '358'
      ilec_name: ILLINOIS BELL TEL CO
      lat:
      long:
    - region: IL
      exchange: '320132'
      name: Channel Lake
      short_name: CHANNEL LK
      lata: '358'
      ilec_name: ILLINOIS BELL TEL CO
      lat:
      long:
    - region: IL
      exchange: '047670'
      name: Chapin
      short_name: CHAPIN
      lata: '376'
      ilec_name: FRONTIER NORTH, INC. - IL
      lat: '39.753153'
      long: "-90.401858"
    - region: IL
      exchange: '320133'
      name: Chappell
      short_name: CHAPPELL
      lata: '358'
      ilec_name: ILLINOIS BELL TEL CO
      lat:
      long:
    - region: IL
      exchange: '047680'
      name: Charleston
      short_name: CHARLESTON
      lata: '976'
      ilec_name: ILLINOIS CONSOLIDATED TEL. CO.
      lat: '39.493328'
      long: "-88.172524"
    - region: IL
      exchange: '321021'
      name: Charlotte
      short_name: CHARLOTTE
      lata: '366'
      ilec_name: FRONTIER COMMUNICATIONS OF ILLINOIS, INC.
      lat:
      long:
    - region: IL
      exchange: '047690'
      name: Chatham
      short_name: CHATHAM
      lata: '374'
      ilec_name: FRONTIER NORTH, INC. - IL
      lat: '39.674739'
      long: "-89.701265"
    - region: IL
      exchange: '047700'
      name: Chatsworth
      short_name: CHATSWORTH
      lata: '366'
      ilec_name: FRONTIER NORTH, INC. - IL
      lat: '40.754402'
      long: "-88.301469"
    - region: IL
      exchange: '321563'
      name: Chatton
      short_name: CHATTON
      lata: '376'
      ilec_name: ADAMS TEL. COOP.
      lat:
      long:
    - region: IL
      exchange: '047710'
      name: Chauncey
      short_name: CHAUNCEY
      lata: '978'
      ilec_name: FRONTIER NORTH, INC. - IL
      lat: '38.836353'
      long: "-87.867411"
    - region: IL
      exchange: '329519'
      name: Chautauqua
      short_name: CHAUTAUQUA
      lata: '520'
      ilec_name: ILLINOIS BELL TEL CO
      lat:
      long:
    - region: IL
      exchange: '047720'
      name: Chebanse
      short_name: CHEBANSE
      lata: '358'
      ilec_name: FRONTIER NORTH, INC. - IL
      lat: '41.004817'
      long: "-87.909416"
    - region: IL
      exchange: '320135'
      name: Chemung
      short_name: CHEMUNG
      lata: '358'
      ilec_name: ILLINOIS BELL TEL CO
      lat:
      long:
    - region: IL
      exchange: '047730'
      name: Cheneyville
      short_name: CHENEYVL
      lata: '370'
      ilec_name: FRONTIER COMMUNICATIONS OF THE CAROLINAS, INC - IL
      lat: '40.466716'
      long: "-87.586889"
    - region: IL
      exchange: '047740'
      name: Chenoa
      short_name: CHENOA
      lata: '366'
      ilec_name: FRONTIER NORTH, INC. - IL
      lat: '40.740332'
      long: "-88.726378"
    - region: IL
      exchange: '321149'
      name: Cherry
      short_name: CHERRY
      lata: '368'
      ilec_name: FRONTIER NORTH, INC. - IL
      lat:
      long:
    - region: IL
      exchange: '047750'
      name: Cherry Valley
      short_name: CHERRY VLY
      lata: '360'
      ilec_name: FRONTIER NORTH, INC. - IL
      lat: '42.236948'
      long: "-88.952178"
    - region: IL
      exchange: '047760'
      name: Chester
      short_name: CHESTER
      lata: '362'
      ilec_name: FRONTIER NORTH, INC. - IL
      lat: '37.916139'
      long: "-89.828999"
    - region: IL
      exchange: '329521'
      name: Chesterfield
      short_name: CHESTERFLD
      lata: '520'
      ilec_name: CITIZENS TELECOM CO ILLINOIS-FRONTIER CITIZENS -IL
      lat:
      long:
    - region: IL
      exchange: '047770'
      name: Chesterfield-Rockbridge
      short_name: CHESTERBDG
      lata: '520'
      ilec_name: CITIZENS TELECOM CO ILLINOIS-FRONTIER CITIZENS -IL
      lat: '39.25251'
      long: "-90.064916"
    - region: IL
      exchange: '321443'
      name: Chestervale
      short_name: CHESTERVAL
      lata: '374'
      ilec_name: FRONTIER COMMUNICATIONS OF MT. PULASKI, INC.
      lat:
      long:
    - region: IL
      exchange: '363056'
      name: Chesterville
      short_name: CHESTERVL
      lata: '976'
      ilec_name: ILLINOIS CONSOLIDATED TEL. CO.
      lat:
      long:
    - region: IL
      exchange: '047780'
      name: Chestnut
      short_name: CHESTNUT
      lata: '374'
      ilec_name: FRONTIER COMMUNICATIONS OF MT. PULASKI, INC.
      lat: '40.057783'
      long: "-89.183365"
    - region: IL
      exchange: '320136'
      name: Chicago
      short_name: CHICAGO
      lata: '358'
      ilec_name: ILLINOIS BELL TEL CO
      lat:
      long:
    - region: IL
      exchange: '047790'
      name: Chicago Heights
      short_name: CHICAGOHTS
      lata: '358'
      ilec_name: ILLINOIS BELL TEL CO
      lat: '41.505751'
      long: "-87.633046"
    - region: IL
      exchange: '047791'
      name: Chicago Heights East
      short_name: CHICGOHTSE
      lata: '358'
      ilec_name: ILLINOIS BELL TEL CO
      lat: '41.505751'
      long: "-87.633046"
    - region: IL
      exchange: '320138'
      name: Chicago Ridge
      short_name: CHICAGORDG
      lata: '358'
      ilec_name: ILLINOIS BELL TEL CO
      lat:
      long:
    - region: IL
      exchange: '047801'
      name: Chicago Zone 01-Calumet
      short_name: CHICGOZN01
      lata: '358'
      ilec_name: ILLINOIS BELL TEL CO
      lat: '41.883465'
      long: "-87.635162"
    - region: IL
      exchange: '047802'
      name: Chicago Zone 01-Canal
      short_name: CHICAGO-CA
      lata: '358'
      ilec_name: ILLINOIS BELL TEL CO
      lat: '41.883465'
      long: "-87.635162"
    - region: IL
      exchange: '047803'
      name: Chicago Zone 01-Franklin
      short_name: CHICAGO-FR
      lata: '358'
      ilec_name: ILLINOIS BELL TEL CO
      lat: '41.883465'
      long: "-87.635162"
    - region: IL
      exchange: '047804'
      name: Chicago Zone 01-Illinois Dearborn
      short_name: CHICAGO-IL
      lata: '358'
      ilec_name: ILLINOIS BELL TEL CO
      lat: '41.883465'
      long: "-87.635162"
    - region: IL
      exchange: '047805'
      name: Chicago Zone 01-Lakeshore
      short_name: CHICAGO-LS
      lata: '358'
      ilec_name: ILLINOIS BELL TEL CO
      lat: '41.883465'
      long: "-87.635162"
    - region: IL
      exchange: '047808'
      name: Chicago Zone 01-Monroe
      short_name: CHICAGO-MO
      lata: '358'
      ilec_name: ILLINOIS BELL TEL CO
      lat: '41.883465'
      long: "-87.635162"
    - region: IL
      exchange: '047806'
      name: Chicago Zone 01-Superior
      short_name: CHICAGO-SU
      lata: '358'
      ilec_name: ILLINOIS BELL TEL CO
      lat: '41.883465'
      long: "-87.635162"
    - region: IL
      exchange: '047807'
      name: Chicago Zone 01-Wabash
      short_name: CHICAGO-WA
      lata: '358'
      ilec_name: ILLINOIS BELL TEL CO
      lat: '41.883465'
      long: "-87.635162"
    - region: IL
      exchange: '047811'
      name: Chicago Zone 02-Edgewater
      short_name: CHICGOZN02
      lata: '358'
      ilec_name: ILLINOIS BELL TEL CO
      lat: '41.883465'
      long: "-87.635162"
    - region: IL
      exchange: '047812'
      name: Chicago Zone 02-Irving
      short_name: CHICAGO-IR
      lata: '358'
      ilec_name: ILLINOIS BELL TEL CO
      lat: '41.883465'
      long: "-87.635162"
    - region: IL
      exchange: '047813'
      name: Chicago Zone 02-Rogers Park
      short_name: CHICAGO-RO
      lata: '358'
      ilec_name: ILLINOIS BELL TEL CO
      lat: '41.883465'
      long: "-87.635162"
    - region: IL
      exchange: '047821'
      name: Chicago Zone 03-Kildare
      short_name: CHICGOZN03
      lata: '358'
      ilec_name: ILLINOIS BELL TEL CO
      lat: '41.883465'
      long: "-87.635162"
    - region: IL
      exchange: '047822'
      name: Chicago Zone 03-Newcastle
      short_name: CHICAGO-NE
      lata: '358'
      ilec_name: ILLINOIS BELL TEL CO
      lat: '41.883465'
      long: "-87.635162"
    - region: IL
      exchange: '047831'
      name: Chicago Zone 04-Humboldt
      short_name: CHICGOZN04
      lata: '358'
      ilec_name: ILLINOIS BELL TEL CO
      lat: '41.883465'
      long: "-87.635162"
    - region: IL
      exchange: '047832'
      name: Chicago Zone 04-Lakeview
      short_name: CHICAGO-LV
      lata: '358'
      ilec_name: ILLINOIS BELL TEL CO
      lat: '41.883465'
      long: "-87.635162"
    - region: IL
      exchange: '047841'
      name: Chicago Zone 05-Austin
      short_name: CHICGOZN05
      lata: '358'
      ilec_name: ILLINOIS BELL TEL CO
      lat: '41.883465'
      long: "-87.635162"
    - region: IL
      exchange: '047842'
      name: Chicago Zone 05-Merrimac
      short_name: CHICAGO-ME
      lata: '358'
      ilec_name: ILLINOIS BELL TEL CO
      lat: '41.883465'
      long: "-87.635162"
    - region: IL
      exchange: '047851'
      name: Chicago Zone 06-Kedzie
      short_name: CHICGOZN06
      lata: '358'
      ilec_name: ILLINOIS BELL TEL CO
      lat: '41.883465'
      long: "-87.635162"
    - region: IL
      exchange: '047852'
      name: Chicago Zone 06-Lafayette
      short_name: CHICAGO-LF
      lata: '358'
      ilec_name: ILLINOIS BELL TEL CO
      lat: '41.883465'
      long: "-87.635162"
    - region: IL
      exchange: '047853'
      name: Chicago Zone 06-Lawndale
      short_name: CHICAGO-LD
      lata: '358'
      ilec_name: ILLINOIS BELL TEL CO
      lat: '41.883465'
      long: "-87.635162"
    - region: IL
      exchange: '047863'
      name: Chicago Zone 07-Hyde Park
      short_name: CHICAGO-HY
      lata: '358'
      ilec_name: ILLINOIS BELL TEL CO
      lat: '41.883465'
      long: "-87.635162"
    - region: IL
      exchange: '047862'
      name: Chicago Zone 07-Oakland
      short_name: CHICAGO-OA
      lata: '358'
      ilec_name: ILLINOIS BELL TEL CO
      lat: '41.883465'
      long: "-87.635162"
    - region: IL
      exchange: '047861'
      name: Chicago Zone 07-Stewart
      short_name: CHICGOZN07
      lata: '358'
      ilec_name: ILLINOIS BELL TEL CO
      lat: '41.883465'
      long: "-87.635162"
    - region: IL
      exchange: '047871'
      name: Chicago Zone 08-Portsmouth
      short_name: CHICGOZN08
      lata: '358'
      ilec_name: ILLINOIS BELL TEL CO
      lat: '41.883465'
      long: "-87.635162"
    - region: IL
      exchange: '047872'
      name: Chicago Zone 08-Prospect
      short_name: CHICAGO-PR
      lata: '358'
      ilec_name: ILLINOIS BELL TEL CO
      lat: '41.883465'
      long: "-87.635162"
    - region: IL
      exchange: '047882'
      name: Chicago Zone 09-Mitchell
      short_name: CHICAGO-MI
      lata: '358'
      ilec_name: ILLINOIS BELL TEL CO
      lat: '41.883465'
      long: "-87.635162"
    - region: IL
      exchange: '047881'
      name: Chicago Zone 09-South Chicago
      short_name: CHICGOZN09
      lata: '358'
      ilec_name: ILLINOIS BELL TEL CO
      lat: '41.883465'
      long: "-87.635162"
    - region: IL
      exchange: '047891'
      name: Chicago Zone 10-Beverly
      short_name: CHICGOZN10
      lata: '358'
      ilec_name: ILLINOIS BELL TEL CO
      lat: '41.883465'
      long: "-87.635162"
    - region: IL
      exchange: '047892'
      name: Chicago Zone 10-Pullman
      short_name: CHICAGO-PU
      lata: '358'
      ilec_name: ILLINOIS BELL TEL CO
      lat: '41.883465'
      long: "-87.635162"
    - region: IL
      exchange: '047900'
      name: Chicago Zone 11-O'Hare
      short_name: CHICGOZN11
      lata: '358'
      ilec_name: ILLINOIS BELL TEL CO
      lat: '41.883465'
      long: "-87.635162"
    - region: IL
      exchange: '047910'
      name: Chillicothe
      short_name: CHILLICOTH
      lata: '368'
      ilec_name: FRONTIER NORTH, INC. - IL
      lat: '40.918022'
      long: "-89.49015"
    - region: IL
      exchange: '047920'
      name: Chrisman
      short_name: CHRISMAN
      lata: '938'
      ilec_name: FRONTIER NORTH, INC. - IL
      lat: '39.805622'
      long: "-87.671159"
    - region: IL
      exchange: '047930'
      name: Christopher
      short_name: CHRISTOPHR
      lata: '362'
      ilec_name: FRONTIER NORTH, INC. - IL
      lat: '37.974971'
      long: "-89.057261"
    - region: IL
      exchange: '047940'
      name: Cicero
      short_name: CICERO
      lata: '358'
      ilec_name: ILLINOIS BELL TEL CO
      lat: '41.846358'
      long: "-87.752107"
    - region: IL
      exchange: '321445'
      name: Cimic
      short_name: CIMIC
      lata: '374'
      ilec_name: FRONTIER NORTH, INC. - IL
      lat:
      long:
    - region: IL
      exchange: '047950'
      name: Cisco
      short_name: CISCO
      lata: '374'
      ilec_name: FRONTIER NORTH, INC. - IL
      lat: '40.013509'
      long: "-88.7291"
    - region: IL
      exchange: '047960'
      name: Cisne
      short_name: CISNE
      lata: '978'
      ilec_name: WABASH TEL. COOP., INC.
      lat: '38.515483'
      long: "-88.431315"
    - region: IL
      exchange: '047970'
      name: Cissna Park
      short_name: CISSNAPARK
      lata: '358'
      ilec_name: FRONTIER COMMUNICATIONS OF THE CAROLINAS, INC - IL
      lat: '40.567036'
      long: "-87.898925"
    - region: IL
      exchange: '320911'
      name: Clare
      short_name: CLARE
      lata: '364'
      ilec_name: FRONTIER NORTH, INC. - IL
      lat:
      long:
    - region: IL
      exchange: '047980'
      name: Claremont
      short_name: CLAREMONT
      lata: '978'
      ilec_name: FRONTIER NORTH, INC. - IL
      lat: '38.722364'
      long: "-87.970338"
    - region: IL
      exchange: '321313'
      name: Clarence
      short_name: CLARENCE
      lata: '370'
      ilec_name: FRONTIER NORTH, INC. - IL
      lat:
      long:
    - region: IL
      exchange: '320152'
      name: Clarendon Hills
      short_name: CLAREDNHLS
      lata: '358'
      ilec_name: ILLINOIS BELL TEL CO
      lat:
      long:
    - region: IL
      exchange: '363057'
      name: Clarksburg
      short_name: CLARKSBURG
      lata: '976'
      ilec_name: ILLINOIS CONSOLIDATED TEL. CO.
      lat:
      long:
    - region: IL
      exchange: '363058'
      name: Clarksdale
      short_name: CLARKSDALE
      lata: '976'
      ilec_name: ILLINOIS CONSOLIDATED TEL. CO.
      lat:
      long:
    - region: IL
      exchange: '047990'
      name: Clarksville
      short_name: CLARKSVL
      lata: '938'
      ilec_name: CLARKSVILLE MUTUAL TEL. CO.
      lat: '39.448504'
      long: "-87.794155"
    - region: IL
      exchange: '048000'
      name: Clay City
      short_name: CLAY CITY
      lata: '978'
      ilec_name: FRONTIER NORTH, INC. - IL
      lat: '38.688148'
      long: "-88.357104"
    - region: IL
      exchange: '048010'
      name: Clayton
      short_name: CLAYTON
      lata: '376'
      ilec_name: FRONTIER NORTH, INC. - IL
      lat: '40.0337'
      long: "-90.95497"
    - region: IL
      exchange: '320153'
      name: Claytonville
      short_name: CLAYTONVL
      lata: '358'
      ilec_name: FRONTIER COMMUNICATIONS OF THE CAROLINAS, INC - IL
      lat:
      long:
    - region: IL
      exchange: '321447'
      name: Clear Lake
      short_name: CLEAR LAKE
      lata: '374'
      ilec_name: ILLINOIS BELL TEL CO
      lat:
      long:
    - region: IL
      exchange: '320154'
      name: Clearing
      short_name: CLEARING
      lata: '358'
      ilec_name: ILLINOIS BELL TEL CO
      lat:
      long:
    - region: IL
      exchange: '321565'
      name: Clements
      short_name: CLEMENTS
      lata: '376'
      ilec_name: FRONTIER NORTH, INC. - IL
      lat:
      long:
    - region: IL
      exchange: '338603'
      name: Cleveland
      short_name: CLEVELAND
      lata: '634'
      ilec_name: GENESEO TEL. CO.
      lat:
      long:
    - region: IL
      exchange: '329522'
      name: Cliffdale
      short_name: CLIFFDALE
      lata: '520'
      ilec_name: CITIZENS TELECOM CO ILLINOIS-FRONTIER CITIZENS -IL
      lat:
      long:
    - region: IL
      exchange: '048020'
      name: Clifton
      short_name: CLIFTON
      lata: '358'
      ilec_name: FRONTIER NORTH, INC. - IL
      lat: '40.93497'
      long: "-87.930639"
    - region: IL
      exchange: '048030'
      name: Clinton
      short_name: CLINTON
      lata: '366'
      ilec_name: FRONTIER NORTH, INC. - IL
      lat: '40.159765'
      long: "-88.954342"
    - region: IL
      exchange: '320156'
      name: Clintonville
      short_name: CLINTONVL
      lata: '358'
      ilec_name: ILLINOIS BELL TEL CO
      lat:
      long:
    - region: IL
      exchange: '320157'
      name: Cloverdale
      short_name: CLOVERDALE
      lata: '358'
      ilec_name: ILLINOIS BELL TEL CO
      lat:
      long:
    - region: IL
      exchange: '320158'
      name: Clyde
      short_name: CLYDE
      lata: '358'
      ilec_name: ILLINOIS BELL TEL CO
      lat:
      long:
    - region: IL
      exchange: '048040'
      name: Coal City
      short_name: COAL CITY
      lata: '358'
      ilec_name: ILLINOIS BELL TEL CO
      lat: '41.284741'
      long: "-88.284771"
    - region: IL
      exchange: '052061'
      name: Coal Valley
      short_name: COALVALLEY
      lata: '634'
      ilec_name: ILLINOIS BELL TEL CO
      lat:
      long:
    - region: IL
      exchange: '363059'
      name: Coalton
      short_name: COALTON
      lata: '976'
      ilec_name: ILLINOIS CONSOLIDATED TEL. CO.
      lat:
      long:
    - region: IL
      exchange: '048050'
      name: Coatsburg
      short_name: COATSBURG
      lata: '376'
      ilec_name: ADAMS TEL. COOP.
      lat: '40.033364'
      long: "-91.161007"
    - region: IL
      exchange: '048060'
      name: Cobden
      short_name: COBDEN
      lata: '362'
      ilec_name: FRONTIER NORTH, INC. - IL
      lat: '37.535637'
      long: "-89.252392"
    - region: IL
      exchange: '320774'
      name: Coello
      short_name: COELLO
      lata: '362'
      ilec_name: FRONTIER NORTH, INC. - IL
      lat:
      long:
    - region: IL
      exchange: '048070'
      name: Coffeen
      short_name: COFFEEN
      lata: '976'
      ilec_name: CITIZENS TELECOM CO ILLINOIS-FRONTIER CITIZENS -IL
      lat: '39.089685'
      long: "-89.396642"
    - region: IL
      exchange: '048080'
      name: Colchester
      short_name: COLCHESTER
      lata: '977'
      ilec_name: MCDONOUGH TEL. COOP.
      lat: '40.425953'
      long: "-90.7938"
    - region: IL
      exchange: '320161'
      name: Coleman
      short_name: COLEMAN
      lata: '358'
      ilec_name: ILLINOIS BELL TEL CO
      lat:
      long:
    - region: IL
      exchange: '363061'
      name: Coles
      short_name: COLES
      lata: '976'
      ilec_name: ILLINOIS CONSOLIDATED TEL. CO.
      lat:
      long:
    - region: IL
      exchange: '048090'
      name: Coleta
      short_name: COLETA
      lata: '364'
      ilec_name: CITIZENS TELECOM CO ILLINOIS-FRONTIER CITIZENS -IL
      lat: '41.90559'
      long: "-89.800406"
    - region: IL
      exchange: '048100'
      name: Colfax
      short_name: COLFAX
      lata: '366'
      ilec_name: FRONTIER NORTH, INC. - IL
      lat: '40.56598'
      long: "-88.627218"
    - region: IL
      exchange: '048110'
      name: Collinsville
      short_name: COLLINSVL
      lata: '520'
      ilec_name: ILLINOIS BELL TEL CO
      lat: '38.678353'
      long: "-89.981761"
    - region: IL
      exchange: '048120'
      name: Collison
      short_name: COLLISON
      lata: '370'
      ilec_name: FRONTIER COMMUNICATIONS OF THE CAROLINAS, INC - IL
      lat: '40.227008'
      long: "-87.807393"
    - region: IL
      exchange: '363205'
      name: Colmar
      short_name: COLMAR
      lata: '977'
      ilec_name: CITIZENS TELECOM CO ILLINOIS-FRONTIER CITIZENS -IL
      lat:
      long:
    - region: IL
      exchange: '338605'
      name: Colona
      short_name: COLONA
      lata: '634'
      ilec_name: ILLINOIS BELL TEL CO
      lat:
      long:
    - region: IL
      exchange: '320775'
      name: Colp
      short_name: COLP
      lata: '362'
      ilec_name: FRONTIER NORTH, INC. - IL
      lat:
      long:
    - region: IL
      exchange: '048130'
      name: Columbia
      short_name: COLUMBIA
      lata: '520'
      ilec_name: HARRISONVILLE TEL. CO.
      lat: '38.441832'
      long: "-90.208725"
    - region: IL
      exchange: '048140'
      name: Columbus
      short_name: COLUMBUS
      lata: '376'
      ilec_name: ILLINOIS BELL TEL CO
      lat: '39.992194'
      long: "-91.146908"
    - region: IL
      exchange: '048150'
      name: Colusa
      short_name: COLUSA
      lata: '977'
      ilec_name: MCDONOUGH TEL. COOP.
      lat: '40.56655'
      long: "-91.17303"
    - region: IL
      exchange: '363062'
      name: Comer
      short_name: COMER
      lata: '976'
      ilec_name: CITIZENS TELECOM CO ILLINOIS-FRONTIER CITIZENS -IL
      lat:
      long:
    - region: IL
      exchange: '320913'
      name: Como
      short_name: COMO
      lata: '364'
      ilec_name: ILLINOIS BELL TEL CO
      lat:
      long:
    - region: IL
      exchange: '048160'
      name: Compton
      short_name: COMPTON
      lata: '368'
      ilec_name: FRONTIER NORTH, INC. - IL
      lat: '41.696934'
      long: "-89.0882"
    - region: IL
      exchange: '048170'
      name: Concord
      short_name: CONCORD
      lata: '376'
      ilec_name: FRONTIER COMMUNICATIONS-MIDLAND, INC.
      lat: '39.819455'
      long: "-90.372974"
    - region: IL
      exchange: '048180'
      name: Congerville
      short_name: CONGERVL
      lata: '368'
      ilec_name: FRONTIER COMMUNICATIONS OF THE CAROLINAS, INC - IL
      lat: '40.615504'
      long: "-89.203774"
    - region: IL
      exchange: '320162'
      name: Congress Park
      short_name: CONGRESSPK
      lata: '358'
      ilec_name: ILLINOIS BELL TEL CO
      lat:
      long:
    - region: IL
      exchange: '321153'
      name: Conover
      short_name: CONOVER
      lata: '368'
      ilec_name: CITIZENS TELECOM CO ILLINOIS-FRONTIER CITIZENS -IL
      lat:
      long:
    - region: IL
      exchange: '363063'
      name: Cooks Mills
      short_name: COOKSMILLS
      lata: '976'
      ilec_name: ILLINOIS CONSOLIDATED TEL. CO.
      lat:
      long:
    - region: IL
      exchange: '048190'
      name: Cooksville
      short_name: COOKSVILLE
      lata: '366'
      ilec_name: FRONTIER COMMUNICATIONS OF ILLINOIS, INC.
      lat: '40.542096'
      long: "-88.724764"
    - region: IL
      exchange: '321569'
      name: Cooperstown
      short_name: COOPERSTN
      lata: '376'
      ilec_name: FRONTIER NORTH, INC. - IL
      lat:
      long:
    - region: IL
      exchange: '321154'
      name: Copperas Creek
      short_name: COPPERSCRK
      lata: '368'
      ilec_name: ILLINOIS BELL TEL CO
      lat:
      long:
    - region: IL
      exchange: '320163'
      name: Coral
      short_name: CORAL
      lata: '358'
      ilec_name: ILLINOIS BELL TEL CO
      lat:
      long:
    - region: IL
      exchange: '048200'
      name: Cordova
      short_name: CORDOVA
      lata: '634'
      ilec_name: CITIZENS TELECOM CO ILLINOIS-FRONTIER CITIZENS -IL
      lat: '41.681353'
      long: "-90.319825"
    - region: IL
      exchange: '048210'
      name: Cornell
      short_name: CORNELL
      lata: '366'
      ilec_name: C-R TELEPHONE CO.
      lat: '40.992284'
      long: "-88.732303"
    - region: IL
      exchange: '321448'
      name: Cornland
      short_name: CORNLAND
      lata: '374'
      ilec_name: ILLINOIS BELL TEL CO
      lat:
      long:
    - region: IL
      exchange: '320914'
      name: Cortland
      short_name: CORTLAND
      lata: '364'
      ilec_name: FRONTIER NORTH, INC. - IL
      lat:
      long:
    - region: IL
      exchange: '329525'
      name: Cottage Hills
      short_name: COTTAGEHLS
      lata: '520'
      ilec_name: ILLINOIS BELL TEL CO
      lat:
      long:
    - region: IL
      exchange: '320776'
      name: Cottonwood
      short_name: COTTONWOOD
      lata: '362'
      ilec_name: FRONTIER NORTH, INC. - IL
      lat:
      long:
    - region: IL
      exchange: '048220'
      name: Coulterville
      short_name: COULTERVL
      lata: '362'
      ilec_name: FRONTIER NORTH, INC. - IL
      lat: '38.187069'
      long: "-89.599936"
    - region: IL
      exchange: '338607'
      name: Council Hill
      short_name: COUNCIL HL
      lata: '634'
      ilec_name: ILLINOIS BELL TEL CO
      lat:
      long:
    - region: IL
      exchange: '320159'
      name: Country Club Hills
      short_name: CNRYCLBHLS
      lata: '358'
      ilec_name: ILLINOIS BELL TEL CO
      lat:
      long:
    - region: IL
      exchange: '320164'
      name: Countryside
      short_name: COUNTRYSD
      lata: '358'
      ilec_name: ILLINOIS BELL TEL CO
      lat:
      long:
    - region: IL
      exchange: '321028'
      name: Covell
      short_name: COVELL
      lata: '366'
      ilec_name: FRONTIER NORTH, INC. - IL
      lat:
      long:
    - region: IL
      exchange: '048230'
      name: Cowden
      short_name: COWDEN
      lata: '976'
      ilec_name: ILLINOIS CONSOLIDATED TEL. CO.
      lat: '39.246316'
      long: "-88.863824"
    - region: IL
      exchange: '363302'
      name: Cowling
      short_name: COWLING
      lata: '978'
      ilec_name: FRONTIER NORTH, INC. - IL
      lat:
      long:
    - region: IL
      exchange: '320778'
      name: Crab Orchard
      short_name: CRAB ORCH
      lata: '362'
      ilec_name: FRONTIER NORTH, INC. - IL
      lat:
      long:
    - region: IL
      exchange: '320779'
      name: Crainville
      short_name: CRAINVILLE
      lata: '362'
      ilec_name: FRONTIER NORTH, INC. - IL
      lat:
      long:
    - region: IL
      exchange: '321155'
      name: Cramer
      short_name: CRAMER
      lata: '368'
      ilec_name: ILLINOIS BELL TEL CO
      lat:
      long:
    - region: IL
      exchange: '329526'
      name: Cravat
      short_name: CRAVAT
      lata: '520'
      ilec_name: CITIZENS TELECOM CO ILLINOIS-FRONTIER CITIZENS -IL
      lat:
      long:
    - region: IL
      exchange: '048240'
      name: Creal Springs
      short_name: CREAL SPG
      lata: '362'
      ilec_name: FRONTIER NORTH, INC. - IL
      lat: '37.620425'
      long: "-88.835505"
    - region: IL
      exchange: '048250'
      name: Crescent City
      short_name: CRESCENTCY
      lata: '358'
      ilec_name: ILLINOIS BELL TEL CO
      lat: '40.770771'
      long: "-87.860033"
    - region: IL
      exchange: '320166'
      name: Crest Hill
      short_name: CREST HILL
      lata: '358'
      ilec_name: ILLINOIS BELL TEL CO
      lat:
      long:
    - region: IL
      exchange: '048260'
      name: Creston
      short_name: CRESTON
      lata: '364'
      ilec_name: FRONTIER NORTH, INC. - IL
      lat: '41.93152'
      long: "-88.968831"
    - region: IL
      exchange: '320167'
      name: Crestwood
      short_name: CRESTWOOD
      lata: '358'
      ilec_name: ILLINOIS BELL TEL CO
      lat:
      long:
    - region: IL
      exchange: '048270'
      name: Crete
      short_name: CRETE
      lata: '358'
      ilec_name: ILLINOIS BELL TEL CO
      lat: '41.439804'
      long: "-87.638247"
    - region: IL
      exchange: '321156'
      name: Creve Coeur
      short_name: CREVECOEUR
      lata: '368'
      ilec_name: ILLINOIS BELL TEL CO
      lat:
      long:
    - region: IL
      exchange: '048280'
      name: Crisp
      short_name: CRISP
      lata: '978'
      ilec_name: WABASH TEL. COOP., INC.
      lat: '38.43654'
      long: "-88.594987"
    - region: IL
      exchange: '320169'
      name: Crooked Lake
      short_name: CROOKED LK
      lata: '358'
      ilec_name: ILLINOIS BELL TEL CO
      lat:
      long:
    - region: IL
      exchange: '048290'
      name: Cropsey
      short_name: CROPSEY
      lata: '366'
      ilec_name: FRONTIER NORTH, INC. - IL
      lat: '40.611969'
      long: "-88.480534"
    - region: IL
      exchange: '320170'
      name: Cross Lake
      short_name: CROSS LAKE
      lata: '358'
      ilec_name: ILLINOIS BELL TEL CO
      lat:
      long:
    - region: IL
      exchange: '048300'
      name: Crossville
      short_name: CROSSVILLE
      lata: '978'
      ilec_name: CROSSVILLE TEL. CO.
      lat: '38.164183'
      long: "-88.070482"
    - region: IL
      exchange: '048310'
      name: Crystal Lake
      short_name: CRYSTAL LK
      lata: '358'
      ilec_name: ILLINOIS BELL TEL CO
      lat: '42.242981'
      long: "-88.321242"
    - region: IL
      exchange: '048320'
      name: Cuba
      short_name: CUBA
      lata: '368'
      ilec_name: FRONTIER NORTH, INC. - IL
      lat: '40.498099'
      long: "-90.191184"
    - region: IL
      exchange: '048330'
      name: Cullom
      short_name: CULLOM
      lata: '366'
      ilec_name: FRONTIER COMMUNICATIONS OF ILLINOIS, INC.
      lat: '40.877887'
      long: "-88.271183"
    - region: IL
      exchange: '320172'
      name: Cumberland
      short_name: CUMBERLAND
      lata: '358'
      ilec_name: ILLINOIS BELL TEL CO
      lat:
      long:
    - region: IL
      exchange: '321449'
      name: Curran
      short_name: CURRAN
      lata: '374'
      ilec_name: FRONTIER NORTH, INC. - IL
      lat:
      long:
    - region: IL
      exchange: '320173'
      name: Custer Park
      short_name: CUSTERPARK
      lata: '358'
      ilec_name: ILLINOIS BELL TEL CO
      lat:
      long:
    - region: IL
      exchange: '320781'
      name: Cutler
      short_name: CUTLER
      lata: '362'
      ilec_name: FRONTIER NORTH, INC. - IL
      lat:
      long:
    - region: IL
      exchange: '320174'
      name: Cutmer
      short_name: CUTMER
      lata: '358'
      ilec_name: FRONTIER COMMUNICATIONS OF THE CAROLINAS, INC - IL
      lat:
      long:
    - region: IL
      exchange: '048340'
      name: Cypress
      short_name: CYPRESS
      lata: '362'
      ilec_name: FRONTIER NORTH, INC. - IL
      lat: '37.367347'
      long: "-89.016283"
    - region: IL
      exchange: '320916'
      name: Daggetts
      short_name: DAGGETTS
      lata: '364'
      ilec_name: GALLATIN RIVER COMMUNICATIONS DBA CENTURYLINK
      lat:
      long:
    - region: IL
      exchange: '363207'
      name: Dahinda
      short_name: DAHINDA
      lata: '977'
      ilec_name: MID CENTURY TEL. COOP., INC.
      lat:
      long:
    - region: IL
      exchange: '048350'
      name: Dahlgren
      short_name: DAHLGREN
      lata: '978'
      ilec_name: HAMILTON COUNTY TELEPHONE CO-OP
      lat: '38.195611'
      long: "-88.679761"
    - region: IL
      exchange: '321315'
      name: Dailey
      short_name: DAILEY
      lata: '370'
      ilec_name: FRONTIER COMMUNICATIONS OF THE CAROLINAS, INC - IL
      lat:
      long:
    - region: IL
      exchange: '048360'
      name: Dakota
      short_name: DAKOTA
      lata: '360'
      ilec_name: FRONTIER NORTH, INC. - IL
      lat: '42.386384'
      long: "-89.523289"
    - region: IL
      exchange: '048370'
      name: Dale
      short_name: DALE
      lata: '978'
      ilec_name: HAMILTON COUNTY TELEPHONE CO-OP
      lat: '37.99566'
      long: "-88.495561"
    - region: IL
      exchange: '048380'
      name: Dallas City
      short_name: DALLASCITY
      lata: '977'
      ilec_name: CITIZENS TELECOM CO ILLINOIS-FRONTIER CITIZENS -IL
      lat: '40.636883'
      long: "-91.168849"
    - region: IL
      exchange: '048390'
      name: Dalton City
      short_name: DALTONCITY
      lata: '374'
      ilec_name: FRONTIER NORTH, INC. - IL
      lat: '39.710544'
      long: "-88.803645"
    - region: IL
      exchange: '321158'
      name: Dalzell
      short_name: DALZELL
      lata: '368'
      ilec_name: FRONTIER NORTH, INC. - IL
      lat:
      long:
    - region: IL
      exchange: '320691'
      name: Damascus
      short_name: DAMASCUS
      lata: '360'
      ilec_name: FRONTIER NORTH, INC. - IL
      lat:
      long:
    - region: IL
      exchange: '329527'
      name: Damiansville
      short_name: DAMIANSVL
      lata: '520'
      ilec_name: FRONTIER NORTH, INC. - IL
      lat:
      long:
    - region: IL
      exchange: '321031'
      name: Dana
      short_name: DANA
      lata: '366'
      ilec_name: FRONTIER NORTH, INC. - IL
      lat:
      long:
    - region: IL
      exchange: '048400'
      name: Danforth
      short_name: DANFORTH
      lata: '358'
      ilec_name: FRONTIER COMMUNICATIONS OF THE CAROLINAS, INC - IL
      lat: '40.824269'
      long: "-87.980156"
    - region: IL
      exchange: '048410'
      name: Danvers
      short_name: DANVERS
      lata: '366'
      ilec_name: FRONTIER COMMUNICATIONS OF ILLINOIS, INC.
      lat: '40.522448'
      long: "-89.177926"
    - region: IL
      exchange: '048420'
      name: Danville
      short_name: DANVILLE
      lata: '370'
      ilec_name: ILLINOIS BELL TEL CO
      lat: '40.12276'
      long: "-87.628451"
    - region: IL
      exchange: '320176'
      name: Danway
      short_name: DANWAY
      lata: '358'
      ilec_name: FRONTIER NORTH, INC. - IL
      lat:
      long:
    - region: IL
      exchange: '320177'
      name: Darien
      short_name: DARIEN
      lata: '358'
      ilec_name: ILLINOIS BELL TEL CO
      lat:
      long:
    - region: IL
      exchange: '329528'
      name: Darmstadt
      short_name: DARMSTADT
      lata: '520'
      ilec_name: ILLINOIS BELL TEL CO
      lat:
      long:
    - region: IL
      exchange: '048430'
      name: Davis
      short_name: DAVIS
      lata: '360'
      ilec_name: FRONTIER NORTH, INC. - IL
      lat: '42.423219'
      long: "-89.414719"
    - region: IL
      exchange: '320693'
      name: Davis Junction
      short_name: DAVIS JCT
      lata: '360'
      ilec_name: FRONTIER NORTH, INC. - IL
      lat:
      long:
    - region: IL
      exchange: '321451'
      name: Dawson
      short_name: DAWSON
      lata: '374'
      ilec_name: ILLINOIS BELL TEL CO
      lat:
      long:
    - region: IL
      exchange: '320178'
      name: Dawson Park
      short_name: DAWSONPARK
      lata: '358'
      ilec_name: FRONTIER COMMUNICATIONS OF THE CAROLINAS, INC - IL
      lat:
      long:
    - region: IL
      exchange: '320917'
      name: Daysville
      short_name: DAYSVILLE
      lata: '364'
      ilec_name: FRONTIER NORTH, INC. - IL
      lat:
      long:
    - region: IL
      exchange: '048440'
      name: De Kalb
      short_name: DE KALB
      lata: '364'
      ilec_name: FRONTIER NORTH, INC. - IL
      lat: '41.929742'
      long: "-88.748604"
    - region: IL
      exchange: '048450'
      name: De Land
      short_name: DE LAND
      lata: '374'
      ilec_name: FRONTIER NORTH, INC. - IL
      lat: '40.122246'
      long: "-88.649446"
    - region: IL
      exchange: '048460'
      name: De Soto
      short_name: DE SOTO
      lata: '362'
      ilec_name: FRONTIER NORTH, INC. - IL
      lat: '37.816578'
      long: "-89.229878"
    - region: IL
      exchange: '321033'
      name: De Witt
      short_name: DE WITT
      lata: '366'
      ilec_name: FRONTIER NORTH, INC. - IL
      lat:
      long:
    - region: IL
      exchange: '048470'
      name: Decatur
      short_name: DECATUR
      lata: '374'
      ilec_name: ILLINOIS BELL TEL CO
      lat: '39.841702'
      long: "-88.950939"
    - region: IL
      exchange: '320179'
      name: Deep Lake
      short_name: DEEP LAKE
      lata: '358'
