---
rate_centers:
  us:
    nm:
    - region: NM
      exchange: '342961'
      name: Abeytas
      short_name: ABEYTAS
      lata: '664'
      ilec_name: QWEST CORPORATION
      lat:
      long:
    - region: NM
      exchange: '126940'
      name: Abiquiu
      short_name: ABIQUIU
      lata: '664'
      ilec_name: 'VALOR TELECOM TX,LP-NM #2 DBA WINDSTREAM COMM SW'
      lat: '36.206812'
      long: "-106.319279"
    - region: NM
      exchange: '342963'
      name: Alameda
      short_name: ALAMEDA
      lata: '664'
      ilec_name: QWEST CORPORATION
      lat:
      long:
    - region: NM
      exchange: '342964'
      name: Alamo
      short_name: ALAMO
      lata: '664'
      ilec_name: WESTERN NEW MEXICO TEL. CO., INC.
      lat:
      long:
    - region: NM
      exchange: '126950'
      name: Alamogordo
      short_name: ALAMOGORDO
      lata: '664'
      ilec_name: QWEST CORPORATION
      lat: '32.899177'
      long: "-105.959911"
    - region: NM
      exchange: '342966'
      name: Albert
      short_name: ALBERT
      lata: '664'
      ilec_name: E.N.M.R. TEL COOP
      lat:
      long:
    - region: NM
      exchange: '126960'
      name: Albuquerque
      short_name: ALBUQURQUE
      lata: '664'
      ilec_name: QWEST CORPORATION
      lat: '35.081432'
      long: "-106.648367"
    - region: NM
      exchange: '342968'
      name: Alcalde
      short_name: ALCALDE
      lata: '664'
      ilec_name: 'VALOR TELECOM TX,LP-NM #2 DBA WINDSTREAM COMM SW'
      lat:
      long:
    - region: NM
      exchange: '342969'
      name: Algodones
      short_name: ALGODONES
      lata: '664'
      ilec_name: QWEST CORPORATION
      lat:
      long:
    - region: NM
      exchange: '126970'
      name: Alto
      short_name: ALTO
      lata: '664'
      ilec_name: 'VALOR TELECOM TX,LP-NM #2 DBA WINDSTREAM COMM SW'
      lat: '33.416252'
      long: "-105.672773"
    - region: NM
      exchange: '342971'
      name: Amalia
      short_name: AMALIA
      lata: '664'
      ilec_name: QWEST CORPORATION
      lat:
      long:
    - region: NM
      exchange: '342972'
      name: Amistad
      short_name: AMISTAD
      lata: '664'
      ilec_name: E.N.M.R. TEL COOP
      lat:
      long:
    - region: NM
      exchange: '342973'
      name: Ancho
      short_name: ANCHO
      lata: '664'
      ilec_name: TULAROSA BASIN TELEPHONE CO., INC.
      lat:
      long:
    - region: NM
      exchange: '126980'
      name: Angel Fire
      short_name: ANGEL FIRE
      lata: '664'
      ilec_name: QWEST CORPORATION
      lat: '36.56039'
      long: "-105.259077"
    - region: NM
      exchange: '342975'
      name: Angus
      short_name: ANGUS
      lata: '664'
      ilec_name: 'VALOR TELECOM TX,LP-NM #2 DBA WINDSTREAM COMM SW'
      lat:
      long:
    - region: NM
      exchange: '126990'
      name: Animas
      short_name: ANIMAS
      lata: '664'
      ilec_name: VALLEY TEL COOP INC
      lat: '31.949391'
      long: "-108.806339"
    - region: NM
      exchange: '127000'
      name: Antelope Ridge
      short_name: ANTLPE RDG
      lata: '664'
      ilec_name: LEACO RURAL TEL. COOP., INC.
      lat: '32.207102'
      long: "-103.66797"
    - region: NM
      exchange: '127010'
      name: Anthony
      short_name: ANTHONY
      lata: '664'
      ilec_name: QWEST CORPORATION
      lat: '31.992964'
      long: "-106.620297"
    - region: NM
      exchange: '127020'
      name: Anton Chico
      short_name: ANTONCHICO
      lata: '664'
      ilec_name: E.N.M.R. TEL COOP
      lat: '35.188634'
      long: "-105.145981"
    - region: NM
      exchange: '342980'
      name: Arabela
      short_name: ARABELA
      lata: '664'
      ilec_name: PENASCO VALLEY TEL. COOP., INC.
      lat:
      long:
    - region: NM
      exchange: '342981'
      name: Aragon
      short_name: ARAGON
      lata: '664'
      ilec_name: WESTERN NEW MEXICO TEL. CO., INC.
      lat:
      long:
    - region: NM
      exchange: '127030'
      name: Arch
      short_name: ARCH
      lata: '664'
      ilec_name: ROOSEVELT COUNTY RURAL TEL. COOP., INC.
      lat: '34.157697'
      long: "-103.284482"
    - region: NM
      exchange: '342983'
      name: Arenas Valley
      short_name: ARENAS VLY
      lata: '664'
      ilec_name: QWEST CORPORATION
      lat:
      long:
    - region: NM
      exchange: '342985'
      name: Arrey
      short_name: ARREY
      lata: '664'
      ilec_name: QWEST CORPORATION
      lat:
      long:
    - region: NM
      exchange: '342984'
      name: Arroyo Hondo
      short_name: AROYOHONDO
      lata: '664'
      ilec_name: QWEST CORPORATION
      lat:
      long:
    - region: NM
      exchange: '342986'
      name: Arroyo Seco
      short_name: ARROYOSECO
      lata: '664'
      ilec_name: QWEST CORPORATION
      lat:
      long:
    - region: NM
      exchange: '127040'
      name: Artesia
      short_name: ARTESIA
      lata: '664'
      ilec_name: QWEST CORPORATION
      lat: '32.849426'
      long: "-104.402844"
    - region: NM
      exchange: '342988'
      name: Artesia Oil Field
      short_name: ARTSIOLFLD
      lata: '664'
      ilec_name: PENASCO VALLEY TEL. COOP., INC.
      lat:
      long:
    - region: NM
      exchange: '127050'
      name: Aztec
      short_name: AZTEC
      lata: '664'
      ilec_name: QWEST CORPORATION
      lat: '36.823895'
      long: "-107.990359"
    - region: NM
      exchange: '342990'
      name: Bard
      short_name: BARD
      lata: '664'
      ilec_name: E.N.M.R. TEL COOP
      lat:
      long:
    - region: NM
      exchange: '127060'
      name: Bayard
      short_name: BAYARD
      lata: '664'
      ilec_name: QWEST CORPORATION
      lat: '32.757943'
      long: "-108.132348"
    - region: NM
      exchange: '127070'
      name: Belen
      short_name: BELEN
      lata: '664'
      ilec_name: QWEST CORPORATION
      lat: '34.658747'
      long: "-106.772998"
    - region: NM
      exchange: '342993'
      name: Bell Ranch
      short_name: BELL RANCH
      lata: '664'
      ilec_name: E.N.M.R. TEL COOP
      lat:
      long:
    - region: NM
      exchange: '127080'
      name: Bellview
      short_name: BELLVIEW
      lata: '664'
      ilec_name: E.N.M.R. TEL COOP
      lat: '34.809781'
      long: "-103.101871"
    - region: NM
      exchange: '342995'
      name: Bent
      short_name: BENT
      lata: '664'
      ilec_name: TULAROSA BASIN TELEPHONE CO., INC.
      lat:
      long:
    - region: NM
      exchange: '342996'
      name: Berino
      short_name: BERINO
      lata: '664'
      ilec_name: QWEST CORPORATION
      lat:
      long:
    - region: NM
      exchange: '127090'
      name: Bernalillo
      short_name: BERNALILLO
      lata: '664'
      ilec_name: QWEST CORPORATION
      lat: '35.298434'
      long: "-106.548678"
    - region: NM
      exchange: '127100'
      name: Bingham
      short_name: BINGHAM
      lata: '664'
      ilec_name: E.N.M.R. TEL COOP
      lat: '33.891083'
      long: "-106.362427"
    - region: NM
      exchange: '342999'
      name: Blanco
      short_name: BLANCO
      lata: '664'
      ilec_name: QWEST CORPORATION
      lat:
      long:
    - region: NM
      exchange: '127051'
      name: Bloomfield
      short_name: BLOOMFIELD
      lata: '664'
      ilec_name: QWEST CORPORATION
      lat:
      long:
    - region: NM
      exchange: '343001'
      name: Bluewater
      short_name: BLUEWATER
      lata: '664'
      ilec_name: QWEST CORPORATION
      lat:
      long:
    - region: NM
      exchange: '343002'
      name: Bosque
      short_name: BOSQUE
      lata: '664'
      ilec_name: QWEST CORPORATION
      lat:
      long:
    - region: NM
      exchange: '343003'
      name: Bosque Farms
      short_name: BOSQUEFRMS
      lata: '664'
      ilec_name: QWEST CORPORATION
      lat:
      long:
    - region: NM
      exchange: '343004'
      name: Brimhall
      short_name: BRIMHALL
      lata: '664'
      ilec_name: QWEST CORPORATION
      lat:
      long:
    - region: NM
      exchange: '343005'
      name: Broadview
      short_name: BROADVIEW
      lata: '664'
      ilec_name: E.N.M.R. TEL COOP
      lat:
      long:
    - region: NM
      exchange: '343006'
      name: Buckeye
      short_name: BUCKEYE
      lata: '664'
      ilec_name: 'VALOR TELECOM TX,LP-NM #1 DBA WINDSTREAM COMM SW'
      lat:
      long:
    - region: NM
      exchange: '343007'
      name: Buckhorn
      short_name: BUCKHORN
      lata: '664'
      ilec_name: WESTERN NEW MEXICO TEL. CO., INC.
      lat:
      long:
    - region: NM
      exchange: '343008'
      name: Budaghers
      short_name: BUDAGHERS
      lata: '664'
      ilec_name: QWEST CORPORATION
      lat:
      long:
    - region: NM
      exchange: '343009'
      name: Buena Vista
      short_name: BUENAVISTA
      lata: '664'
      ilec_name: LA JICARITA RURAL TEL. COOP., INC.
      lat:
      long:
    - region: NM
      exchange: '343010'
      name: Bueyeros
      short_name: BUEYEROS
      lata: '664'
      ilec_name: E.N.M.R. TEL COOP
      lat:
      long:
    - region: NM
      exchange: '343011'
      name: Caballo
      short_name: CABALLO
      lata: '664'
      ilec_name: 'VALOR TELECOM TX,LP-NM #2 DBA WINDSTREAM COMM SW'
      lat:
      long:
    - region: NM
      exchange: '127110'
      name: Canjilon
      short_name: CANJILON
      lata: '664'
      ilec_name: 'VALOR TELECOM TX,LP-NM #2 DBA WINDSTREAM COMM SW'
      lat: '36.468388'
      long: "-106.45023"
    - region: NM
      exchange: '127120'
      name: Cannon AFB
      short_name: CANNON AFB
      lata: '664'
      ilec_name: QWEST CORPORATION
      lat: '34.400405'
      long: "-103.316866"
    - region: NM
      exchange: '343015'
      name: Canones
      short_name: CANONES
      lata: '664'
      ilec_name: 'VALOR TELECOM TX,LP-NM #2 DBA WINDSTREAM COMM SW'
      lat:
      long:
    - region: NM
      exchange: '127130'
      name: Capitan
      short_name: CAPITAN
      lata: '664'
      ilec_name: 'VALOR TELECOM TX,LP-NM #2 DBA WINDSTREAM COMM SW'
      lat: '33.550538'
      long: "-105.572885"
    - region: NM
      exchange: '343017'
      name: Caprock
      short_name: CAPROCK
      lata: '664'
      ilec_name: LEACO RURAL TEL. COOP., INC.
      lat:
      long:
    - region: NM
      exchange: '343018'
      name: Capulin
      short_name: CAPULIN
      lata: '664'
      ilec_name: BACA VALLEY TEL. CO., INC.
      lat:
      long:
    - region: NM
      exchange: '127140'
      name: Carlsbad
      short_name: CARLSBAD
      lata: '664'
      ilec_name: 'VALOR TELECOM TX,LP-NM #1 DBA WINDSTREAM COMM SW'
      lat: '32.417247'
      long: "-104.240755"
    - region: NM
      exchange: '127150'
      name: Carlsbad Caverns
      short_name: CRLSBACRNS
      lata: '664'
      ilec_name: 'VALOR TELECOM TX,LP-NM #1 DBA WINDSTREAM COMM SW'
      lat: '32.175398'
      long: "-104.370901"
    - region: NM
      exchange: '127160'
      name: Carrizozo
      short_name: CARRIZOZO
      lata: '664'
      ilec_name: TULAROSA BASIN TELEPHONE CO., INC.
      lat: '33.640241'
      long: "-105.872707"
    - region: NM
      exchange: '343021'
      name: Carson
      short_name: CARSON
      lata: '664'
      ilec_name: QWEST CORPORATION
      lat:
      long:
    - region: NM
      exchange: '343022'
      name: Casa Blanca
      short_name: CASABLANCA
      lata: '664'
      ilec_name: QWEST CORPORATION
      lat:
      long:
    - region: NM
      exchange: '127170'
      name: Causey
      short_name: CAUSEY
      lata: '664'
      ilec_name: ROOSEVELT COUNTY RURAL TEL. COOP., INC.
      lat: '33.88485'
      long: "-103.125128"
    - region: NM
      exchange: '408549'
      name: Cañoncito (Bernalillo)
      short_name: CANONCITO
      lata: '664'
      ilec_name: QWEST CORPORATION
      lat:
      long:
    - region: NM
      exchange: '128231'
      name: Cañoncito (Santa Fe)
      short_name: CANONCITO
      lata: '664'
      ilec_name: QWEST CORPORATION
      lat:
      long:
    - region: NM
      exchange: '343024'
      name: Cebolla
      short_name: CEBOLLA
      lata: '664'
      ilec_name: 'VALOR TELECOM TX,LP-NM #2 DBA WINDSTREAM COMM SW'
      lat:
      long:
    - region: NM
      exchange: '343025'
      name: Cedar Crest
      short_name: CEDARCREST
      lata: '664'
      ilec_name: QWEST CORPORATION
      lat:
      long:
    - region: NM
      exchange: '343026'
      name: Cedarvale
      short_name: CEDARVALE
      lata: '664'
      ilec_name: QWEST CORPORATION
      lat:
      long:
    - region: NM
      exchange: '343027'
      name: Central
      short_name: CENTRAL
      lata: '664'
      ilec_name: QWEST CORPORATION
      lat:
      long:
    - region: NM
      exchange: '343028'
      name: Cerrillos
      short_name: CERRILLOS
      lata: '664'
      ilec_name: QWEST CORPORATION
      lat:
      long:
    - region: NM
      exchange: '343029'
      name: Cerro
      short_name: CERRO
      lata: '664'
      ilec_name: QWEST CORPORATION
      lat:
      long:
    - region: NM
      exchange: '343030'
      name: Chacon
      short_name: CHACON
      lata: '664'
      ilec_name: LA JICARITA RURAL TEL. COOP., INC.
      lat:
      long:
    - region: NM
      exchange: '127180'
      name: Chama
      short_name: CHAMA
      lata: '664'
      ilec_name: 'VALOR TELECOM TX,LP-NM #2 DBA WINDSTREAM COMM SW'
      lat: '36.897863'
      long: "-106.581685"
    - region: NM
      exchange: '343032'
      name: Chamberino
      short_name: CHAMBERINO
      lata: '664'
      ilec_name: QWEST CORPORATION
      lat:
      long:
    - region: NM
      exchange: '343033'
      name: Chamisal
      short_name: CHAMISAL
      lata: '664'
      ilec_name: E.N.M.R. TEL COOP
      lat:
      long:
    - region: NM
      exchange: '127190'
      name: Chaparral
      short_name: CHAPARRAL
      lata: '664'
      ilec_name: QWEST CORPORATION
      lat: '32.032362'
      long: "-106.410487"
    - region: NM
      exchange: '127200'
      name: Chimayo
      short_name: CHIMAYO
      lata: '664'
      ilec_name: 'VALOR TELECOM TX,LP-NM #2 DBA WINDSTREAM COMM SW'
      lat: '35.999762'
      long: "-105.933942"
    - region: NM
      exchange: '343036'
      name: Chloride
      short_name: CHLORIDE
      lata: '664'
      ilec_name: 'VALOR TELECOM TX,LP-NM #2 DBA WINDSTREAM COMM SW'
      lat:
      long:
    - region: NM
      exchange: '343037'
      name: Church Rock
      short_name: CHURCHROCK
      lata: '664'
      ilec_name: QWEST CORPORATION
      lat:
      long:
    - region: NM
      exchange: '127210'
      name: Cimarron
      short_name: CIMARRON
      lata: '664'
      ilec_name: QWEST CORPORATION
      lat: '36.509668'
      long: "-104.915123"
    - region: NM
      exchange: '343039'
      name: Claunch
      short_name: CLAUNCH
      lata: '664'
      ilec_name: 'VALOR TELECOM TX,LP-NM #2 DBA WINDSTREAM COMM SW'
      lat:
      long:
    - region: NM
      exchange: '127220'
      name: Clayton
      short_name: CLAYTON
      lata: '664'
      ilec_name: E.N.M.R. TEL COOP
      lat: '36.449405'
      long: "-103.183801"
    - region: NM
      exchange: '343041'
      name: Cleveland
      short_name: CLEVELAND
      lata: '664'
      ilec_name: LA JICARITA RURAL TEL. COOP., INC.
      lat:
      long:
    - region: NM
      exchange: '127230'
      name: Cliff
      short_name: CLIFF
      lata: '664'
      ilec_name: WESTERN NEW MEXICO TEL. CO., INC.
      lat: '32.970487'
      long: "-108.603996"
    - region: NM
      exchange: '343043'
      name: Clines Corners
      short_name: CLINES COR
      lata: '664'
      ilec_name: QWEST CORPORATION
      lat:
      long:
    - region: NM
      exchange: '127240'
      name: Cloudcroft
      short_name: CLOUDCROFT
      lata: '664'
      ilec_name: TULAROSA BASIN TELEPHONE CO., INC.
      lat: '32.950726'
      long: "-105.742844"
    - region: NM
      exchange: '127250'
      name: Clovis
      short_name: CLOVIS
      lata: '664'
      ilec_name: QWEST CORPORATION
      lat: '34.409803'
      long: "-103.208205"
    - region: NM
      exchange: '343046'
      name: Cochiti Lake
      short_name: COCHITI LK
      lata: '664'
      ilec_name: QWEST CORPORATION
      lat:
      long:
    - region: NM
      exchange: '343047'
      name: Cochiti Pueblo
      short_name: COCHITPUEB
      lata: '664'
      ilec_name: QWEST CORPORATION
      lat:
      long:
    - region: NM
      exchange: '127260'
      name: Columbus
      short_name: COLUMBUS
      lata: '664'
      ilec_name: VALLEY TEL COOP INC
      lat: '31.829438'
      long: "-107.893075"
    - region: NM
      exchange: '127270'
      name: Conchas Dam
      short_name: CONCHASDAM
      lata: '664'
      ilec_name: E.N.M.R. TEL COOP
      lat: '35.377651'
      long: "-104.176843"
    - region: NM
      exchange: '343050'
      name: Continental Divide
      short_name: CONTILDVID
      lata: '664'
      ilec_name: QWEST CORPORATION
      lat:
      long:
    - region: NM
      exchange: '343051'
      name: Cordova
      short_name: CORDOVA
      lata: '664'
      ilec_name: 'VALOR TELECOM TX,LP-NM #2 DBA WINDSTREAM COMM SW'
      lat:
      long:
    - region: NM
      exchange: '127280'
      name: Corona
      short_name: CORONA
      lata: '664'
      ilec_name: E.N.M.R. TEL COOP
      lat: '34.248799'
      long: "-105.60171"
    - region: NM
      exchange: '343053'
      name: Corrales
      short_name: CORRALES
      lata: '664'
      ilec_name: QWEST CORPORATION
      lat:
      long:
    - region: NM
      exchange: '343054'
      name: Costilla
      short_name: COSTILLA
      lata: '664'
      ilec_name: QWEST CORPORATION
      lat:
      long:
    - region: NM
      exchange: '343055'
      name: Cotton City
      short_name: COTTONCITY
      lata: '664'
      ilec_name: VALLEY TEL COOP INC
      lat:
      long:
    - region: NM
      exchange: '127290'
      name: Cottonwood
      short_name: COTTONWOOD
      lata: '664'
      ilec_name: PENASCO VALLEY TEL. COOP., INC.
      lat: '32.916227'
      long: "-104.434844"
    - region: NM
      exchange: '343057'
      name: Counselor
      short_name: COUNSELOR
      lata: '664'
      ilec_name: 'VALOR TELECOM TX,LP-NM #2 DBA WINDSTREAM COMM SW'
      lat:
      long:
    - region: NM
      exchange: '343058'
      name: Coyote
      short_name: COYOTE
      lata: '664'
      ilec_name: 'VALOR TELECOM TX,LP-NM #2 DBA WINDSTREAM COMM SW'
      lat:
      long:
    - region: NM
      exchange: '343060'
      name: Crossroads
      short_name: CROSSROADS
      lata: '664'
      ilec_name: ROOSEVELT COUNTY RURAL TEL. COOP., INC.
      lat:
      long:
    - region: NM
      exchange: '127300'
      name: Crown Point
      short_name: CROWNPOINT
      lata: '664'
      ilec_name: NAVAJO COMM CO INC NM DBA NAVAJO COMM CO NM
      lat: '35.681985'
      long: "-108.148974"
    - region: NM
      exchange: '127310'
      name: Cuba
      short_name: CUBA
      lata: '664'
      ilec_name: 'VALOR TELECOM TX,LP-NM #2 DBA WINDSTREAM COMM SW'
      lat: '36.024179'
      long: "-106.961172"
    - region: NM
      exchange: '343063'
      name: Cubero
      short_name: CUBERO
      lata: '664'
      ilec_name: QWEST CORPORATION
      lat:
      long:
    - region: NM
      exchange: '343064'
      name: Cuchillo
      short_name: CUCHILLO
      lata: '664'
      ilec_name: 'VALOR TELECOM TX,LP-NM #2 DBA WINDSTREAM COMM SW'
      lat:
      long:
    - region: NM
      exchange: '343065'
      name: Cuervo
      short_name: CUERVO
      lata: '664'
      ilec_name: E.N.M.R. TEL COOP
      lat:
      long:
    - region: NM
      exchange: '343066'
      name: Cundiyo
      short_name: CUNDIYO
      lata: '664'
      ilec_name: 'VALOR TELECOM TX,LP-NM #2 DBA WINDSTREAM COMM SW'
      lat:
      long:
    - region: NM
      exchange: '127320'
      name: Datil
      short_name: DATIL
      lata: '664'
      ilec_name: WESTERN NEW MEXICO TEL. CO., INC.
      lat: '34.143156'
      long: "-107.840275"
    - region: NM
      exchange: '127330'
      name: Dell City
      short_name: DELL CITY
      lata: '540'
      ilec_name: DELL TEL. CORP. INC. - NM
      lat: '32.010414'
      long: "-105.210172"
    - region: NM
      exchange: '127340'
      name: Deming
      short_name: DEMING
      lata: '664'
      ilec_name: QWEST CORPORATION
      lat: '32.268372'
      long: "-107.759822"
    - region: NM
      exchange: '343069'
      name: Derry
      short_name: DERRY
      lata: '664'
      ilec_name: QWEST CORPORATION
      lat:
      long:
    - region: NM
      exchange: '127350'
      name: Des Moines
      short_name: DES MOINES
      lata: '664'
      ilec_name: BACA VALLEY TEL. CO., INC.
      lat: '36.75977'
      long: "-103.832313"
    - region: NM
      exchange: '127360'
      name: Dexter
      short_name: DEXTER
      lata: '664'
      ilec_name: LEACO RURAL TEL. COOP., INC.
      lat: '33.201006'
      long: "-104.373693"
    - region: NM
      exchange: '127370'
      name: Dixon
      short_name: DIXON
      lata: '664'
      ilec_name: 'VALOR TELECOM TX,LP-NM #2 DBA WINDSTREAM COMM SW'
      lat: '36.200578'
      long: "-105.866681"
    - region: NM
      exchange: '343073'
      name: Dona Ana
      short_name: DONA ANA
      lata: '664'
      ilec_name: QWEST CORPORATION
      lat:
      long:
    - region: NM
      exchange: '127380'
      name: Dora
      short_name: DORA
      lata: '664'
      ilec_name: ROOSEVELT COUNTY RURAL TEL. COOP., INC.
      lat: '33.932059'
      long: "-103.332577"
    - region: NM
      exchange: '127390'
      name: Dulce
      short_name: DULCE
      lata: '664'
      ilec_name: 'VALOR TELECOM TX,LP-NM #2 DBA WINDSTREAM COMM SW'
      lat: '36.934813'
      long: "-106.996939"
    - region: NM
      exchange: '343076'
      name: Duran
      short_name: DURAN
      lata: '664'
      ilec_name: TULAROSA BASIN TELEPHONE CO., INC.
      lat:
      long:
    - region: NM
      exchange: '343077'
      name: Eagle Nest
      short_name: EAGLE NEST
      lata: '664'
      ilec_name: QWEST CORPORATION
      lat:
      long:
    - region: NM
      exchange: '343078'
      name: Edgewood
      short_name: EDGEWOOD
      lata: '664'
      ilec_name: QWEST CORPORATION
      lat:
      long:
    - region: NM
      exchange: '343079'
      name: El Prado
      short_name: EL PRADO
      lata: '664'
      ilec_name: QWEST CORPORATION
      lat:
      long:
    - region: NM
      exchange: '127400'
      name: El Rito
      short_name: EL RITO
      lata: '664'
      ilec_name: 'VALOR TELECOM TX,LP-NM #2 DBA WINDSTREAM COMM SW'
      lat: '36.349902'
      long: "-106.190957"
    - region: NM
      exchange: '127410'
      name: El Valle
      short_name: EL VALLE
      lata: '664'
      ilec_name: E.N.M.R. TEL COOP
      lat: '35.315534'
      long: "-105.40326"
    - region: NM
      exchange: '343082'
      name: Elephant Butte
      short_name: ELEPHNTBTE
      lata: '664'
      ilec_name: 'VALOR TELECOM TX,LP-NM #2 DBA WINDSTREAM COMM SW'
      lat:
      long:
    - region: NM
      exchange: '127420'
      name: Elida
      short_name: ELIDA
      lata: '664'
      ilec_name: ROOSEVELT COUNTY RURAL TEL. COOP., INC.
      lat: '33.942741'
      long: "-103.658578"
    - region: NM
      exchange: '343084'
      name: Embudo
      short_name: EMBUDO
      lata: '664'
      ilec_name: 'VALOR TELECOM TX,LP-NM #2 DBA WINDSTREAM COMM SW'
      lat:
      long:
    - region: NM
      exchange: '343085'
      name: Encino
      short_name: ENCINO
      lata: '664'
      ilec_name: E.N.M.R. TEL COOP
      lat:
      long:
    - region: NM
      exchange: '127430'
      name: Espanola
      short_name: ESPANOLA
      lata: '664'
      ilec_name: 'VALOR TELECOM TX,LP-NM #2 DBA WINDSTREAM COMM SW'
      lat: '35.992237'
      long: "-106.083995"
    - region: NM
      exchange: '127440'
      name: Estancia
      short_name: ESTANCIA
      lata: '664'
      ilec_name: QWEST CORPORATION
      lat: '34.770555'
      long: "-106.113949"
    - region: NM
      exchange: '127450'
      name: Eunice
      short_name: EUNICE
      lata: '664'
      ilec_name: 'VALOR TELECOM TX,LP-NM #1 DBA WINDSTREAM COMM SW'
      lat: '32.435733'
      long: "-103.159153"
    - region: NM
      exchange: '343089'
      name: Fairacres
      short_name: FAIRACRES
      lata: '664'
      ilec_name: QWEST CORPORATION
      lat:
      long:
    - region: NM
      exchange: '343090'
      name: Fairview
      short_name: FAIRVIEW
      lata: '664'
      ilec_name: 'VALOR TELECOM TX,LP-NM #2 DBA WINDSTREAM COMM SW'
      lat:
      long:
    - region: NM
      exchange: '127460'
      name: Farmington
      short_name: FARMINGTON
      lata: '664'
      ilec_name: QWEST CORPORATION
      lat: '36.732662'
      long: "-108.210203"
    - region: NM
      exchange: '343092'
      name: Faywood
      short_name: FAYWOOD
      lata: '664'
      ilec_name: WESTERN NEW MEXICO TEL. CO., INC.
      lat:
      long:
    - region: NM
      exchange: '127470'
      name: Fence Lake
      short_name: FENCE LAKE
      lata: '664'
      ilec_name: CENTURYTEL SOUTHWEST INC-NM DBA CENTURYLINK - NM
      lat: '34.659266'
      long: "-108.674864"
    - region: NM
      exchange: '343094'
      name: Flora Vista
      short_name: FLORAVISTA
      lata: '664'
      ilec_name: QWEST CORPORATION
      lat:
      long:
    - region: NM
      exchange: '127480'
      name: Floyd
      short_name: FLOYD
      lata: '664'
      ilec_name: ROOSEVELT COUNTY RURAL TEL. COOP., INC.
      lat: '34.184636'
      long: "-103.419191"
    - region: NM
      exchange: '343096'
      name: Flying H
      short_name: FLYING H
      lata: '664'
      ilec_name: PENASCO VALLEY TEL. COOP., INC.
      lat:
      long:
    - region: NM
      exchange: '334780'
      name: Folsom
      short_name: FOLSOM
      lata: '546'
      ilec_name: PANHANDLE TELEPHONE COOPERATIVE, INC.
      lat:
      long:
    - region: NM
      exchange: '343097'
      name: Forrest
      short_name: FORREST
      lata: '664'
      ilec_name: E.N.M.R. TEL COOP
      lat:
      long:
    - region: NM
      exchange: '343098'
      name: Fort Bayard
      short_name: FORTBAYARD
      lata: '664'
      ilec_name: QWEST CORPORATION
      lat:
      long:
    - region: NM
      exchange: '343101'
      name: Fort Stanton
      short_name: FT STANTON
      lata: '664'
      ilec_name: 'VALOR TELECOM TX,LP-NM #2 DBA WINDSTREAM COMM SW'
      lat:
      long:
    - region: NM
      exchange: '127490'
      name: Fort Sumner
      short_name: FORTSUMNER
      lata: '664'
      ilec_name: E.N.M.R. TEL COOP
      lat: '34.465304'
      long: "-104.252268"
    - region: NM
      exchange: '343102'
      name: Fort Wingate
      short_name: FT WINGATE
      lata: '664'
      ilec_name: QWEST CORPORATION
      lat:
      long:
    - region: NM
      exchange: '343100'
      name: Fruitland
      short_name: FRUITLAND
      lata: '664'
      ilec_name: QWEST CORPORATION
      lat:
      long:
    - region: NM
      exchange: '343103'
      name: Galisteo
      short_name: GALISTEO
      lata: '664'
      ilec_name: QWEST CORPORATION
      lat:
      long:
    - region: NM
      exchange: '127500'
      name: Gallina
      short_name: GALLINA
      lata: '664'
      ilec_name: 'VALOR TELECOM TX,LP-NM #2 DBA WINDSTREAM COMM SW'
      lat: '36.223776'
      long: "-106.826469"
    - region: NM
      exchange: '127510'
      name: Gallup
      short_name: GALLUP
      lata: '664'
      ilec_name: QWEST CORPORATION
      lat: '35.523752'
      long: "-108.742073"
    - region: NM
      exchange: '343106'
      name: Gamerco
      short_name: GAMERCO
      lata: '664'
      ilec_name: QWEST CORPORATION
      lat:
      long:
    - region: NM
      exchange: '343107'
      name: Garfield
      short_name: GARFIELD
      lata: '664'
      ilec_name: QWEST CORPORATION
      lat:
      long:
    - region: NM
      exchange: '343108'
      name: Garita
      short_name: GARITA
      lata: '664'
      ilec_name: E.N.M.R. TEL COOP
      lat:
      long:
    - region: NM
      exchange: '343109'
      name: Gila
      short_name: GILA
      lata: '664'
      ilec_name: WESTERN NEW MEXICO TEL. CO., INC.
      lat:
      long:
    - region: NM
      exchange: '343110'
      name: Gladstone
      short_name: GLADSTONE
      lata: '664'
      ilec_name: BACA VALLEY TEL. CO., INC.
      lat:
      long:
    - region: NM
      exchange: '343111'
      name: Glencoe
      short_name: GLENCOE
      lata: '664'
      ilec_name: PENASCO VALLEY TEL. COOP., INC.
      lat:
      long:
    - region: NM
      exchange: '343112'
      name: Glenrio
      short_name: GLENRIO
      lata: '664'
      ilec_name: E.N.M.R. TEL COOP
      lat:
      long:
    - region: NM
      exchange: '127520'
      name: Glenwood
      short_name: GLENWOOD
      lata: '664'
      ilec_name: WESTERN NEW MEXICO TEL. CO., INC.
      lat: '33.319195'
      long: "-108.881926"
    - region: NM
      exchange: '343114'
      name: Glorieta
      short_name: GLORIETA
      lata: '664'
      ilec_name: CENTURYTEL SOUTHWEST INC-NM DBA CENTURYLINK - NM
      lat:
      long:
    - region: NM
      exchange: '343115'
      name: Golden
      short_name: GOLDEN
      lata: '664'
      ilec_name: QWEST CORPORATION
      lat:
      long:
    - region: NM
      exchange: '343116'
      name: Gonzales Ranch
      short_name: GONZLSRNCH
      lata: '664'
      ilec_name: E.N.M.R. TEL COOP
      lat:
      long:
    - region: NM
      exchange: '127530'
      name: Grady
      short_name: GRADY
      lata: '664'
      ilec_name: E.N.M.R. TEL COOP
      lat: '34.824714'
      long: "-103.318667"
    - region: NM
      exchange: '127540'
      name: Grants
      short_name: GRANTS
      lata: '664'
      ilec_name: QWEST CORPORATION
      lat: '35.156974'
      long: "-107.853146"
    - region: NM
      exchange: '343119'
      name: Grenville
      short_name: GRENVILLE
      lata: '664'
      ilec_name: E.N.M.R. TEL COOP
      lat:
      long:
    - region: NM
      exchange: '127550'
      name: Guadalupe Peak
      short_name: GUAD PEAK
      lata: '540'
      ilec_name: DELL TEL. CORP. INC. - NM
      lat: '32.027068'
      long: "-104.832306"
    - region: NM
      exchange: '343120'
      name: Guadalupita
      short_name: GUADLUPITA
      lata: '664'
      ilec_name: LA JICARITA RURAL TEL. COOP., INC.
      lat:
      long:
    - region: NM
      exchange: '343121'
      name: Hachita
      short_name: HACHITA
      lata: '664'
      ilec_name: VALLEY TEL COOP INC
      lat:
      long:
    - region: NM
      exchange: '127560'
      name: Hagerman
      short_name: HAGERMAN
      lata: '664'
      ilec_name: LEACO RURAL TEL. COOP., INC.
      lat: '33.116795'
      long: "-104.330996"
    - region: NM
      exchange: '343123'
      name: Hanover
      short_name: HANOVER
      lata: '664'
      ilec_name: QWEST CORPORATION
      lat:
      long:
    - region: NM
      exchange: '127570'
      name: Hatch
      short_name: HATCH
      lata: '664'
      ilec_name: QWEST CORPORATION
      lat: '32.666038'
      long: "-107.149188"
    - region: NM
      exchange: '343125'
      name: Hernandez
      short_name: HERNANDEZ
      lata: '664'
      ilec_name: 'VALOR TELECOM TX,LP-NM #2 DBA WINDSTREAM COMM SW'
      lat:
      long:
    - region: NM
      exchange: '343127'
      name: High Rolls Mountain Park
      short_name: HIRLSMTNPK
      lata: '664'
      ilec_name: TULAROSA BASIN TELEPHONE CO., INC.
      lat:
      long:
    - region: NM
      exchange: '127580'
      name: Hillsboro
      short_name: HILLSBORO
      lata: '664'
      ilec_name: 'VALOR TELECOM TX,LP-NM #2 DBA WINDSTREAM COMM SW'
      lat: '32.918891'
      long: "-107.566266"
    - region: NM
      exchange: '127590'
      name: Hobbs
      short_name: HOBBS
      lata: '664'
      ilec_name: 'VALOR TELECOM TX,LP-NM #1 DBA WINDSTREAM COMM SW'
      lat: '32.702232'
      long: "-103.135081"
    - region: NM
      exchange: '343129'
      name: Holloman Air Force Base
      short_name: HOLLOMNAFB
      lata: '664'
      ilec_name: QWEST CORPORATION
      lat:
      long:
    - region: NM
      exchange: '343130'
      name: Holman
      short_name: HOLMAN
      lata: '664'
      ilec_name: LA JICARITA RURAL TEL. COOP., INC.
      lat:
      long:
    - region: NM
      exchange: '127600'
      name: Hondo
      short_name: HONDO
      lata: '664'
      ilec_name: PENASCO VALLEY TEL. COOP., INC.
      lat: '33.385162'
      long: "-105.283872"
    - region: NM
      exchange: '127610'
      name: Hope
      short_name: HOPE
      lata: '664'
      ilec_name: PENASCO VALLEY TEL. COOP., INC.
      lat: '32.816005'
      long: "-104.734236"
    - region: NM
      exchange: '127620'
      name: House
      short_name: HOUSE
      lata: '664'
      ilec_name: E.N.M.R. TEL COOP
      lat: '34.645398'
      long: "-103.903431"
    - region: NM
      exchange: '343134'
      name: Hurley
      short_name: HURLEY
      lata: '664'
      ilec_name: QWEST CORPORATION
      lat:
      long:
    - region: NM
      exchange: '343135'
      name: Ilfeld
      short_name: ILFELD
      lata: '664'
      ilec_name: CENTURYTEL SOUTHWEST INC-NM DBA CENTURYLINK - NM
      lat:
      long:
    - region: NM
      exchange: '343136'
      name: Isleta
      short_name: ISLETA
      lata: '664'
      ilec_name: QWEST CORPORATION
      lat:
      long:
    - region: NM
      exchange: '343137'
      name: Jacona
      short_name: JACONA
      lata: '664'
      ilec_name: QWEST CORPORATION
      lat:
      long:
    - region: NM
      exchange: '343138'
      name: Jaconita
      short_name: JACONITA
      lata: '664'
      ilec_name: QWEST CORPORATION
      lat:
      long:
    - region: NM
      exchange: '127630'
      name: Jal
      short_name: JAL
      lata: '664'
      ilec_name: 'VALOR TELECOM TX,LP-NM #1 DBA WINDSTREAM COMM SW'
      lat: '32.113553'
      long: "-103.193403"
    - region: NM
      exchange: '343140'
      name: Jamestown
      short_name: JAMESTOWN
      lata: '664'
      ilec_name: QWEST CORPORATION
      lat:
      long:
    - region: NM
      exchange: '343141'
      name: Jarales
      short_name: JARALES
      lata: '664'
      ilec_name: QWEST CORPORATION
      lat:
      long:
    - region: NM
      exchange: '343143'
      name: Jemez Pueblo
      short_name: JEMEZPUBLO
      lata: '664'
      ilec_name: 'VALOR TELECOM TX,LP-NM #2 DBA WINDSTREAM COMM SW'
      lat:
      long:
    - region: NM
      exchange: '127640'
      name: Jemez Springs
      short_name: JEMEZ SPG
      lata: '664'
      ilec_name: 'VALOR TELECOM TX,LP-NM #2 DBA WINDSTREAM COMM SW'
      lat: '35.765366'
      long: "-106.693886"
    - region: NM
      exchange: '343144'
      name: Jicarilla
      short_name: JICARILLA
      lata: '664'
      ilec_name: TULAROSA BASIN TELEPHONE CO., INC.
      lat:
      long:
    - region: NM
      exchange: '343145'
      name: Kenna
      short_name: KENNA
      lata: '664'
      ilec_name: ROOSEVELT COUNTY RURAL TEL. COOP., INC.
      lat:
      long:
    - region: NM
      exchange: '127650'
      name: Kenton
      short_name: KENTON
      lata: '546'
      ilec_name: PANHANDLE TELEPHONE COOPERATIVE, INC.
      lat: '37.034099'
      long: "-102.963759"
    - region: NM
      exchange: '343146'
      name: Kewa
      short_name: KEWA
      lata: '664'
      ilec_name: QWEST CORPORATION
      lat:
      long:
    - region: NM
      exchange: '343147'
      name: Kirtland
      short_name: KIRTLAND
      lata: '664'
      ilec_name: QWEST CORPORATION
      lat:
      long:
    - region: NM
      exchange: '343148'
      name: La Jara
      short_name: LA JARA
      lata: '664'
      ilec_name: 'VALOR TELECOM TX,LP-NM #2 DBA WINDSTREAM COMM SW'
      lat:
      long:
    - region: NM
      exchange: '343149'
      name: La Joya
      short_name: LA JOYA
      lata: '664'
      ilec_name: QWEST CORPORATION
      lat:
      long:
    - region: NM
      exchange: '343150'
      name: La Loma
      short_name: LA LOMA
      lata: '664'
      ilec_name: E.N.M.R. TEL COOP
      lat:
      long:
    - region: NM
      exchange: '343151'
      name: La Luz
      short_name: LA LUZ
      lata: '664'
      ilec_name: QWEST CORPORATION
      lat:
      long:
    - region: NM
      exchange: '343152'
      name: La Madera
      short_name: LA MADERA
      lata: '664'
      ilec_name: 'VALOR TELECOM TX,LP-NM #2 DBA WINDSTREAM COMM SW'
      lat:
      long:
    - region: NM
      exchange: '127660'
      name: La Mesa
      short_name: LA MESA
      lata: '664'
      ilec_name: QWEST CORPORATION
      lat: '32.115619'
      long: "-106.70709"
    - region: NM
      exchange: '343154'
      name: La Plata
      short_name: LA PLATA
      lata: '664'
      ilec_name: QWEST CORPORATION
      lat:
      long:
    - region: NM
      exchange: '343155'
      name: Laguna
      short_name: LAGUNA
      lata: '664'
      ilec_name: QWEST CORPORATION
      lat:
      long:
    - region: NM
      exchange: '127670'
      name: Laguna Acoma
      short_name: LAGUNAACOM
      lata: '664'
      ilec_name: QWEST CORPORATION
      lat: '35.080003'
      long: "-107.554441"
    - region: NM
      exchange: '343157'
      name: Lake Arthur
      short_name: LAKEARTHUR
      lata: '664'
      ilec_name: PENASCO VALLEY TEL. COOP., INC.
      lat:
      long:
    - region: NM
      exchange: '343158'
      name: Lake Sumner
      short_name: LAKESUMNER
      lata: '664'
      ilec_name: E.N.M.R. TEL COOP
      lat:
      long:
    - region: NM
      exchange: '127680'
      name: Lakewood
      short_name: LAKEWOOD
      lata: '664'
      ilec_name: PENASCO VALLEY TEL. COOP., INC.
      lat: '32.654852'
      long: "-104.401664"
    - region: NM
      exchange: '343160'
      name: Lamy
      short_name: LAMY
      lata: '664'
      ilec_name: QWEST CORPORATION
      lat:
      long:
    - region: NM
      exchange: '127690'
      name: Las Cruces
      short_name: LAS CRUCES
      lata: '664'
      ilec_name: QWEST CORPORATION
      lat: '32.307377'
      long: "-106.781699"
    - region: NM
      exchange: '343162'
      name: Las Tablas
      short_name: LAS TABLAS
      lata: '664'
      ilec_name: 'VALOR TELECOM TX,LP-NM #2 DBA WINDSTREAM COMM SW'
      lat:
      long:
    - region: NM
      exchange: '343164'
      name: Las Trampas
      short_name: LASTRAMPAS
      lata: '664'
      ilec_name: QWEST CORPORATION
      lat:
      long:
    - region: NM
      exchange: '127700'
      name: Las Vegas
      short_name: LAS VEGAS
      lata: '664'
      ilec_name: QWEST CORPORATION
      lat: '35.600561'
      long: "-105.22726"
    - region: NM
      exchange: '343165'
      name: Ledoux
      short_name: LEDOUX
      lata: '664'
      ilec_name: LA JICARITA RURAL TEL. COOP., INC.
      lat:
      long:
    - region: NM
      exchange: '343166'
      name: Lemitar
      short_name: LEMITAR
      lata: '664'
      ilec_name: QWEST CORPORATION
      lat:
      long:
    - region: NM
      exchange: '343167'
      name: Lincoln
      short_name: LINCOLN
      lata: '664'
      ilec_name: 'VALOR TELECOM TX,LP-NM #2 DBA WINDSTREAM COMM SW'
      lat:
      long:
    - region: NM
      exchange: '127710'
      name: Lindrith
      short_name: LINDRITH
      lata: '664'
      ilec_name: 'VALOR TELECOM TX,LP-NM #2 DBA WINDSTREAM COMM SW'
      lat: '36.298459'
      long: "-107.047935"
    - region: NM
      exchange: '343169'
      name: Lingo
      short_name: LINGO
      lata: '664'
      ilec_name: ROOSEVELT COUNTY RURAL TEL. COOP., INC.
      lat:
      long:
    - region: NM
      exchange: '343170'
      name: Llano
      short_name: LLANO
      lata: '664'
      ilec_name: QWEST CORPORATION
      lat:
      long:
    - region: NM
      exchange: '127720'
      name: Loco Hills
      short_name: LOCO HILLS
      lata: '664'
      ilec_name: PENASCO VALLEY TEL. COOP., INC.
      lat: '32.816963'
      long: "-103.993094"
    - region: NM
      exchange: '127730'
      name: Logan
      short_name: LOGAN
      lata: '664'
      ilec_name: E.N.M.R. TEL COOP
      lat: '35.366837'
      long: "-103.415361"
    - region: NM
      exchange: '127740'
      name: Lordsburg
      short_name: LORDSBURG
      lata: '664'
      ilec_name: WESTERN NEW MEXICO TEL. CO., INC.
      lat: '32.348028'
      long: "-108.707604"
    - region: NM
      exchange: '127750'
      name: Los Alamos
      short_name: LOS ALAMOS
      lata: '664'
      ilec_name: QWEST CORPORATION
      lat: '35.884418'
      long: "-106.299341"
    - region: NM
      exchange: '127760'
      name: Los Lunas
      short_name: LOS LUNAS
      lata: '664'
      ilec_name: QWEST CORPORATION
      lat: '34.807902'
      long: "-106.732546"
    - region: NM
      exchange: '343176'
      name: Los Ojos
      short_name: LOS OJOS
      lata: '664'
      ilec_name: 'VALOR TELECOM TX,LP-NM #2 DBA WINDSTREAM COMM SW'
      lat:
      long:
    - region: NM
      exchange: '343177'
      name: Los Ranchos De Albuquerque
      short_name: LOSRANCHOS
      lata: '664'
      ilec_name: QWEST CORPORATION
      lat:
      long:
    - region: NM
      exchange: '127770'
      name: Loving
      short_name: LOVING
      lata: '664'
      ilec_name: 'VALOR TELECOM TX,LP-NM #1 DBA WINDSTREAM COMM SW'
      lat: '32.291791'
      long: "-104.100781"
    - region: NM
      exchange: '127780'
      name: Lovington
      short_name: LOVINGTON
      lata: '664'
      ilec_name: 'VALOR TELECOM TX,LP-NM #1 DBA WINDSTREAM COMM SW'
      lat: '32.951466'
      long: "-103.34689"
    - region: NM
      exchange: '343181'
      name: Lumberton
      short_name: LUMBERTON
      lata: '664'
      ilec_name: 'VALOR TELECOM TX,LP-NM #2 DBA WINDSTREAM COMM SW'
      lat:
      long:
    - region: NM
      exchange: '127790'
      name: Luna
      short_name: LUNA
      lata: '664'
      ilec_name: WESTERN NEW MEXICO TEL. CO., INC.
      lat: '33.822289'
      long: "-108.954404"
    - region: NM
      exchange: '127800'
      name: Lybrook
      short_name: LYBROOK
      lata: '664'
      ilec_name: 'VALOR TELECOM TX,LP-NM #2 DBA WINDSTREAM COMM SW'
      lat: '36.233542'
      long: "-107.547399"
    - region: NM
      exchange: '343184'
      name: Madrid
      short_name: MADRID
      lata: '664'
      ilec_name: QWEST CORPORATION
      lat:
      long:
    - region: NM
      exchange: '127810'
      name: Magdalena
      short_name: MAGDALENA
      lata: '664'
      ilec_name: WESTERN NEW MEXICO TEL. CO., INC.
      lat: '34.115457'
      long: "-107.242274"
    - region: NM
      exchange: '343186'
      name: Malaga
      short_name: MALAGA
      lata: '664'
      ilec_name: 'VALOR TELECOM TX,LP-NM #1 DBA WINDSTREAM COMM SW'
      lat:
      long:
    - region: NM
      exchange: '127820'
      name: Maljamar
      short_name: MALJAMAR
      lata: '664'
      ilec_name: LEACO RURAL TEL. COOP., INC.
      lat: '32.85021'
      long: "-103.757761"
    - region: NM
      exchange: '343188'
      name: Manuelito
      short_name: MANUELITO
      lata: '664'
      ilec_name: QWEST CORPORATION
      lat:
      long:
    - region: NM
      exchange: '127830'
      name: Maxwell
      short_name: MAXWELL
      lata: '664'
      ilec_name: BACA VALLEY TEL. CO., INC.
      lat: '36.541802'
      long: "-104.539348"
    - region: NM
      exchange: '127840'
      name: Mayhill
      short_name: MAYHILL
      lata: '664'
      ilec_name: PENASCO VALLEY TEL. COOP., INC.
      lat: '32.892007'
      long: "-105.474162"
    - region: NM
      exchange: '343191'
      name: McIntosh
      short_name: MC INTOSH
      lata: '664'
      ilec_name: QWEST CORPORATION
      lat:
      long:
    - region: NM
      exchange: '127850'
      name: Melrose
      short_name: MELROSE
      lata: '664'
      ilec_name: ROOSEVELT COUNTY RURAL TEL. COOP., INC.
      lat: '34.434663'
      long: "-103.623913"
    - region: NM
      exchange: '343193'
      name: Mentmore
      short_name: MENTMORE
      lata: '664'
      ilec_name: QWEST CORPORATION
      lat:
      long:
    - region: NM
      exchange: '127860'
      name: Mescalero
      short_name: MESCALERO
      lata: '664'
      ilec_name: MESCALERO APACHE TELECOM, INC. - NM
      lat: '33.156133'
      long: "-105.771774"
    - region: NM
      exchange: '343195'
      name: Mesilla
      short_name: MESILLA
      lata: '664'
      ilec_name: QWEST CORPORATION
      lat:
      long:
    - region: NM
      exchange: '343196'
      name: Mesilla Park
      short_name: MESILLA PK
      lata: '664'
      ilec_name: QWEST CORPORATION
      lat:
      long:
    - region: NM
      exchange: '343197'
      name: Mesquite
      short_name: MESQUITE
      lata: '664'
      ilec_name: QWEST CORPORATION
      lat:
      long:
    - region: NM
      exchange: '343198'
      name: Mexican Springs
      short_name: MEXICANSPG
      lata: '664'
      ilec_name: NAVAJO COMM CO INC NM DBA NAVAJO COMM CO NM
      lat:
      long:
    - region: NM
      exchange: '343199'
      name: Miami
      short_name: MIAMI
      lata: '664'
      ilec_name: QWEST CORPORATION
      lat:
      long:
    - region: NM
      exchange: '343200'
      name: Milan
      short_name: MILAN
      lata: '664'
      ilec_name: QWEST CORPORATION
      lat:
      long:
    - region: NM
      exchange: '343201'
      name: Mills
      short_name: MILLS
      lata: '664'
      ilec_name: E.N.M.R. TEL COOP
      lat:
      long:
    - region: NM
      exchange: '127870'
      name: Milnesand
      short_name: MILNESAND
      lata: '664'
      ilec_name: ROOSEVELT COUNTY RURAL TEL. COOP., INC.
      lat: '33.639392'
      long: "-103.331582"
    - region: NM
      exchange: '127880'
      name: Mimbres
      short_name: MIMBRES
      lata: '664'
      ilec_name: WESTERN NEW MEXICO TEL. CO., INC.
      lat: '32.856161'
      long: "-107.976291"
    - region: NM
      exchange: '343204'
      name: Mogollon
      short_name: MOGOLLON
      lata: '664'
      ilec_name: WESTERN NEW MEXICO TEL. CO., INC.
      lat:
      long:
    - region: NM
      exchange: '343205'
      name: Montezuma
      short_name: MONTEZUMA
      lata: '664'
      ilec_name: QWEST CORPORATION
      lat:
      long:
    - region: NM
      exchange: '343206'
      name: Monticello
      short_name: MONTICELLO
      lata: '664'
      ilec_name: 'VALOR TELECOM TX,LP-NM #2 DBA WINDSTREAM COMM SW'
      lat:
      long:
    - region: NM
      exchange: '343207'
      name: Monument
      short_name: MONUMENT
      lata: '664'
      ilec_name: 'VALOR TELECOM TX,LP-NM #1 DBA WINDSTREAM COMM SW'
      lat:
      long:
    - region: NM
      exchange: '127890'
      name: Mora
      short_name: MORA
      lata: '664'
      ilec_name: LA JICARITA RURAL TEL. COOP., INC.
      lat: '35.972524'
      long: "-105.324504"
    - region: NM
      exchange: '127900'
      name: Moriarty
      short_name: MORIARTY
      lata: '664'
      ilec_name: QWEST CORPORATION
      lat: '35.001202'
      long: "-106.031284"
    - region: NM
      exchange: '127910'
      name: Mosquero
      short_name: MOSQUERO
      lata: '664'
      ilec_name: E.N.M.R. TEL COOP
      lat: '35.782738'
      long: "-103.960533"
    - region: NM
      exchange: '127920'
      name: Mountainair
      short_name: MOUNTAINAR
      lata: '664'
      ilec_name: QWEST CORPORATION
      lat: '34.526706'
      long: "-106.241374"
    - region: NM
      exchange: '343212'
      name: Mule Creek
      short_name: MULE CREEK
      lata: '664'
      ilec_name: WESTERN NEW MEXICO TEL. CO., INC.
      lat:
      long:
    - region: NM
      exchange: '343213'
      name: Nageezi
      short_name: NAGEEZI
      lata: '664'
      ilec_name: QWEST CORPORATION
      lat:
      long:
    - region: NM
      exchange: '127930'
      name: Nara Visa
      short_name: NARA VISA
      lata: '664'
      ilec_name: E.N.M.R. TEL COOP
      lat: '35.60866'
      long: "-103.10011"
    - region: NM
      exchange: '127940'
      name: Naschitti
      short_name: NASCHITTI
      lata: '664'
      ilec_name: NAVAJO COMM CO INC NM DBA NAVAJO COMM CO NM
      lat: '36.06482'
      long: "-108.683049"
    - region: NM
      exchange: '127950'
      name: Navajo
      short_name: NAVAJO
      lata: '664'
      ilec_name: NAVAJO COMM CO INC NM DBA NAVAJO COMM CO NM
      lat: '35.892408'
      long: "-108.995767"
    - region: NM
      exchange: '343217'
      name: Navajo Dam
      short_name: NAVAJO DAM
      lata: '664'
      ilec_name: QWEST CORPORATION
      lat:
      long:
    - region: NM
      exchange: '343218'
      name: New Laguna
      short_name: NEW LAGUNA
      lata: '664'
      ilec_name: QWEST CORPORATION
      lat:
      long:
    - region: NM
      exchange: '127960'
      name: Newcomb
      short_name: NEWCOMB
      lata: '664'
      ilec_name: NAVAJO COMM CO INC NM DBA NAVAJO COMM CO NM
      lat: '36.285446'
      long: "-108.710817"
    - region: NM
      exchange: '343220'
      name: Newkirk
      short_name: NEWKIRK
      lata: '664'
      ilec_name: E.N.M.R. TEL COOP
      lat:
      long:
    - region: NM
      exchange: '343221'
      name: Nogal
      short_name: NOGAL
      lata: '664'
      ilec_name: 'VALOR TELECOM TX,LP-NM #2 DBA WINDSTREAM COMM SW'
      lat:
      long:
    - region: NM
      exchange: '343222'
      name: Ocate
      short_name: OCATE
      lata: '664'
      ilec_name: LA JICARITA RURAL TEL. COOP., INC.
      lat:
      long:
    - region: NM
      exchange: '343223'
      name: Ohkay Owingeh
      short_name: OHKAYOWING
      lata: '664'
      ilec_name: 'VALOR TELECOM TX,LP-NM #2 DBA WINDSTREAM COMM SW'
      lat:
      long:
    - region: NM
      exchange: '343224'
      name: Oil Center
      short_name: OIL CENTER
      lata: '664'
      ilec_name: 'VALOR TELECOM TX,LP-NM #1 DBA WINDSTREAM COMM SW'
      lat:
      long:
    - region: NM
      exchange: '127970'
      name: Ojo Caliente
      short_name: OJOCALINTE
      lata: '664'
      ilec_name: 'VALOR TELECOM TX,LP-NM #2 DBA WINDSTREAM COMM SW'
      lat: '36.315095'
      long: "-106.043808"
    - region: NM
      exchange: '343225'
      name: Ojo Encino
      short_name: OJO ENCINO
      lata: '664'
      ilec_name: NAVAJO COMM CO INC NM DBA NAVAJO COMM CO NM
      lat:
      long:
    - region: NM
      exchange: '343226'
      name: Ojo Feliz
      short_name: OJO FELIZ
      lata: '664'
      ilec_name: LA JICARITA RURAL TEL. COOP., INC.
      lat:
      long:
    - region: NM
      exchange: '343227'
      name: Ojo Sarco
      short_name: OJO SARCO
      lata: '664'
      ilec_name: E.N.M.R. TEL COOP
      lat:
      long:
    - region: NM
      exchange: '343229'
      name: Old Laguna
      short_name: OLD LAGUNA
      lata: '664'
      ilec_name: QWEST CORPORATION
      lat:
      long:
    - region: NM
      exchange: '343230'
      name: Organ
      short_name: ORGAN
      lata: '664'
      ilec_name: QWEST CORPORATION
      lat:
      long:
    - region: NM
      exchange: '343231'
      name: Orogrande
      short_name: OROGRANDE
      lata: '664'
      ilec_name: QWEST CORPORATION
      lat:
      long:
    - region: NM
      exchange: '343232'
      name: Oscuro
      short_name: OSCURO
      lata: '664'
      ilec_name: TULAROSA BASIN TELEPHONE CO., INC.
      lat:
      long:
    - region: NM
      exchange: '343233'
      name: Paguate
      short_name: PAGUATE
      lata: '664'
      ilec_name: QWEST CORPORATION
      lat:
      long:
    - region: NM
      exchange: '343234'
      name: Pastura
      short_name: PASTURA
      lata: '664'
      ilec_name: E.N.M.R. TEL COOP
      lat:
      long:
    - region: NM
      exchange: '127980'
      name: Pecos
      short_name: PECOS
      lata: '664'
      ilec_name: CENTURYTEL SOUTHWEST INC-NM DBA CENTURYLINK - NM
      lat: '35.575886'
      long: "-105.676849"
    - region: NM
      exchange: '127990'
      name: Pena Blanca
      short_name: PENABLANCA
      lata: '664'
      ilec_name: QWEST CORPORATION
      lat: '35.57482'
      long: "-106.333729"
    - region: NM
      exchange: '128000'
      name: Penasco
      short_name: PENASCO
      lata: '664'
      ilec_name: QWEST CORPORATION
      lat: '36.182244'
      long: "-105.690116"
    - region: NM
      exchange: '343238'
      name: Pep
      short_name: PEP
      lata: '664'
      ilec_name: ROOSEVELT COUNTY RURAL TEL. COOP., INC.
      lat:
      long:
    - region: NM
      exchange: '343239'
      name: Peralta
      short_name: PERALTA
      lata: '664'
      ilec_name: QWEST CORPORATION
      lat:
      long:
    - region: NM
      exchange: '343240'
      name: Petaca
      short_name: PETACA
      lata: '664'
      ilec_name: 'VALOR TELECOM TX,LP-NM #2 DBA WINDSTREAM COMM SW'
      lat:
      long:
    - region: NM
      exchange: '343241'
      name: Picacho
      short_name: PICACHO
      lata: '664'
      ilec_name: PENASCO VALLEY TEL. COOP., INC.
      lat:
      long:
    - region: NM
      exchange: '343242'
      name: Pie Town
      short_name: PIE TOWN
      lata: '664'
      ilec_name: WESTERN NEW MEXICO TEL. CO., INC.
      lat:
      long:
    - region: NM
      exchange: '128010'
      name: Pine Hill
      short_name: PINE HILL
      lata: '664'
      ilec_name: CENTURYTEL SOUTHWEST INC-NM DBA CENTURYLINK - NM
      lat: '34.889374'
      long: "-108.415862"
    - region: NM
      exchange: '343244'
      name: Pinon
      short_name: PINON
      lata: '664'
      ilec_name: PENASCO VALLEY TEL. COOP., INC.
      lat:
      long:
    - region: NM
      exchange: '343245'
      name: Pinos Altos
      short_name: PINOSALTOS
      lata: '664'
      ilec_name: QWEST CORPORATION
      lat:
      long:
    - region: NM
      exchange: '343246'
      name: Placitas
      short_name: PLACITAS
      lata: '664'
      ilec_name: QWEST CORPORATION
      lat:
      long:
    - region: NM
      exchange: '128020'
      name: Playas
      short_name: PLAYAS
      lata: '664'
      ilec_name: VALLEY TEL COOP INC
      lat: '31.912645'
      long: "-108.539829"
    - region: NM
      exchange: '128030'
      name: Pleasant Hill
      short_name: PLEASANTHL
      lata: '664'
      ilec_name: E.N.M.R. TEL COOP
      lat: '34.517274'
      long: "-103.066294"
    - region: NM
      exchange: '128232'
      name: Pojoaque
      short_name: POJOAQUE
      lata: '664'
      ilec_name: QWEST CORPORATION
      lat:
      long:
    - region: NM
      exchange: '343250'
      name: Polvadera
      short_name: POLVADERA
      lata: '664'
      ilec_name: QWEST CORPORATION
      lat:
      long:
    - region: NM
      exchange: '343251'
      name: Ponderosa
      short_name: PONDEROSA
      lata: '664'
      ilec_name: 'VALOR TELECOM TX,LP-NM #2 DBA WINDSTREAM COMM SW'
      lat:
      long:
    - region: NM
      exchange: '128040'
      name: Portales
      short_name: PORTALES
      lata: '664'
      ilec_name: QWEST CORPORATION
      lat: '34.183784'
      long: "-103.326527"
    - region: NM
      exchange: '343253'
      name: Prewitt
      short_name: PREWITT
      lata: '664'
      ilec_name: QWEST CORPORATION
      lat:
      long:
    - region: NM
      exchange: '343254'
      name: Pubelitos
      short_name: PUBELITOS
      lata: '664'
      ilec_name: QWEST CORPORATION
      lat:
      long:
    - region: NM
      exchange: '343255'
      name: Pueblo Of Acoma
      short_name: PUBLOACOMA
      lata: '664'
      ilec_name: QWEST CORPORATION
      lat:
      long:
    - region: NM
      exchange: '128050'
      name: Pueblo Pintado
      short_name: PUEBLOPNTD
      lata: '664'
      ilec_name: NAVAJO COMM CO INC NM DBA NAVAJO COMM CO NM
      lat: '35.965573'
      long: "-107.65627"
    - region: NM
      exchange: '343257'
      name: Puerta De Luna
      short_name: PUERTALUNA
      lata: '664'
      ilec_name: E.N.M.R. TEL COOP
      lat:
      long:
    - region: NM
      exchange: '343258'
      name: Quay
      short_name: QUAY
      lata: '664'
      ilec_name: E.N.M.R. TEL COOP
      lat:
      long:
    - region: NM
      exchange: '128060'
      name: Queen
      short_name: QUEEN
      lata: '540'
      ilec_name: DELL TEL. CORP. INC. - NM
      lat: '32.16175'
      long: "-104.828031"
    - region: NM
      exchange: '128070'
      name: Quemado
      short_name: QUEMADO
      lata: '664'
      ilec_name: WESTERN NEW MEXICO TEL. CO., INC.
      lat: '34.342903'
      long: "-108.496156"
    - region: NM
      exchange: '128080'
      name: Questa
      short_name: QUESTA
      lata: '664'
      ilec_name: QWEST CORPORATION
      lat: '36.699467'
      long: "-105.59418"
    - region: NM
      exchange: '128090'
      name: Ragland
      short_name: RAGLAND
      lata: '664'
      ilec_name: E.N.M.R. TEL COOP
      lat: '34.776461'
      long: "-103.68304"
    - region: NM
      exchange: '343262'
      name: Rainsville
      short_name: RAINSVILLE
      lata: '664'
      ilec_name: LA JICARITA RURAL TEL. COOP., INC.
      lat:
      long:
    - region: NM
      exchange: '128100'
      name: Ramah
      short_name: RAMAH
      lata: '664'
      ilec_name: CENTURYTEL SOUTHWEST INC-NM DBA CENTURYLINK - NM
      lat: '35.132053'
      long: "-108.498364"
    - region: NM
      exchange: '343264'
      name: Ranchos De Taos
      short_name: RANCHOTAOS
      lata: '664'
      ilec_name: QWEST CORPORATION
      lat:
      long:
    - region: NM
      exchange: '128110'
      name: Ranchvale
      short_name: RANCHVALE
      lata: '664'
      ilec_name: E.N.M.R. TEL COOP
      lat: '34.492596'
      long: "-103.315483"
    - region: NM
      exchange: '128120'
      name: Raton
      short_name: RATON
      lata: '664'
      ilec_name: QWEST CORPORATION
      lat: '36.897512'
      long: "-104.431732"
    - region: NM
      exchange: '128130'
      name: Red River
      short_name: RED RIVER
      lata: '664'
      ilec_name: QWEST CORPORATION
      lat: '36.707318'
      long: "-105.406587"
    - region: NM
      exchange: '343268'
      name: Redrock
      short_name: REDROCK
      lata: '664'
      ilec_name: WESTERN NEW MEXICO TEL. CO., INC.
      lat:
      long:
    - region: NM
      exchange: '343269'
      name: Regina
      short_name: REGINA
      lata: '664'
      ilec_name: 'VALOR TELECOM TX,LP-NM #2 DBA WINDSTREAM COMM SW'
      lat:
      long:
    - region: NM
      exchange: '343270'
      name: Rehoboth
      short_name: REHOBOTH
      lata: '664'
      ilec_name: QWEST CORPORATION
      lat:
      long:
    - region: NM
      exchange: '128140'
      name: Reserve
      short_name: RESERVE
      lata: '664'
      ilec_name: WESTERN NEW MEXICO TEL. CO., INC.
      lat: '33.709919'
      long: "-108.768636"
    - region: NM
      exchange: '343272'
      name: Ribera
      short_name: RIBERA
      lata: '664'
      ilec_name: E.N.M.R. TEL COOP
      lat:
      long:
    - region: NM
      exchange: '343273'
      name: Rincon
      short_name: RINCON
      lata: '664'
      ilec_name: QWEST CORPORATION
      lat:
      long:
    - region: NM
      exchange: '343274'
      name: Rio Rancho
      short_name: RIO RANCHO
      lata: '664'
      ilec_name: QWEST CORPORATION
      lat:
      long:
    - region: NM
      exchange: '343280'
      name: Rio Rancho Estates
      short_name: RRNCHESTTS
      lata: '664'
      ilec_name: QWEST CORPORATION
      lat:
      long:
    - region: NM
      exchange: '343275'
      name: Road Forks
      short_name: ROAD FORKS
      lata: '664'
      ilec_name: WESTERN NEW MEXICO TEL. CO., INC.
      lat:
      long:
    - region: NM
      exchange: '343276'
      name: Rociada
      short_name: ROCIADA
      lata: '664'
      ilec_name: QWEST CORPORATION
      lat:
      long:
    - region: NM
      exchange: '128150'
      name: Rodeo
      short_name: RODEO
      lata: '668'
      ilec_name: VALLEY TEL COOP INC
      lat: '31.831726'
      long: "-109.026837"
    - region: NM
      exchange: '343277'
      name: Rogers
      short_name: ROGERS
      lata: '664'
      ilec_name: ROOSEVELT COUNTY RURAL TEL. COOP., INC.
      lat:
      long:
    - region: NM
      exchange: '128160'
      name: Roswell
      short_name: ROSWELL
      lata: '664'
      ilec_name: QWEST CORPORATION
      lat: '33.400514'
      long: "-104.522239"
    - region: NM
      exchange: '128170'
      name: Roy
      short_name: ROY
      lata: '664'
      ilec_name: E.N.M.R. TEL COOP
      lat: '35.949292'
      long: "-104.191768"
    - region: NM
      exchange: '128180'
      name: Ruidoso
      short_name: RUIDOSO
      lata: '664'
      ilec_name: 'VALOR TELECOM TX,LP-NM #2 DBA WINDSTREAM COMM SW'
      lat: '33.332539'
      long: "-105.685732"
    - region: NM
      exchange: '128190'
      name: Ruidoso Downs
      short_name: RUIDOSODWN
      lata: '664'
      ilec_name: 'VALOR TELECOM TX,LP-NM #2 DBA WINDSTREAM COMM SW'
      lat: '33.333535'
      long: "-105.594031"
    - region: NM
      exchange: '343283'
      name: Rutheron
      short_name: RUTHERON
      lata: '664'
      ilec_name: 'VALOR TELECOM TX,LP-NM #2 DBA WINDSTREAM COMM SW'
      lat:
      long:
    - region: NM
      exchange: '343284'
      name: Sabinal
      short_name: SABINAL
      lata: '664'
      ilec_name: QWEST CORPORATION
      lat:
      long:
    - region: NM
      exchange: '334567'
      name: Sacramento
      short_name: SACRAMENTO
      lata: '540'
      ilec_name: DELL TEL. CORP. INC. - NM
      lat:
      long:
    - region: NM
      exchange: '343285'
      name: Salem
      short_name: SALEM
      lata: '664'
      ilec_name: QWEST CORPORATION
      lat:
      long:
    - region: NM
      exchange: '343286'
      name: San Acacia
      short_name: SAN ACACIA
      lata: '664'
      ilec_name: QWEST CORPORATION
      lat:
      long:
    - region: NM
      exchange: '343294'
      name: San Antonio
      short_name: SANANTONIO
      lata: '664'
      ilec_name: QWEST CORPORATION
      lat:
      long:
    - region: NM
      exchange: '343314'
      name: San Antonito
      short_name: SNANTONITO
      lata: '664'
      ilec_name: QWEST CORPORATION
      lat:
      long:
    - region: NM
      exchange: '343287'
      name: San Fidel
      short_name: SAN FIDEL
      lata: '664'
      ilec_name: QWEST CORPORATION
      lat:
      long:
    - region: NM
      exchange: '343288'
      name: San Francsico
      short_name: SAN FRAN
      lata: '664'
      ilec_name: QWEST CORPORATION
      lat:
      long:
    - region: NM
      exchange: '343298'
      name: San Ildefonso
      short_name: SANILDENFN
      lata: '664'
      ilec_name: QWEST CORPORATION
      lat:
      long:
    - region: NM
      exchange: '128200'
      name: San Jon
      short_name: SAN JON
      lata: '664'
      ilec_name: E.N.M.R. TEL COOP
      lat: '35.106978'
      long: "-103.335913"
    - region: NM
      exchange: '343290'
      name: San Jose
      short_name: SAN JOSE
      lata: '664'
      ilec_name: E.N.M.R. TEL COOP
      lat:
      long:
    - region: NM
      exchange: '343299'
      name: San Juan Pueblo
      short_name: SANJUANPUB
      lata: '664'
      ilec_name: 'VALOR TELECOM TX,LP-NM #2 DBA WINDSTREAM COMM SW'
      lat:
      long:
    - region: NM
      exchange: '343300'
      name: San Lorenzo
      short_name: SANLORENZO
      lata: '664'
      ilec_name: WESTERN NEW MEXICO TEL. CO., INC.
      lat:
      long:
    - region: NM
      exchange: '343291'
      name: San Mateo
      short_name: SAN MATEO
      lata: '664'
      ilec_name: QWEST CORPORATION
      lat:
      long:
    - region: NM
      exchange: '343315'
      name: San Patricio
      short_name: SNPATRICIO
      lata: '664'
      ilec_name: PENASCO VALLEY TEL. COOP., INC.
      lat:
      long:
    - region: NM
      exchange: '343292'
      name: San Rafael
      short_name: SAN RAFAEL
      lata: '664'
      ilec_name: QWEST CORPORATION
      lat:
      long:
    - region: NM
      exchange: '128210'
      name: San Ysidro
      short_name: SAN YSIDRO
      lata: '664'
      ilec_name: 'VALOR TELECOM TX,LP-NM #2 DBA WINDSTREAM COMM SW'
      lat: '35.554611'
      long: "-106.779658"
    - region: NM
      exchange: '343295'
      name: Sandia Park
      short_name: SANDIAPARK
      lata: '664'
      ilec_name: QWEST CORPORATION
      lat:
      long:
    - region: NM
      exchange: '343296'
      name: Sandia Pueblo
      short_name: SANDIAPUEB
      lata: '664'
      ilec_name: QWEST CORPORATION
      lat:
      long:
    - region: NM
      exchange: '128220'
      name: Sanostee
      short_name: SANOSTEE
      lata: '664'
      ilec_name: NAVAJO COMM CO INC NM DBA NAVAJO COMM CO NM
      lat: '36.425299'
      long: "-108.876751"
    - region: NM
      exchange: '343305'
      name: Santa Ana Pueblo
      short_name: SANTAANAPB
      lata: '664'
      ilec_name: QWEST CORPORATION
      lat:
      long:
    - region: NM
      exchange: '343302'
      name: Santa Cruz
      short_name: SANTA CRUZ
      lata: '664'
      ilec_name: 'VALOR TELECOM TX,LP-NM #2 DBA WINDSTREAM COMM SW'
      lat:
      long:
    - region: NM
      exchange: '128230'
      name: Santa Fe
      short_name: SANTA FE
      lata: '664'
      ilec_name: QWEST CORPORATION
      lat: '35.68502'
      long: "-105.948183"
    - region: NM
      exchange: '128240'
      name: Santa Rosa
      short_name: SANTA ROSA
      lata: '664'
      ilec_name: E.N.M.R. TEL COOP
      lat: '34.940819'
      long: "-104.68359"
    - region: NM
      exchange: '128250'
      name: Santa Teresa
      short_name: SNA TERESA
      lata: '664'
      ilec_name: QWEST CORPORATION
      lat: '31.86039'
      long: "-106.688217"
    - region: NM
      exchange: '343297'
      name: Santo Domingo Pueblo
      short_name: SANDOMINGP
      lata: '664'
      ilec_name: QWEST CORPORATION
      lat:
      long:
    - region: NM
      exchange: '343306'
      name: Sapello
      short_name: SAPELLO
      lata: '664'
      ilec_name: QWEST CORPORATION
      lat:
      long:
    - region: NM
      exchange: '343307'
      name: Seboyeta
      short_name: SEBOYETA
      lata: '664'
      ilec_name: QWEST CORPORATION
      lat:
      long:
    - region: NM
      exchange: '343308'
      name: Sedan
      short_name: SEDAN
      lata: '664'
      ilec_name: E.N.M.R. TEL COOP
      lat:
      long:
    - region: NM
      exchange: '343309'
      name: Sena
      short_name: SENA
      lata: '664'
      ilec_name: QWEST CORPORATION
      lat:
      long:
    - region: NM
      exchange: '343310'
      name: Seneca
      short_name: SENECA
      lata: '664'
      ilec_name: E.N.M.R. TEL COOP
      lat:
      long:
    - region: NM
      exchange: '128260'
      name: Shiprock
      short_name: SHIPROCK
      lata: '664'
      ilec_name: NAVAJO COMM CO INC NM DBA NAVAJO COMM CO NM
      lat: '36.785315'
      long: "-108.683098"
    - region: NM
      exchange: '128270'
      name: Silver City
      short_name: SILVERCITY
      lata: '664'
      ilec_name: QWEST CORPORATION
      lat: '32.77578'
      long: "-108.272815"
    - region: NM
      exchange: '128280'
      name: Socorro
      short_name: SOCORRO
      lata: '664'
      ilec_name: QWEST CORPORATION
      lat: '34.056401'
      long: "-106.889765"
    - region: NM
      exchange: '343318'
      name: Solano
      short_name: SOLANO
      lata: '664'
      ilec_name: E.N.M.R. TEL COOP
      lat:
      long:
    - region: NM
      exchange: '128290'
      name: South Clovis
      short_name: SO CLOVIS
      lata: '664'
      ilec_name: E.N.M.R. TEL COOP
      lat: '34.351534'
      long: "-103.406023"
    - region: NM
      exchange: '128300'
      name: Springer
      short_name: SPRINGER
      lata: '664'
      ilec_name: QWEST CORPORATION
      lat: '36.356605'
      long: "-104.592675"
    - region: NM
      exchange: '343320'
      name: Stanley
      short_name: STANLEY
      lata: '664'
      ilec_name: QWEST CORPORATION
      lat:
      long:
    - region: NM
      exchange: '343321'
      name: Stead
      short_name: STEAD
      lata: '664'
      ilec_name: E.N.M.R. TEL COOP
      lat:
      long:
    - region: NM
      exchange: '343322'
      name: Sunland Park
      short_name: SUNDLANDPK
      lata: '664'
      ilec_name: QWEST CORPORATION
      lat:
      long:
    - region: NM
      exchange: '343323'
      name: Taiban
      short_name: TAIBAN
      lata: '664'
      ilec_name: E.N.M.R. TEL COOP
      lat:
      long:
    - region: NM
      exchange: '343324'
      name: Tajique
      short_name: TAJIQUE
      lata: '664'
      ilec_name: QWEST CORPORATION
      lat:
      long:
    - region: NM
      exchange: '343325'
      name: Tamaya
      short_name: TAMAYA
      lata: '664'
      ilec_name: QWEST CORPORATION
      lat:
      long:
    - region: NM
      exchange: '128310'
      name: Taos
      short_name: TAOS
      lata: '664'
      ilec_name: QWEST CORPORATION
      lat: '36.410494'
      long: "-105.576341"
    - region: NM
      exchange: '128320'
      name: Tatum
      short_name: TATUM
      lata: '664'
      ilec_name: LEACO RURAL TEL. COOP., INC.
      lat: '33.260438'
      long: "-103.318354"
    - region: NM
      exchange: '343328'
      name: Tererro
      short_name: TERERRO
      lata: '664'
      ilec_name: CENTURYTEL SOUTHWEST INC-NM DBA CENTURYLINK - NM
      lat:
      long:
    - region: NM
      exchange: '128330'
      name: Texico
      short_name: TEXICO
      lata: '664'
      ilec_name: ROOSEVELT COUNTY RURAL TEL. COOP., INC.
      lat: '34.400275'
      long: "-103.048657"
    - region: NM
      exchange: '343330'
      name: Thoreau
      short_name: THOREAU
      lata: '664'
      ilec_name: QWEST CORPORATION
      lat:
      long:
    - region: NM
      exchange: '128340'
      name: Tierra Amarilla
      short_name: TIERRAAMRL
      lata: '664'
      ilec_name: 'VALOR TELECOM TX,LP-NM #2 DBA WINDSTREAM COMM SW'
      lat: '36.710105'
      long: "-106.559535"
    - region: NM
      exchange: '128350'
      name: Tijeras
      short_name: TIJERAS
      lata: '664'
      ilec_name: QWEST CORPORATION
      lat: '35.084999'
      long: "-106.379578"
    - region: NM
      exchange: '128360'
      name: Timberon
      short_name: TIMBERON
      lata: '540'
      ilec_name: DELL TEL. CORP. INC. - NM
      lat: '32.643932'
      long: "-105.676709"
    - region: NM
      exchange: '343333'
      name: Tinnie
      short_name: TINNIE
      lata: '664'
      ilec_name: PENASCO VALLEY TEL. COOP., INC.
      lat:
      long:
    - region: NM
      exchange: '128370'
      name: Toadlena
      short_name: TOADLENA
      lata: '664'
      ilec_name: NAVAJO COMM CO INC NM DBA NAVAJO COMM CO NM
      lat: '36.242061'
      long: "-108.912489"
    - region: NM
      exchange: '343335'
      name: Tohajiilee
      short_name: TOHAJIILEE
      lata: '664'
      ilec_name: QWEST CORPORATION
      lat:
      long:
    - region: NM
      exchange: '128380'
      name: Tohatchi
      short_name: TOHATCHI
      lata: '664'
      ilec_name: NAVAJO COMM CO INC NM DBA NAVAJO COMM CO NM
      lat: '35.858492'
      long: "-108.767571"
    - region: NM
      exchange: '128390'
      name: Torreon
      short_name: TORREON
      lata: '664'
      ilec_name: NAVAJO COMM CO INC NM DBA NAVAJO COMM CO NM
      lat: '35.8087'
      long: "-107.299843"
    - region: NM
      exchange: '343338'
      name: Trampas
      short_name: TRAMPAS
      lata: '664'
      ilec_name: 'VALOR TELECOM TX,LP-NM #2 DBA WINDSTREAM COMM SW'
      lat:
      long:
    - region: NM
      exchange: '128400'
      name: Trementina
      short_name: TREMENTINA
      lata: '664'
      ilec_name: E.N.M.R. TEL COOP
      lat: '35.460386'
      long: "-104.498026"
    - region: NM
      exchange: '128410'
      name: Truchas
      short_name: TRUCHAS
      lata: '664'
      ilec_name: 'VALOR TELECOM TX,LP-NM #2 DBA WINDSTREAM COMM SW'
      lat: '36.041517'
      long: "-105.806668"
    - region: NM
      exchange: '128420'
      name: Truth or Consequences
      short_name: TRUTHCQNCS
      lata: '664'
      ilec_name: 'VALOR TELECOM TX,LP-NM #2 DBA WINDSTREAM COMM SW'
      lat: '33.132658'
      long: "-107.251158"
    - region: NM
      exchange: '128430'
      name: Tse Bonito
      short_name: TSE BONITO
      lata: '664'
      ilec_name: NAVAJO COMM CO INC NM DBA NAVAJO COMM CO NM
      lat: '35.658863'
      long: "-109.041466"
    - region: NM
      exchange: '128440'
      name: Tucumcari
      short_name: TUCUMCARI
      lata: '664'
      ilec_name: QWEST CORPORATION
      lat: '35.176878'
      long: "-103.72573"
    - region: NM
      exchange: '128450'
      name: Tularosa
      short_name: TULAROSA
      lata: '664'
      ilec_name: TULAROSA BASIN TELEPHONE CO., INC.
      lat: '33.072944'
      long: "-106.017587"
    - region: NM
      exchange: '343345'
      name: Turn
      short_name: TURN
      lata: '664'
      ilec_name: QWEST CORPORATION
      lat:
      long:
    - region: NM
      exchange: '128460'
      name: Twin Lakes
      short_name: TWIN LAKES
      lata: '664'
      ilec_name: NAVAJO COMM CO INC NM DBA NAVAJO COMM CO NM
      lat: '35.710815'
      long: "-108.768765"
    - region: NM
      exchange: '343347'
      name: Ute Park
      short_name: UTE PARK
      lata: '664'
      ilec_name: QWEST CORPORATION
      lat:
      long:
    - region: NM
      exchange: '343348'
      name: Vadito
      short_name: VADITO
      lata: '664'
      ilec_name: QWEST CORPORATION
      lat:
      long:
    - region: NM
      exchange: '343349'
      name: Vado
      short_name: VADO
      lata: '664'
      ilec_name: QWEST CORPORATION
      lat:
      long:
    - region: NM
      exchange: '343350'
      name: Valdez
      short_name: VALDEZ
      lata: '664'
      ilec_name: QWEST CORPORATION
      lat:
      long:
    - region: NM
      exchange: '128470'
      name: Vallecitos
      short_name: VALLECITOS
      lata: '664'
      ilec_name: 'VALOR TELECOM TX,LP-NM #2 DBA WINDSTREAM COMM SW'
      lat: '36.489876'
      long: "-106.110705"
    - region: NM
      exchange: '343352'
      name: Valmora
      short_name: VALMORA
      lata: '664'
      ilec_name: QWEST CORPORATION
      lat:
      long:
    - region: NM
      exchange: '343353'
      name: Vanadium
      short_name: VANADIUM
      lata: '664'
      ilec_name: QWEST CORPORATION
      lat:
      long:
    - region: NM
      exchange: '128480'
      name: Vanderwagen
      short_name: VANDERWGON
      lata: '664'
      ilec_name: CENTURYTEL SOUTHWEST INC-NM DBA CENTURYLINK - NM
      lat: '35.264273'
      long: "-108.75637"
    - region: NM
      exchange: '128490'
      name: Vaughn
      short_name: VAUGHN
      lata: '664'
      ilec_name: E.N.M.R. TEL COOP
      lat: '34.606471'
      long: "-105.216041"
    - region: NM
      exchange: '343356'
      name: Veguita
      short_name: VEGUITA
      lata: '664'
      ilec_name: QWEST CORPORATION
      lat:
      long:
    - region: NM
      exchange: '128500'
      name: Velarde
      short_name: VELARDE
      lata: '664'
      ilec_name: 'VALOR TELECOM TX,LP-NM #2 DBA WINDSTREAM COMM SW'
      lat: '36.104421'
      long: "-106.049298"
    - region: NM
      exchange: '343358'
      name: Village Of Los Ranchos
      short_name: VL LOSRNCH
      lata: '664'
      ilec_name: QWEST CORPORATION
      lat:
      long:
    - region: NM
      exchange: '128510'
      name: Virden
      short_name: VIRDEN
      lata: '668'
      ilec_name: COPPER VALLEY TELEPHONE, INC.
      lat: '32.681084'
      long: "-108.999543"
    - region: NM
      exchange: '128520'
      name: Wagon Mound
      short_name: WAGONMOUND
      lata: '664'
      ilec_name: LA JICARITA RURAL TEL. COOP., INC.
      lat: '36.010962'
      long: "-104.701089"
    - region: NM
      exchange: '343360'
      name: Waterflow
      short_name: WATERFLOW
      lata: '664'
      ilec_name: QWEST CORPORATION
      lat:
      long:
    - region: NM
      exchange: '343361'
      name: Watrous
      short_name: WATROUS
      lata: '664'
      ilec_name: QWEST CORPORATION
      lat:
      long:
    - region: NM
      exchange: '128530'
      name: Weber City
      short_name: WEBER CITY
      lata: '664'
      ilec_name: E.N.M.R. TEL COOP
      lat: '34.634116'
      long: "-103.569244"
    - region: NM
      exchange: '343363'
      name: Weed
      short_name: WEED
      lata: '664'
      ilec_name: PENASCO VALLEY TEL. COOP., INC.
      lat:
      long:
    - region: NM
      exchange: '128540'
      name: White Lakes
      short_name: WHITELAKES
      lata: '664'
      ilec_name: E.N.M.R. TEL COOP
      lat: '35.335278'
      long: "-105.758795"
    - region: NM
      exchange: '343367'
      name: White Oaks
      short_name: WHITEOAKS
      lata: '664'
      ilec_name: TULAROSA BASIN TELEPHONE CO., INC.
      lat:
      long:
    - region: NM
      exchange: '128550'
      name: White Rock
      short_name: WHITE ROCK
      lata: '664'
      ilec_name: QWEST CORPORATION
      lat: '35.832107'
      long: "-106.200545"
    - region: NM
      exchange: '127691'
      name: White Sands
      short_name: WHITESANDS
      lata: '664'
      ilec_name: QWEST CORPORATION
      lat:
      long:
    - region: NM
      exchange: '343365'
      name: White Sands Missile Range
      short_name: WHITE SMR
      lata: '664'
      ilec_name: QWEST CORPORATION
      lat:
      long:
    - region: NM
      exchange: '343368'
      name: Whites City
      short_name: WHITESCITY
      lata: '664'
      ilec_name: 'VALOR TELECOM TX,LP-NM #1 DBA WINDSTREAM COMM SW'
      lat:
      long:
    - region: NM
      exchange: '343370'
      name: Willard
      short_name: WILLARD
      lata: '664'
      ilec_name: QWEST CORPORATION
      lat:
      long:
    - region: NM
      exchange: '343369'
      name: Williamsburg
      short_name: WILLAIMBRG
      lata: '664'
      ilec_name: 'VALOR TELECOM TX,LP-NM #2 DBA WINDSTREAM COMM SW'
      lat:
      long:
    - region: NM
      exchange: '343371'
      name: Winston
      short_name: WINSTON
      lata: '664'
      ilec_name: 'VALOR TELECOM TX,LP-NM #2 DBA WINDSTREAM COMM SW'
      lat:
      long:
    - region: NM
      exchange: '343372'
      name: Yeso
      short_name: YESO
      lata: '664'
      ilec_name: E.N.M.R. TEL COOP
      lat:
      long:
    - region: NM
      exchange: '343373'
      name: Zia Pueblo
      short_name: ZIA PUEBLO
      lata: '664'
      ilec_name: 'VALOR TELECOM TX,LP-NM #2 DBA WINDSTREAM COMM SW'
      lat:
      long:
    - region: NM
      exchange: '128560'
      name: Zuni
      short_name: ZUNI
      lata: '664'
      ilec_name: CENTURYTEL SOUTHWEST INC-NM DBA CENTURYLINK - NM
      lat: '35.070331'
      long: "-108.853532"
