---
rate_centers:
- country: US
  region: NV
  exchange: '345064'
  name: Adam Peak
  short_name: ADAM PEAK
  lata: '720'
  ilec_name: HUMBOLDT TELEPHONE COMPANY
  lat:
  long:
- country: US
  region: NV
  exchange: '130670'
  name: Alamo
  short_name: ALAMO
  lata: '720'
  ilec_name: LINCOLN COUNTY TEL. SYSTEM, INC.
  lat: '37.362436'
  long: "-115.167031"
  closest_city:
    name: Alamo
    distance:
      value: 1.63
      units: km
- country: US
  region: NV
  exchange: '345066'
  name: Alder Creek
  short_name: ALDERCREEK
  lata: '720'
  ilec_name: HUMBOLDT TELEPHONE COMPANY
  lat:
  long:
- country: US
  region: NV
  exchange: '345067'
  name: Alta Creek
  short_name: ALTA CREEK
  lata: '720'
  ilec_name: HUMBOLDT TELEPHONE COMPANY
  lat:
  long:
- country: US
  region: NV
  exchange: '345252'
  name: Amargosa Valley
  short_name: AMARGSAVLY
  lata: '721'
  ilec_name: NEVADA BELL
  lat:
  long:
- country: US
  region: NV
  exchange: '345068'
  name: Antelope Valley
  short_name: ANTELOPEVY
  lata: '720'
  ilec_name: RURAL TEL CO
  lat:
  long:
- country: US
  region: NV
  exchange: '345069'
  name: Argenta
  short_name: ARGENTA
  lata: '720'
  ilec_name: NEVADA BELL
  lat:
  long:
- country: US
  region: NV
  exchange: '130680'
  name: Austin
  short_name: AUSTIN
  lata: '720'
  ilec_name: NEVADA BELL
  lat: '39.491415'
  long: "-117.075559"
  closest_city:
    name: Austin
    distance:
      value: 0.7
      units: km
- country: US
  region: NV
  exchange: '130690'
  name: Baker
  short_name: BAKER
  lata: '720'
  ilec_name: NEVADA BELL
  lat: '39.001965'
  long: "-114.126805"
  closest_city:
    name: Baker
    distance:
      value: 1.48
      units: km
- country: US
  region: NV
  exchange: '345072'
  name: Barth
  short_name: BARTH
  lata: '720'
  ilec_name: NEVADA BELL
  lat:
  long:
- country: US
  region: NV
  exchange: '130700'
  name: Battle Mountain
  short_name: BATTLE MT
  lata: '720'
  ilec_name: NEVADA BELL
  lat: '40.641424'
  long: "-116.932437"
  closest_city:
    name: Battle Mountain
    distance:
      value: 2.08
      units: km
- country: US
  region: NV
  exchange: '130710'
  name: Beatty
  short_name: BEATTY
  lata: '721'
  ilec_name: NEVADA BELL
  lat: '36.908663'
  long: "-116.755392"
  closest_city:
    name: Beatty
    distance:
      value: 4.72
      units: km
- country: US
  region: NV
  exchange: '345074'
  name: Beowawe
  short_name: BEOWAWE
  lata: '720'
  ilec_name: NEVADA BELL
  lat:
  long:
- country: US
  region: NV
  exchange: '345075'
  name: Big Creek
  short_name: BIG CREEK
  lata: '720'
  ilec_name: HUMBOLDT TELEPHONE COMPANY
  lat:
  long:
- country: US
  region: NV
  exchange: '130720'
  name: Blue Diamond
  short_name: BLUEDIAMND
  lata: '721'
  ilec_name: CENTRAL TEL. CO. - NEVADA DBA CENTURYLINK
  lat: '36.057186'
  long: "-115.399112"
  closest_city:
    name: Blue Diamond
    distance:
      value: 2.27
      units: km
- country: US
  region: NV
  exchange: '345076'
  name: Bog Hot
  short_name: BOG HOT
  lata: '720'
  ilec_name: HUMBOLDT TELEPHONE COMPANY
  lat:
  long:
- country: US
  region: NV
  exchange: '345077'
  name: Bottle Creek
  short_name: BOTTLE CRK
  lata: '720'
  ilec_name: HUMBOLDT TELEPHONE COMPANY
  lat:
  long:
- country: US
  region: NV
  exchange: '130730'
  name: Boulder City
  short_name: BOULDER CY
  lata: '721'
  ilec_name: CENTRAL TEL. CO. - NEVADA DBA CENTURYLINK
  lat: '35.976207'
  long: "-114.831698"
  closest_city:
    name: Boulder City
    distance:
      value: 17.28
      units: km
- country: US
  region: NV
  exchange: '342524'
  name: Bunkerville
  short_name: BUNKERVL
  lata: '660'
  ilec_name: RIO VIRGIN TEL. CO., INC.
  lat:
  long:
- country: US
  region: NV
  exchange: '130740'
  name: Burbank
  short_name: BURBANK
  lata: '720'
  ilec_name: BEEHIVE TELEPHONE CO., INC. -  NEVADA
  lat: '39.011426'
  long: "-114.568303"
  closest_city:
    name: Ely
    distance:
      value: 38.41
      units: km
- country: US
  region: NV
  exchange: '345255'
  name: Cactus Springs
  short_name: CACTUS SPG
  lata: '721'
  ilec_name: NEVADA BELL
  lat:
  long:
- country: US
  region: NV
  exchange: '345256'
  name: Calico Basin
  short_name: CALICO BSN
  lata: '721'
  ilec_name: CENTRAL TEL. CO. - NEVADA DBA CENTURYLINK
  lat:
  long:
- country: US
  region: NV
  exchange: '130750'
  name: Caliente
  short_name: CALIENTE
  lata: '720'
  ilec_name: LINCOLN COUNTY TEL. SYSTEM, INC.
  lat: '37.610116'
  long: "-114.508708"
  closest_city:
    name: Caliente
    distance:
      value: 4.21
      units: km
- country: US
  region: NV
  exchange: '345257'
  name: Callville Bay
  short_name: CALLVL BAY
  lata: '721'
  ilec_name: CENTRAL TEL. CO. - NEVADA DBA CENTURYLINK
  lat:
  long:
- country: US
  region: NV
  exchange: '130760'
  name: Carlin
  short_name: CARLIN
  lata: '720'
  ilec_name: CITIZENS TELECOMM CO OF NV DBA FRONTIER COMM OF NV
  lat: '40.716297'
  long: "-116.108885"
  closest_city:
    name: Carlin
    distance:
      value: 0.31
      units: km
- country: US
  region: NV
  exchange: '130770'
  name: Carson City
  short_name: CARSONCITY
  lata: '720'
  ilec_name: NEVADA BELL
  lat: '39.177083'
  long: "-119.765442"
  closest_city:
    name: Carson City
    distance:
      value: 3.27
      units: km
- country: US
  region: NV
  exchange: '130780'
  name: Carson Plains
  short_name: CARSON PL
  lata: '720'
  ilec_name: NEVADA BELL
  lat: '39.304958'
  long: "-119.523085"
  closest_city:
    name: Dayton
    distance:
      value: 6.25
      units: km
- country: US
  region: NV
  exchange: '345085'
  name: Caselton
  short_name: CASELTON
  lata: '720'
  ilec_name: LINCOLN COUNTY TEL. SYSTEM, INC.
  lat:
  long:
- country: US
  region: NV
  exchange: '345086'
  name: Cave Rock
  short_name: CAVE ROCK
  lata: '720'
  ilec_name: FRONTIER COMMUNICATIONS OF THE SOUTHWEST INC. - NV
  lat:
  long:
- country: US
  region: NV
  exchange: '345087'
  name: China Garden
  short_name: CHINAGARDN
  lata: '720'
  ilec_name: NEVADA BELL
  lat:
  long:
- country: US
  region: NV
  exchange: '345088'
  name: Churchill
  short_name: CHURCHILL
  lata: '720'
  ilec_name: NEVADA BELL
  lat:
  long:
- country: US
  region: NV
  exchange: '345089'
  name: Churchill Butte
  short_name: CHURCHLBTE
  lata: '720'
  ilec_name: NEVADA BELL
  lat:
  long:
- country: US
  region: NV
  exchange: '345258'
  name: City Center
  short_name: CITYCENTER
  lata: '721'
  ilec_name: CENTRAL TEL. CO. - NEVADA DBA CENTURYLINK
  lat:
  long:
- country: US
  region: NV
  exchange: '345259'
  name: Cold Creek
  short_name: COLD CREEK
  lata: '721'
  ilec_name: CENTRAL TEL. CO. - NEVADA DBA CENTURYLINK
  lat:
  long:
- country: US
  region: NV
  exchange: '345090'
  name: Cold Springs
  short_name: COLD SPG
  lata: '720'
  ilec_name: CHURCHILL COUNTY TELEPHONE DBA CC COMMUNICATIONS
  lat:
  long:
- country: US
  region: NV
  exchange: '345260'
  name: Corn Creek
  short_name: CORN CREEK
  lata: '721'
  ilec_name: CENTRAL TEL. CO. - NEVADA DBA CENTURYLINK
  lat:
  long:
- country: US
  region: NV
  exchange: '345091'
  name: Cortez
  short_name: CORTEZ
  lata: '720'
  ilec_name: NEVADA BELL
  lat:
  long:
- country: US
  region: NV
  exchange: '345261'
  name: Cottonwood Cove
  short_name: COTTONWDCV
  lata: '721'
  ilec_name: CENTRAL TEL. CO. - NEVADA DBA CENTURYLINK
  lat:
  long:
- country: US
  region: NV
  exchange: '130800'
  name: Cottonwood Creek
  short_name: COTNWD CRK
  lata: '720'
  ilec_name: NEVADA BELL
  lat: '39.763266'
  long: "-119.599956"
  closest_city:
    name: Spanish Springs
    distance:
      value: 13.25
      units: km
- country: US
  region: NV
  exchange: '345093'
  name: Cove Creek
  short_name: COVE CREEK
  lata: '720'
  ilec_name: HUMBOLDT TELEPHONE COMPANY
  lat:
  long:
- country: US
  region: NV
  exchange: '219420'
  name: Coyote Springs
  short_name: COYOTE SPG
  lata: '721'
  ilec_name: LINCOLN COUNTY TEL. SYSTEM, INC.
  lat: '36.824794'
  long: "-114.910341"
  closest_city:
    name: Moapa Town
    distance:
      value: 28.56
      units: km
- country: US
  region: NV
  exchange: '130810'
  name: Crescent Valley
  short_name: CRESCNTVLY
  lata: '720'
  ilec_name: NEVADA BELL
  lat: '40.420499'
  long: "-116.600989"
  closest_city:
    name: Crescent Valley
    distance:
      value: 2.18
      units: km
- country: US
  region: NV
  exchange: '130820'
  name: Crystal Bay
  short_name: CRYSTALBAY
  lata: '720'
  ilec_name: NEVADA BELL
  lat: '39.222877'
  long: "-120.00183"
  closest_city:
    name: Crystal Bay
    distance:
      value: 0.95
      units: km
- country: US
  region: NV
  exchange: '345096'
  name: Currant
  short_name: CURRANT
  lata: '720'
  ilec_name: NEVADA BELL
  lat:
  long:
- country: US
  region: NV
  exchange: '345097'
  name: Daveytown
  short_name: DAVEYTOWN
  lata: '720'
  ilec_name: HUMBOLDT TELEPHONE COMPANY
  lat:
  long:
- country: US
  region: NV
  exchange: '130771'
  name: Dayton
  short_name: Dayton
  lata: '720'
  ilec_name: NEVADA BELL
  lat: '39.177083'
  long: "-119.765442"
  closest_city:
    name: Carson City
    distance:
      value: 3.27
      units: km
- country: US
  region: NV
  exchange: '345100'
  name: Deer Creek (Humboldt)
  short_name: DEER CREEK
  lata: '720'
  ilec_name: HUMBOLDT TELEPHONE COMPANY
  lat:
  long:
- country: US
  region: NV
  exchange: '345101'
  name: Deeth
  short_name: DEETH
  lata: '720'
  ilec_name: CITIZENS TELECOMM CO OF NV DBA FRONTIER COMM OF NV
  lat:
  long:
- country: US
  region: NV
  exchange: '130830'
  name: Denio
  short_name: DENIO
  lata: '720'
  ilec_name: HUMBOLDT TELEPHONE COMPANY
  lat: '41.766282'
  long: "-118.730628"
  closest_city:
    name: Denio
    distance:
      value: 25.92
      units: km
- country: US
  region: NV
  exchange: '130840'
  name: Desert Valley
  short_name: DESERT VLY
  lata: '720'
  ilec_name: HUMBOLDT TELEPHONE COMPANY
  lat: '41.50569'
  long: "-118.123278"
  closest_city:
    name: Orovada
    distance:
      value: 25.42
      units: km
- country: US
  region: NV
  exchange: '345104'
  name: Diamond Valley
  short_name: DIAMONDVLY
  lata: '720'
  ilec_name: NEVADA BELL
  lat:
  long:
- country: US
  region: NV
  exchange: '345105'
  name: Dixie Valley
  short_name: DIXIE  VLY
  lata: '720'
  ilec_name: CHURCHILL COUNTY TELEPHONE DBA CC COMMUNICATIONS
  lat:
  long:
- country: US
  region: NV
  exchange: '345106'
  name: Duckwater
  short_name: DUCKWATER
  lata: '720'
  ilec_name: NEVADA BELL
  lat:
  long:
- country: US
  region: NV
  exchange: '130850'
  name: Duckwater-Currant-Nyala
  short_name: DCKWTRCRNT
  lata: '720'
  ilec_name: NEVADA BELL
  lat: '38.899534'
  long: "-115.68982"
  closest_city:
    name: Preston
    distance:
      value: 54.2
      units: km
- country: US
  region: NV
  exchange: '345107'
  name: Dutch Flat
  short_name: DUTCH FLAT
  lata: '720'
  ilec_name: NEVADA BELL
  lat:
  long:
- country: US
  region: NV
  exchange: '345108'
  name: Dyer
  short_name: DYER
  lata: '720'
  ilec_name: NEVADA BELL
  lat:
  long:
- country: US
  region: NV
  exchange: '345109'
  name: Edgewood
  short_name: EDGEWOOD
  lata: '720'
  ilec_name: FRONTIER COMMUNICATIONS OF THE SOUTHWEST INC. - NV
  lat:
  long:
- country: US
  region: NV
  exchange: '130860'
  name: Elko
  short_name: ELKO
  lata: '720'
  ilec_name: CITIZENS TELECOMM CO OF NV DBA FRONTIER COMM OF NV
  lat: '40.833907'
  long: "-115.757501"
  closest_city:
    name: Elko
    distance:
      value: 0.98
      units: km
- country: US
  region: NV
  exchange: '345111'
  name: Elkpoint
  short_name: ELKPOINT
  lata: '720'
  ilec_name: FRONTIER COMMUNICATIONS OF THE SOUTHWEST INC. - NV
  lat:
  long:
- country: US
  region: NV
  exchange: '130870'
  name: Ely
  short_name: ELY
  lata: '720'
  ilec_name: NEVADA BELL
  lat: '39.248261'
  long: "-114.882999"
  closest_city:
    name: Ely
    distance:
      value: 2.14
      units: km
- country: US
  region: NV
  exchange: '345113'
  name: Emigrant Pass
  short_name: EMIGRANTPS
  lata: '720'
  ilec_name: NEVADA BELL
  lat:
  long:
- country: US
  region: NV
  exchange: '130880'
  name: Empire
  short_name: EMPIRE
  lata: '720'
  ilec_name: NEVADA BELL
  lat: '40.566462'
  long: "-119.34724"
  closest_city:
    name: Empire
    distance:
      value: 1.11
      units: km
- country: US
  region: NV
  exchange: '345263'
  name: Enterprise
  short_name: ENTERPRISE
  lata: '721'
  ilec_name: CENTRAL TEL. CO. - NEVADA DBA CENTURYLINK
  lat:
  long:
- country: US
  region: NV
  exchange: '345116'
  name: Eureka Airport
  short_name: EUREKAARPT
  lata: '720'
  ilec_name: NEVADA BELL
  lat:
  long:
- country: US
  region: NV
  exchange: '130890'
  name: Eureka-Diamond Valley
  short_name: EUREKA
  lata: '720'
  ilec_name: NEVADA BELL
  lat: '39.516809'
  long: "-115.95758"
  closest_city:
    name: Eureka
    distance:
      value: 0.94
      units: km
- country: US
  region: NV
  exchange: '345117'
  name: Evans Creek
  short_name: EVANSCREEK
  lata: '720'
  ilec_name: HUMBOLDT TELEPHONE COMPANY
  lat:
  long:
- country: US
  region: NV
  exchange: '130900'
  name: Fallon
  short_name: FALLON
  lata: '720'
  ilec_name: CHURCHILL COUNTY TELEPHONE DBA CC COMMUNICATIONS
  lat: '39.476816'
  long: "-118.77536"
  closest_city:
    name: Fallon
    distance:
      value: 0.41
      units: km
- country: US
  region: NV
  exchange: '130910'
  name: Fernley
  short_name: FERNLEY
  lata: '720'
  ilec_name: NEVADA BELL
  lat: '39.601855'
  long: "-119.226078"
  closest_city:
    name: Fernley
    distance:
      value: 5.31
      units: km
- country: US
  region: NV
  exchange: '130920'
  name: Fish Lake Valley
  short_name: FISHLK VLY
  lata: '720'
  ilec_name: NEVADA BELL
  lat: '37.678974'
  long: "-118.058189"
  closest_city:
    name: Dyer
    distance:
      value: 4.13
      units: km
- country: US
  region: NV
  exchange: '345121'
  name: Fort Churchill
  short_name: FTCHURCHIL
  lata: '720'
  ilec_name: NEVADA BELL
  lat:
  long:
- country: US
  region: NV
  exchange: '130930'
  name: Gabbs
  short_name: GABBS
  lata: '720'
  ilec_name: NEVADA BELL
  lat: '38.857258'
  long: "-117.93275"
  closest_city:
    name: Gabbs
    distance:
      value: 0.54
      units: km
- country: US
  region: NV
  exchange: '345123'
  name: Gallagher Flat
  short_name: GALGHERFLT
  lata: '720'
  ilec_name: NEVADA BELL
  lat:
  long:
- country: US
  region: NV
  exchange: '130940'
  name: Gardnerville
  short_name: GARDNERVL
  lata: '720'
  ilec_name: FRONTIER COMMUNICATIONS OF THE SOUTHWEST INC. - NV
  lat: '38.951457'
  long: "-119.762158"
  closest_city:
    name: Minden
    distance:
      value: 1.41
      units: km
- country: US
  region: NV
  exchange: '130941'
  name: Gardnerville Ranchos
  short_name: GRDNVL RS
  lata: '720'
  ilec_name: FRONTIER COMMUNICATIONS OF THE SOUTHWEST INC. - NV
  lat:
  long:
- country: US
  region: NV
  exchange: '345125'
  name: Genoa
  short_name: GENOA
  lata: '720'
  ilec_name: FRONTIER COMMUNICATIONS OF THE SOUTHWEST INC. - NV
  lat:
  long:
- country: US
  region: NV
  exchange: '345126'
  name: Gerlach
  short_name: GERLACH
  lata: '720'
  ilec_name: NEVADA BELL
  lat:
  long:
- country: US
  region: NV
  exchange: '130950'
  name: Glenbrook
  short_name: GLENBROOK
  lata: '720'
  ilec_name: FRONTIER COMMUNICATIONS OF THE SOUTHWEST INC. - NV
  lat: '39.075375'
  long: "-119.949077"
  closest_city:
    name: Logan Creek
    distance:
      value: 2.21
      units: km
- country: US
  region: NV
  exchange: '130960'
  name: Glendale
  short_name: GLENDALE
  lata: '721'
  ilec_name: MOAPA VALLEY TEL. CO.
  lat: '36.662042'
  long: "-114.577958"
  closest_city:
    name: Moapa Town
    distance:
      value: 6.16
      units: km
- country: US
  region: NV
  exchange: '345128'
  name: Golconda
  short_name: GOLCONDA
  lata: '720'
  ilec_name: NEVADA BELL
  lat:
  long:
- country: US
  region: NV
  exchange: '345129'
  name: Gold Hill
  short_name: GOLD HILL
  lata: '720'
  ilec_name: NEVADA BELL
  lat:
  long:
- country: US
  region: NV
  exchange: '130970'
  name: Goldfield
  short_name: GOLDFIELD
  lata: '720'
  ilec_name: CITIZENS TELECOMM CO OF NV DBA FRONTIER COMM OF NV
  lat: '37.712679'
  long: "-117.232157"
  closest_city:
    name: Goldfield
    distance:
      value: 0.5
      units: km
- country: US
  region: NV
  exchange: '345265'
  name: Goodsprings
  short_name: GOODSPRIGS
  lata: '721'
  ilec_name: CENTRAL TEL. CO. - NEVADA DBA CENTURYLINK
  lat:
  long:
- country: US
  region: NV
  exchange: '130980'
  name: Goshute
  short_name: GOSHUTE
  lata: '720'
  ilec_name: BEEHIVE TELEPHONE CO., INC. -  NEVADA
  lat: '40.039181'
  long: "-114.314423"
  closest_city:
    name: West Wendover
    distance:
      value: 80.53
      units: km
- country: US
  region: NV
  exchange: '345133'
  name: Hammond Ranch
  short_name: HAMMNDRNCH
  lata: '720'
  ilec_name: HUMBOLDT TELEPHONE COMPANY
  lat:
  long:
- country: US
  region: NV
  exchange: '345134'
  name: Happy Creek
  short_name: HAPPYCREEK
  lata: '720'
  ilec_name: HUMBOLDT TELEPHONE COMPANY
  lat:
  long:
- country: US
  region: NV
  exchange: '130990'
  name: Hawthorne
  short_name: HAWTHORNE
  lata: '720'
  ilec_name: NEVADA BELL
  lat: '38.524287'
  long: "-118.624748"
  closest_city:
    name: Hawthorne
    distance:
      value: 0.16
      units: km
- country: US
  region: NV
  exchange: '345136'
  name: Hazen
  short_name: HAZEN
  lata: '720'
  ilec_name: CHURCHILL COUNTY TELEPHONE DBA CC COMMUNICATIONS
  lat:
  long:
- country: US
  region: NV
  exchange: '131000'
  name: Henderson
  short_name: HENDERSON
  lata: '721'
  ilec_name: CENTRAL TEL. CO. - NEVADA DBA CENTURYLINK
  lat: '36.032382'
  long: "-114.985019"
  closest_city:
    name: Henderson
    distance:
      value: 5.22
      units: km
- country: US
  region: NV
  exchange: '345137'
  name: Hiko
  short_name: HIKO
  lata: '720'
  ilec_name: LINCOLN COUNTY TEL. SYSTEM, INC.
  lat:
  long:
- country: US
  region: NV
  exchange: '131010'
  name: Imlay
  short_name: IMLAY
  lata: '720'
  ilec_name: NEVADA BELL
  lat: '40.66428'
  long: "-118.148509"
  closest_city:
    name: Imlay
    distance:
      value: 0.78
      units: km
- country: US
  region: NV
  exchange: '130821'
  name: Incline Village
  short_name: INCLINEVLG
  lata: '720'
  ilec_name: NEVADA BELL
  lat:
  long:
- country: US
  region: NV
  exchange: '345140'
  name: Indian Creek
  short_name: INDIAN CRK
  lata: '720'
  ilec_name: NEVADA BELL
  lat:
  long:
- country: US
  region: NV
  exchange: '131020'
  name: Indian Springs
  short_name: INDIAN SPG
  lata: '721'
  ilec_name: NEVADA BELL
  lat: '36.582578'
  long: "-115.675142"
  closest_city:
    name: Indian Springs
    distance:
      value: 4.21
      units: km
- country: US
  region: NV
  exchange: '345268'
  name: Indian Springs Air Force Base
  short_name: INDNSPGAFB
  lata: '721'
  ilec_name: NEVADA BELL
  lat:
  long:
- country: US
  region: NV
  exchange: '131030'
  name: Jackpot
  short_name: JACKPOT
  lata: '652'
  ilec_name: FILER MUTUAL TEL CO
  lat: '41.983629'
  long: "-114.674904"
  closest_city:
    name: Jackpot
    distance:
      value: 0.96
      units: km
- country: US
  region: NV
  exchange: '130942'
  name: Jacks Valley
  short_name: JACKS VLY
  lata: '720'
  ilec_name: FRONTIER COMMUNICATIONS OF THE SOUTHWEST INC. - NV
  lat:
  long:
- country: US
  region: NV
  exchange: '345142'
  name: Jackson Creek
  short_name: JACKSONCRK
  lata: '720'
  ilec_name: HUMBOLDT TELEPHONE COMPANY
  lat:
  long:
- country: US
  region: NV
  exchange: '131040'
  name: Jarbidge
  short_name: JARBIDGE
  lata: '652'
  ilec_name: RURAL TEL CO
  lat: '41.836675'
  long: "-115.391059"
  closest_city:
    name: Mountain City
    distance:
      value: 47.41
      units: km
- country: US
  region: NV
  exchange: '131050'
  name: Jean
  short_name: JEAN
  lata: '721'
  ilec_name: CENTRAL TEL. CO. - NEVADA DBA CENTURYLINK
  lat: '35.775748'
  long: "-115.327412"
  closest_city:
    name: Goodsprings
    distance:
      value: 11.55
      units: km
- country: US
  region: NV
  exchange: '345143'
  name: Jiggs
  short_name: JIGGS
  lata: '720'
  ilec_name: CITIZENS TELECOMM CO OF NV DBA FRONTIER COMM OF NV
  lat:
  long:
- country: US
  region: NV
  exchange: '345144'
  name: Kings River
  short_name: KINGSRIVER
  lata: '720'
  ilec_name: HUMBOLDT TELEPHONE COMPANY
  lat:
  long:
- country: US
  region: NV
  exchange: '345145'
  name: Knott Creek
  short_name: KNOTTCREEK
  lata: '720'
  ilec_name: HUMBOLDT TELEPHONE COMPANY
  lat:
  long:
- country: US
  region: NV
  exchange: '345146'
  name: Lages
  short_name: LAGES
  lata: '720'
  ilec_name: NEVADA BELL
  lat:
  long:
- country: US
  region: NV
  exchange: '131060'
  name: Lake Mead
  short_name: LAKE MEAD
  lata: '721'
  ilec_name: MOAPA VALLEY TEL. CO.
  lat: '36.391132'
  long: "-114.430149"
  closest_city:
    name: Moapa Valley
    distance:
      value: 24.21
      units: km
- country: US
  region: NV
  exchange: '131070'
  name: Lake Valley
  short_name: LAKEVALLEY
  lata: '720'
  ilec_name: LINCOLN COUNTY TEL. SYSTEM, INC.
  lat: '38.373704'
  long: "-114.551627"
  closest_city:
    name: Mount Wilson
    distance:
      value: 17.77
      units: km
- country: US
  region: NV
  exchange: '345148'
  name: Lamoille
  short_name: LAMOILLE
  lata: '720'
  ilec_name: CITIZENS TELECOMM CO OF NV DBA FRONTIER COMM OF NV
  lat:
  long:
- country: US
  region: NV
  exchange: '345149'
  name: Lane City
  short_name: LANE CITY
  lata: '720'
  ilec_name: NEVADA BELL
  lat:
  long:
- country: US
  region: NV
  exchange: '131080'
  name: Las Vegas
  short_name: LAS VEGAS
  lata: '721'
  ilec_name: CENTRAL TEL. CO. - NEVADA DBA CENTURYLINK
  lat: '36.168333'
  long: "-115.142596"
  closest_city:
    name: Winchester
    distance:
      value: 3.58
      units: km
- country: US
  region: NV
  exchange: '131090'
  name: Lathrop Wells
  short_name: LATHROWLLS
  lata: '721'
  ilec_name: NEVADA BELL
  lat: '36.659936'
  long: "-116.39255"
  closest_city:
    name: Amargosa Valley
    distance:
      value: 15.59
      units: km
- country: US
  region: NV
  exchange: '131100'
  name: Laughlin
  short_name: LAUGHLIN
  lata: '721'
  ilec_name: CENTRAL TEL. CO. - NEVADA DBA CENTURYLINK
  lat: '35.173404'
  long: "-114.575131"
  closest_city:
    name: Laughlin
    distance:
      value: 5.55
      units: km
- country: US
  region: NV
  exchange: '345150'
  name: Lee
  short_name: LEE
  lata: '720'
  ilec_name: CITIZENS TELECOMM CO OF NV DBA FRONTIER COMM OF NV
  lat:
  long:
- country: US
  region: NV
  exchange: '131110'
  name: Lee-Jiggs
  short_name: LEE JIGGS
  lata: '720'
  ilec_name: CITIZENS TELECOMM CO OF NV DBA FRONTIER COMM OF NV
  lat: '40.547307'
  long: "-115.663431"
  closest_city:
    name: Spring Creek
    distance:
      value: 22.66
      units: km
- country: US
  region: NV
  exchange: '345274'
  name: Lees Canyon
  short_name: LEESCANYON
  lata: '721'
  ilec_name: CENTRAL TEL. CO. - NEVADA DBA CENTURYLINK
  lat:
  long:
- country: US
  region: NV
  exchange: '345152'
  name: Leonard Creek
  short_name: LEONARDCRK
  lata: '720'
  ilec_name: HUMBOLDT TELEPHONE COMPANY
  lat:
  long:
- country: US
  region: NV
  exchange: '345153'
  name: Lida
  short_name: LIDA
  lata: '720'
  ilec_name: CITIZENS TELECOMM CO OF NV DBA FRONTIER COMM OF NV
  lat:
  long:
- country: US
  region: NV
  exchange: '131391'
  name: Lockwood
  short_name: LOCKWOOD
  lata: '720'
  ilec_name: NEVADA BELL
  lat: '39.525978'
  long: "-119.807959"
  closest_city:
    name: Reno
    distance:
      value: 4.35
      units: km
- country: US
  region: NV
  exchange: '131120'
  name: Logandale
  short_name: LOGANDALE
  lata: '721'
  ilec_name: MOAPA VALLEY TEL. CO.
  lat: '36.596046'
  long: "-114.483885"
  closest_city:
    name: Moapa Valley
    distance:
      value: 2.76
      units: km
- country: US
  region: NV
  exchange: '131130'
  name: Lovelock
  short_name: LOVELOCK
  lata: '720'
  ilec_name: NEVADA BELL
  lat: '40.182737'
  long: "-118.47625"
  closest_city:
    name: Lovelock
    distance:
      value: 0.46
      units: km
- country: US
  region: NV
  exchange: '345156'
  name: Lowery Canyon
  short_name: LOWERYCNYN
  lata: '720'
  ilec_name: NEVADA BELL
  lat:
  long:
- country: US
  region: NV
  exchange: '131140'
  name: Lund
  short_name: LUND
  lata: '720'
  ilec_name: NEVADA BELL
  lat: '38.866191'
  long: "-115.0165"
  closest_city:
    name: Lund
    distance:
      value: 0.61
      units: km
- country: US
  region: NV
  exchange: '345158'
  name: Luning
  short_name: LUNING
  lata: '720'
  ilec_name: NEVADA BELL
  lat:
  long:
- country: US
  region: NV
  exchange: '345159'
  name: Mack Creek
  short_name: MACK CREEK
  lata: '720'
  ilec_name: NEVADA BELL
  lat:
  long:
- country: US
  region: NV
  exchange: '345160'
  name: Majors Place
  short_name: MAJORS PL
  lata: '720'
  ilec_name: NEVADA BELL
  lat:
  long:
- country: US
  region: NV
  exchange: '131150'
  name: Manhattan
  short_name: MANHATTAN
  lata: '720'
  ilec_name: CITIZENS TELECOMM CO OF NV DBA FRONTIER COMM OF NV
  lat: '38.535653'
  long: "-117.066344"
  closest_city:
    name: Tonopah
    distance:
      value: 52.28
      units: km
- country: US
  region: NV
  exchange: '345162'
  name: Marla Bay
  short_name: MARLA BAY
  lata: '720'
  ilec_name: FRONTIER COMMUNICATIONS OF THE SOUTHWEST INC. - NV
  lat:
  long:
- country: US
  region: NV
  exchange: '131160'
  name: Mary's River
  short_name: MARYS RIV
  lata: '720'
  ilec_name: BEEHIVE TELEPHONE CO., INC. -  NEVADA
  lat: '41.325905'
  long: "-115.255491"
  closest_city:
    name: Wells
    distance:
      value: 34.6
      units: km
- country: US
  region: NV
  exchange: '345164'
  name: Mason
  short_name: MASON
  lata: '720'
  ilec_name: FRONTIER COMMUNICATIONS OF THE SOUTHWEST INC. - NV
  lat:
  long:
- country: US
  region: NV
  exchange: '131170'
  name: McDermitt
  short_name: MCDERMITT
  lata: '720'
  ilec_name: HUMBOLDT TELEPHONE COMPANY
  lat: '41.993087'
  long: "-117.719311"
  closest_city:
    name: McDermitt
    distance:
      value: 0.34
      units: km
- country: US
  region: NV
  exchange: '131180'
  name: McGill
  short_name: MCGILL
  lata: '720'
  ilec_name: NEVADA BELL
  lat: '39.409643'
  long: "-114.771824"
  closest_city:
    name: McGill
    distance:
      value: 0.99
      units: km
- country: US
  region: NV
  exchange: '131190'
  name: Mesquite
  short_name: MESQUITE
  lata: '660'
  ilec_name: RIO VIRGIN TEL. CO., INC.
  lat: '36.801246'
  long: "-114.060615"
  closest_city:
    name: Mesquite
    distance:
      value: 6.45
      units: km
- country: US
  region: NV
  exchange: '131200'
  name: Midas
  short_name: MIDAS
  lata: '720'
  ilec_name: HUMBOLDT TELEPHONE COMPANY
  lat: '41.242224'
  long: "-116.806285"
  closest_city:
    name: Valmy
    distance:
      value: 56.94
      units: km
- country: US
  region: NV
  exchange: '345168'
  name: Mill City
  short_name: MILL CITY
  lata: '720'
  ilec_name: NEVADA BELL
  lat:
  long:
- country: US
  region: NV
  exchange: '131210'
  name: Mina
  short_name: MINA
  lata: '720'
  ilec_name: NEVADA BELL
  lat: '38.391995'
  long: "-118.106696"
  closest_city:
    name: Mina
    distance:
      value: 0.48
      units: km
- country: US
  region: NV
  exchange: '345170'
  name: Minden
  short_name: MINDEN
  lata: '720'
  ilec_name: FRONTIER COMMUNICATIONS OF THE SOUTHWEST INC. - NV
  lat:
  long:
- country: US
  region: NV
  exchange: '345276'
  name: Moapa
  short_name: MOAPA
  lata: '721'
  ilec_name: MOAPA VALLEY TEL. CO.
  lat:
  long:
- country: US
  region: NV
  exchange: '345277'
  name: Moapa Valley
  short_name: MOAPA VLY
  lata: '721'
  ilec_name: MOAPA VALLEY TEL. CO.
  lat:
  long:
- country: US
  region: NV
  exchange: '131220'
  name: Montello
  short_name: MONTELLO
  lata: '720'
  ilec_name: CITIZENS TELECOMM CO OF NV DBA FRONTIER COMM OF NV
  lat: '41.259109'
  long: "-114.193732"
  closest_city:
    name: Montello
    distance:
      value: 0.93
      units: km
- country: US
  region: NV
  exchange: '131230'
  name: Montgomery Pass
  short_name: MONTGYPASS
  lata: '720'
  ilec_name: FRONTIER COMMUNICATIONS OF THE SOUTHWEST INC. - NV
  lat: '38.009323'
  long: "-118.27505"
  closest_city:
    name: Mina
    distance:
      value: 44.66
      units: km
- country: US
  region: NV
  exchange: '345173'
  name: Mound House
  short_name: MOUNDHOUSE
  lata: '720'
  ilec_name: NEVADA BELL
  lat:
  long:
- country: US
  region: NV
  exchange: '131240'
  name: Mount Charleston
  short_name: MTCHARLETN
  lata: '721'
  ilec_name: CENTRAL TEL. CO. - NEVADA DBA CENTURYLINK
  lat: '36.257523'
  long: "-115.651904"
  closest_city:
    name: Mount Charleston
    distance:
      value: 3.46
      units: km
- country: US
  region: NV
  exchange: '131250'
  name: Mountain City
  short_name: MOUNTAINCY
  lata: '652'
  ilec_name: CENTURYTEL GEM STATE INC-NV DBA CENTURYLINK - NV
  lat: '41.843584'
  long: "-115.994228"
  closest_city:
    name: Mountain City
    distance:
      value: 2.65
      units: km
- country: US
  region: NV
  exchange: '345278'
  name: Mountain Springs
  short_name: MOUNTN SPG
  lata: '721'
  ilec_name: CENTRAL TEL. CO. - NEVADA DBA CENTURYLINK
  lat:
  long:
- country: US
  region: NV
  exchange: '131260'
  name: Nelson
  short_name: NELSON
  lata: '721'
  ilec_name: CENTRAL TEL. CO. - NEVADA DBA CENTURYLINK
  lat: '35.711562'
  long: "-114.844029"
  closest_city:
    name: Nelson
    distance:
      value: 1.35
      units: km
- country: US
  region: NV
  exchange: '131270'
  name: Nixon
  short_name: NIXON
  lata: '720'
  ilec_name: NEVADA BELL
  lat: '39.827082'
  long: "-119.360658"
  closest_city:
    name: Nixon
    distance:
      value: 0.18
      units: km
- country: US
  region: NV
  exchange: '345175'
  name: Nordyke
  short_name: NORDYKE
  lata: '720'
  ilec_name: FRONTIER COMMUNICATIONS OF THE SOUTHWEST INC. - NV
  lat:
  long:
- country: US
  region: NV
  exchange: '131280'
  name: North Fork
  short_name: NORTH FORK
  lata: '720'
  ilec_name: RURAL TEL CO
  lat: '41.638658'
  long: "-115.803752"
  closest_city:
    name: Mountain City
    distance:
      value: 25.76
      units: km
- country: US
  region: NV
  exchange: '345280'
  name: North Las Vegas
  short_name: N LASVEGAS
  lata: '721'
  ilec_name: CENTRAL TEL. CO. - NEVADA DBA CENTURYLINK
  lat:
  long:
- country: US
  region: NV
  exchange: '345177'
  name: Nyala
  short_name: NYALA
  lata: '720'
  ilec_name: NEVADA BELL
  lat:
  long:
- country: US
  region: NV
  exchange: '345178'
  name: Oasis
  short_name: OASIS
  lata: '720'
  ilec_name: BEEHIVE TELEPHONE CO., INC. -  NEVADA
  lat:
  long:
- country: US
  region: NV
  exchange: '131290'
  name: Orovada
  short_name: OROVADA
  lata: '720'
  ilec_name: HUMBOLDT TELEPHONE COMPANY
  lat: '41.557785'
  long: "-117.791914"
  closest_city:
    name: Orovada
    distance:
      value: 2.8
      units: km
- country: US
  region: NV
  exchange: '345180'
  name: Osceola
  short_name: OSCEOLA
  lata: '720'
  ilec_name: NEVADA BELL
  lat:
  long:
- country: US
  region: NV
  exchange: '345181'
  name: Osgood
  short_name: OSGOOD
  lata: '720'
  ilec_name: NEVADA BELL
  lat:
  long:
- country: US
  region: NV
  exchange: '131300'
  name: Overton
  short_name: OVERTON
  lata: '721'
  ilec_name: MOAPA VALLEY TEL. CO.
  lat: '36.543168'
  long: "-114.444719"
  closest_city:
    name: Moapa Valley
    distance:
      value: 7.26
      units: km
- country: US
  region: NV
  exchange: '131310'
  name: Owyhee
  short_name: OWYHEE
  lata: '652'
  ilec_name: CENTURYTEL GEM STATE INC-NV DBA CENTURYLINK - NV
  lat: '41.94136'
  long: "-116.109703"
  closest_city:
    name: Owyhee
    distance:
      value: 6.63
      units: km
- country: US
  region: NV
  exchange: '131320'
  name: Pahrump
  short_name: PAHRUMP
  lata: '721'
  ilec_name: NEVADA BELL
  lat: '36.208382'
  long: "-115.991422"
  closest_city:
    name: Pahrump
    distance:
      value: 1.76
      units: km
- country: US
  region: NV
  exchange: '345182'
  name: Paiute Meadows
  short_name: PAIUTE MDW
  lata: '720'
  ilec_name: HUMBOLDT TELEPHONE COMPANY
  lat:
  long:
- country: US
  region: NV
  exchange: '131330'
  name: Panaca
  short_name: PANACA
  lata: '720'
  ilec_name: LINCOLN COUNTY TEL. SYSTEM, INC.
  lat: '37.790986'
  long: "-114.375686"
  closest_city:
    name: Panaca
    distance:
      value: 2.2
      units: km
- country: US
  region: NV
  exchange: '345184'
  name: Paradise Hill
  short_name: PARADISEHL
  lata: '720'
  ilec_name: NEVADA BELL
  lat:
  long:
- country: US
  region: NV
  exchange: '131340'
  name: Paradise Valley
  short_name: PARADISVLY
  lata: '720'
  ilec_name: HUMBOLDT TELEPHONE COMPANY
  lat: '41.492317'
  long: "-117.532805"
  closest_city:
    name: Paradise Valley
    distance:
      value: 1.19
      units: km
- country: US
  region: NV
  exchange: '131350'
  name: Pilot Valley
  short_name: PILOT VLY
  lata: '720'
  ilec_name: BEEHIVE TELEPHONE CO., INC. -  NEVADA
  lat: '41.101146'
  long: "-114.134358"
  closest_city:
    name: Montello
    distance:
      value: 19.18
      units: km
- country: US
  region: NV
  exchange: '345187'
  name: Pinson Ranch
  short_name: PINSONRNCH
  lata: '720'
  ilec_name: HUMBOLDT TELEPHONE COMPANY
  lat:
  long:
- country: US
  region: NV
  exchange: '131360'
  name: Pioche
  short_name: PIOCHE
  lata: '720'
  ilec_name: LINCOLN COUNTY TEL. SYSTEM, INC.
  lat: '37.92369'
  long: "-114.449101"
  closest_city:
    name: Pioche
    distance:
      value: 3.18
      units: km
- country: US
  region: NV
  exchange: '131370'
  name: Pleasant Valley
  short_name: PLSNT VLLY
  lata: '720'
  ilec_name: BEEHIVE TELEPHONE CO., INC. -  NEVADA
  lat: '39.714648'
  long: "-114.395014"
  closest_city:
    name: McGill
    distance:
      value: 47.8
      units: km
- country: US
  region: NV
  exchange: '345190'
  name: Preston
  short_name: PRESTON
  lata: '720'
  ilec_name: NEVADA BELL
  lat:
  long:
- country: US
  region: NV
  exchange: '345284'
  name: Primm
  short_name: PRIMM
  lata: '721'
  ilec_name: CENTRAL TEL. CO. - NEVADA DBA CENTURYLINK
  lat:
  long:
- country: US
  region: NV
  exchange: '345191'
  name: Pyramid Lake
  short_name: PYRAMID LK
  lata: '720'
  ilec_name: NEVADA BELL
  lat:
  long:
- country: US
  region: NV
  exchange: '345192'
  name: Quinn River Crossing
  short_name: QNRVCRSSNG
  lata: '720'
  ilec_name: HUMBOLDT TELEPHONE COMPANY
  lat:
  long:
- country: US
  region: NV
  exchange: '345193'
  name: Rachel
  short_name: RACHEL
  lata: '720'
  ilec_name: LINCOLN COUNTY TEL. SYSTEM, INC.
  lat:
  long:
- country: US
  region: NV
  exchange: '345194'
  name: Railroad Valley
  short_name: RAILRODVLY
  lata: '720'
  ilec_name: NEVADA BELL
  lat:
  long:
- country: US
  region: NV
  exchange: '345196'
  name: Red House Ranch
  short_name: REDHSRANCH
  lata: '720'
  ilec_name: HUMBOLDT TELEPHONE COMPANY
  lat:
  long:
- country: US
  region: NV
  exchange: '131380'
  name: Red Rock
  short_name: RED ROCK
  lata: '720'
  ilec_name: RURAL TEL CO
  lat: '39.866202'
  long: "-119.95508"
  closest_city:
    name: Cold Springs
    distance:
      value: 19.39
      units: km
- country: US
  region: NV
  exchange: '131390'
  name: Reno
  short_name: RENO
  lata: '720'
  ilec_name: NEVADA BELL
  lat: '39.525978'
  long: "-119.807959"
  closest_city:
    name: Reno
    distance:
      value: 4.35
      units: km
- country: US
  region: NV
  exchange: '345198'
  name: River Side
  short_name: RIVER SIDE
  lata: '720'
  ilec_name: HUMBOLDT TELEPHONE COMPANY
  lat:
  long:
- country: US
  region: NV
  exchange: '131400'
  name: Round Mountain
  short_name: ROUND MT
  lata: '720'
  ilec_name: NEVADA BELL
  lat: '38.707126'
  long: "-117.066053"
  closest_city:
    name: Kingston
    distance:
      value: 55.93
      units: km
- country: US
  region: NV
  exchange: '131410'
  name: Ruby Valley
  short_name: RUBYVALLEY
  lata: '720'
  ilec_name: CITIZENS TELECOMM CO OF NV DBA FRONTIER COMM OF NV
  lat: '40.626303'
  long: "-115.277882"
  closest_city:
    name: Lamoille
    distance:
      value: 20.14
      units: km
- country: US
  region: NV
  exchange: '131420'
  name: Sand Springs
  short_name: SAND SPG
  lata: '720'
  ilec_name: LINCOLN COUNTY TEL. SYSTEM, INC.
  lat: '37.646413'
  long: "-115.751537"
  closest_city:
    name: Rachel
    distance:
      value: 1.56
      units: km
- country: US
  region: NV
  exchange: '131430'
  name: Sandy Valley
  short_name: SANDY VLY
  lata: '721'
  ilec_name: NEVADA BELL
  lat: '35.815572'
  long: "-115.627601"
  closest_city:
    name: Sandy Valley
    distance:
      value: 2.98
      units: km
- country: US
  region: NV
  exchange: '345202'
  name: Schellbourne
  short_name: SCHELLBORN
  lata: '720'
  ilec_name: NEVADA BELL
  lat:
  long:
- country: US
  region: NV
  exchange: '131440'
  name: Schurz
  short_name: SCHURZ
  lata: '720'
  ilec_name: NEVADA BELL
  lat: '38.951199'
  long: "-118.818144"
  closest_city:
    name: Schurz
    distance:
      value: 1.86
      units: km
- country: US
  region: NV
  exchange: '131450'
  name: Searchlight
  short_name: SEARCHLIHT
  lata: '721'
  ilec_name: CENTRAL TEL. CO. - NEVADA DBA CENTURYLINK
  lat: '35.465316'
  long: "-114.914923"
  closest_city:
    name: Searchlight
    distance:
      value: 1.2
      units: km
- country: US
  region: NV
  exchange: '345204'
  name: Sheldon
  short_name: SHELDON
  lata: '720'
  ilec_name: HUMBOLDT TELEPHONE COMPANY
  lat:
  long:
- country: US
  region: NV
  exchange: '345206'
  name: Silver City
  short_name: SILVERCITY
  lata: '720'
  ilec_name: NEVADA BELL
  lat:
  long:
- country: US
  region: NV
  exchange: '131460'
  name: Silver Peak
  short_name: SILVERPEAK
  lata: '720'
  ilec_name: CITIZENS TELECOMM CO OF NV DBA FRONTIER COMM OF NV
  lat: '37.753074'
  long: "-117.633846"
  closest_city:
    name: Silver Peak
    distance:
      value: 0.67
      units: km
- country: US
  region: NV
  exchange: '131470'
  name: Silver Springs
  short_name: SILVER SPG
  lata: '720'
  ilec_name: NEVADA BELL
  lat: '39.408324'
  long: "-119.224374"
  closest_city:
    name: Silver Springs
    distance:
      value: 2.98
      units: km
- country: US
  region: NV
  exchange: '345208'
  name: Silver State Valley
  short_name: SLVRSTTVLY
  lata: '720'
  ilec_name: HUMBOLDT TELEPHONE COMPANY
  lat:
  long:
- country: US
  region: NV
  exchange: '345287'
  name: Sloan
  short_name: SLOAN
  lata: '721'
  ilec_name: CENTRAL TEL. CO. - NEVADA DBA CENTURYLINK
  lat:
  long:
- country: US
  region: NV
  exchange: '345209'
  name: Smith
  short_name: SMITH
  lata: '720'
  ilec_name: FRONTIER COMMUNICATIONS OF THE SOUTHWEST INC. - NV
  lat:
  long:
- country: US
  region: NV
  exchange: '131480'
  name: Smith Valley
  short_name: SMITH VLY
  lata: '720'
  ilec_name: FRONTIER COMMUNICATIONS OF THE SOUTHWEST INC. - NV
  lat: '38.797204'
  long: "-119.326465"
  closest_city:
    name: Smith Valley
    distance:
      value: 2.66
      units: km
- country: US
  region: NV
  exchange: '345211'
  name: Spanish Springs
  short_name: SPANISHSPG
  lata: '720'
  ilec_name: NEVADA BELL
  lat:
  long:
- country: US
  region: NV
  exchange: '131392'
  name: Sparks
  short_name: SPARKS
  lata: '720'
  ilec_name: NEVADA BELL
  lat: '39.525978'
  long: "-119.807959"
  closest_city:
    name: Reno
    distance:
      value: 4.35
      units: km
- country: US
  region: NV
  exchange: '410747'
  name: Sparks
  short_name: SPARKS
  lata: '720'
  ilec_name: NEVADA BELL
  lat:
  long:
- country: US
  region: NV
  exchange: '131490'
  name: Spirit Mountain
  short_name: SPIRIT MT
  lata: '666'
  ilec_name: FORT MOJAVE TELECOM INC
  lat: '35.0065'
  long: "-114.644494"
  closest_city:
    name: Laughlin
    distance:
      value: 15.01
      units: km
- country: US
  region: NV
  exchange: '345213'
  name: Spring Creek
  short_name: SPRING CRK
  lata: '720'
  ilec_name: CITIZENS TELECOMM CO OF NV DBA FRONTIER COMM OF NV
  lat:
  long:
- country: US
  region: NV
  exchange: '131500'
  name: Spring Valley-Cherry Creek
  short_name: SPVLYCHCRK
  lata: '720'
  ilec_name: NEVADA BELL
  lat: '39.337109'
  long: "-114.464175"
  closest_city:
    name: McGill
    distance:
      value: 27.88
      units: km
- country: US
  region: NV
  exchange: '345215'
  name: Squaw Valley
  short_name: SQUAW VLY
  lata: '720'
  ilec_name: HUMBOLDT TELEPHONE COMPANY
  lat:
  long:
- country: US
  region: NV
  exchange: '131510'
  name: Stagecoach
  short_name: STAGECOACH
  lata: '720'
  ilec_name: NEVADA BELL
  lat: '39.367741'
  long: "-119.368924"
  closest_city:
    name: Stagecoach
    distance:
      value: 1.25
      units: km
- country: US
  region: NV
  exchange: '131520'
  name: Stateline
  short_name: STATELINE
  lata: '720'
  ilec_name: FRONTIER COMMUNICATIONS OF THE SOUTHWEST INC. - NV
  lat: '38.967966'
  long: "-119.931429"
  closest_city:
    name: Stateline
    distance:
      value: 1.09
      units: km
- country: US
  region: NV
  exchange: '131393'
  name: Stead
  short_name: STEAD
  lata: '720'
  ilec_name: NEVADA BELL
  lat: '39.525978'
  long: "-119.807959"
  closest_city:
    name: Reno
    distance:
      value: 4.35
      units: km
- country: US
  region: NV
  exchange: '345218'
  name: Steptoe Valley
  short_name: STEPTOEVLY
  lata: '720'
  ilec_name: NEVADA BELL
  lat:
  long:
- country: US
  region: NV
  exchange: '345219'
  name: Stewart
  short_name: STEWART
  lata: '720'
  ilec_name: NEVADA BELL
  lat:
  long:
- country: US
  region: NV
  exchange: '131394'
  name: Sun Valley
  short_name: SUN VALLEY
  lata: '720'
  ilec_name: NEVADA BELL
  lat: '39.525978'
  long: "-119.807959"
  closest_city:
    name: Reno
    distance:
      value: 4.35
      units: km
- country: US
  region: NV
  exchange: '131530'
  name: Sutcliffe
  short_name: SUTCLIFFE
  lata: '720'
  ilec_name: NEVADA BELL
  lat: '39.943685'
  long: "-119.611283"
  closest_city:
    name: Sutcliffe
    distance:
      value: 1.66
      units: km
- country: US
  region: NV
  exchange: '131540'
  name: Sweetwater
  short_name: SWEETWATER
  lata: '720'
  ilec_name: FRONTIER COMMUNICATIONS OF THE SOUTHWEST INC. - NV
  lat: '38.46344'
  long: "-119.173097"
  closest_city:
    name: Topaz Lake
    distance:
      value: 41.35
      units: km
- country: US
  region: NV
  exchange: '345223'
  name: Telegraph Canyon
  short_name: TELGRPHCYN
  lata: '720'
  ilec_name: NEVADA BELL
  lat:
  long:
- country: US
  region: NV
  exchange: '345224'
  name: Tempiute
  short_name: TEMPIUTE
  lata: '720'
  ilec_name: LINCOLN COUNTY TEL. SYSTEM, INC.
  lat:
  long:
- country: US
  region: NV
  exchange: '345288'
  name: The Lakes
  short_name: THE LAKES
  lata: '721'
  ilec_name: CENTRAL TEL. CO. - NEVADA DBA CENTURYLINK
  lat:
  long:
- country: US
  region: NV
  exchange: '345225'
  name: Tippett
  short_name: TIPPETT
  lata: '720'
  ilec_name: NEVADA BELL
  lat:
  long:
- country: US
  region: NV
  exchange: '131550'
  name: Tonopah
  short_name: TONOPAH
  lata: '720'
  ilec_name: CITIZENS TELECOMM CO OF NV DBA FRONTIER COMM OF NV
  lat: '38.069155'
  long: "-117.228558"
  closest_city:
    name: Tonopah
    distance:
      value: 1.49
      units: km
- country: US
  region: NV
  exchange: '131560'
  name: Topaz Lake
  short_name: TOPAZ LAKE
  lata: '720'
  ilec_name: FRONTIER COMMUNICATIONS OF THE SOUTHWEST INC. - NV
  lat: '38.700364'
  long: "-119.550596"
  closest_city:
    name: Topaz Lake
    distance:
      value: 0.75
      units: km
- country: US
  region: NV
  exchange: '219470'
  name: Toquop
  short_name: TOQUOP
  lata: '720'
  ilec_name: LINCOLN COUNTY TEL. SYSTEM, INC.
  lat: '36.875907'
  long: "-114.08841"
  closest_city:
    name: Mesquite
    distance:
      value: 9.01
      units: km
- country: US
  region: NV
  exchange: '345229'
  name: Tungsten
  short_name: TUNGSTEN
  lata: '720'
  ilec_name: NEVADA BELL
  lat:
  long:
- country: US
  region: NV
  exchange: '131570'
  name: Tuscarora
  short_name: TUSCARORA
  lata: '720'
  ilec_name: RURAL TEL CO
  lat: '41.319771'
  long: "-116.110542"
  closest_city:
    name: Osino
    distance:
      value: 56.52
      units: km
- country: US
  region: NV
  exchange: '345231'
  name: Unionville
  short_name: UNIONVILLE
  lata: '720'
  ilec_name: NEVADA BELL
  lat:
  long:
- country: US
  region: NV
  exchange: '131580'
  name: Upper Muddy
  short_name: UPPERMUDDY
  lata: '721'
  ilec_name: MOAPA VALLEY TEL. CO.
  lat: '36.718697'
  long: "-114.703519"
  closest_city:
    name: Moapa Town
    distance:
      value: 6.72
      units: km
- country: US
  region: NV
  exchange: '131395'
  name: Verdi
  short_name: VERDI
  lata: '720'
  ilec_name: NEVADA BELL
  lat: '39.525978'
  long: "-119.807959"
  closest_city:
    name: Reno
    distance:
      value: 4.35
      units: km
- country: US
  region: NV
  exchange: '345233'
  name: Virgin Valley
  short_name: VIRGIN VLY
  lata: '720'
  ilec_name: HUMBOLDT TELEPHONE COMPANY
  lat:
  long:
- country: US
  region: NV
  exchange: '131590'
  name: Virginia City
  short_name: VIRGINIACY
  lata: '720'
  ilec_name: NEVADA BELL
  lat: '39.3081'
  long: "-119.647804"
  closest_city:
    name: Virginia City
    distance:
      value: 0.09
      units: km
- country: US
  region: NV
  exchange: '345235'
  name: Vista
  short_name: VISTA
  lata: '720'
  ilec_name: NEVADA BELL
  lat:
  long:
- country: US
  region: NV
  exchange: '345237'
  name: Wabuska
  short_name: WABUSKA
  lata: '720'
  ilec_name: FRONTIER COMMUNICATIONS OF THE SOUTHWEST INC. - NV
  lat:
  long:
- country: US
  region: NV
  exchange: '345238'
  name: Wadsworth
  short_name: WADSWORTH
  lata: '720'
  ilec_name: NEVADA BELL
  lat:
  long:
- country: US
  region: NV
  exchange: '345239'
  name: Walker Lake
  short_name: WALKERLAKE
  lata: '720'
  ilec_name: NEVADA BELL
  lat:
  long:
- country: US
  region: NV
  exchange: '131396'
  name: Washoe Valley
  short_name: WASHOE VLY
  lata: '720'
  ilec_name: NEVADA BELL
  lat: '39.525978'
  long: "-119.807959"
  closest_city:
    name: Reno
    distance:
      value: 4.35
      units: km
- country: US
  region: NV
  exchange: '345241'
  name: Weed Heights
  short_name: WEED HTS
  lata: '720'
  ilec_name: FRONTIER COMMUNICATIONS OF THE SOUTHWEST INC. - NV
  lat:
  long:
- country: US
  region: NV
  exchange: '345242'
  name: Wellington
  short_name: WELLINGTON
  lata: '720'
  ilec_name: FRONTIER COMMUNICATIONS OF THE SOUTHWEST INC. - NV
  lat:
  long:
- country: US
  region: NV
  exchange: '131600'
  name: Wells
  short_name: WELLS
  lata: '720'
  ilec_name: CITIZENS TELECOMM CO OF NV DBA FRONTIER COMM OF NV
  lat: '41.109362'
  long: "-114.960499"
  closest_city:
    name: Wells
    distance:
      value: 0.73
      units: km
- country: US
  region: NV
  exchange: '131610'
  name: Wendover
  short_name: WENDOVER
  lata: '660'
  ilec_name: CITIZENS TELECOMM CO OF NV DBA FRONTIER COMM OF NV
  lat: '40.754951'
  long: "-114.129075"
  closest_city:
    name: West Wendover
    distance:
      value: 4.56
      units: km
- country: US
  region: NV
  exchange: '131620'
  name: Western Wendover
  short_name: W WENDOVER
  lata: '720'
  ilec_name: BEEHIVE TELEPHONE CO., INC. -  NEVADA
  lat: '41.034117'
  long: "-114.484738"
  closest_city:
    name: Oasis
    distance:
      value: 0.94
      units: km
- country: US
  region: NV
  exchange: '345244'
  name: White River
  short_name: WHITERIVER
  lata: '720'
  ilec_name: NEVADA BELL
  lat:
  long:
- country: US
  region: NV
  exchange: '345245'
  name: Wilder Creek
  short_name: WILDER CRK
  lata: '720'
  ilec_name: HUMBOLDT TELEPHONE COMPANY
  lat:
  long:
- country: US
  region: NV
  exchange: '131630'
  name: Winnemucca
  short_name: WINNEMUCCA
  lata: '720'
  ilec_name: NEVADA BELL
  lat: '40.965729'
  long: "-117.741592"
  closest_city:
    name: Winnemucca
    distance:
      value: 1.42
      units: km
- country: US
  region: NV
  exchange: '131640'
  name: Yerington
  short_name: YERINGTON
  lata: '720'
  ilec_name: FRONTIER COMMUNICATIONS OF THE SOUTHWEST INC. - NV
  lat: '38.982339'
  long: "-119.157116"
  closest_city:
    name: Yerington
    distance:
      value: 5.05
      units: km
- country: US
  region: NV
  exchange: '345249'
  name: Zephyr Cove
  short_name: ZEPHYRCOVE
  lata: '720'
  ilec_name: FRONTIER COMMUNICATIONS OF THE SOUTHWEST INC. - NV
  lat:
  long:
- country: US
  region: NV
  exchange: '345248'
  name: Zephyr Point
  short_name: ZEPHYR PT
  lata: '720'
  ilec_name: FRONTIER COMMUNICATIONS OF THE SOUTHWEST INC. - NV
  lat:
  long:
