---
cities:
- country: US
  region: FL
  name: Acacia Villas
  lat: '26.6457'
  long: "-80.1104"
  nearby_rate_centers:
  - name: WPALMBEACH
    distance:
      value: 7.22
      units: km
  - name: BOYNTONBCH
    distance:
      value: 14.54
      units: km
  - name: DELRAY BCH
    distance:
      value: 21.29
      units: km
- country: US
  region: FL
  name: Alachua
  lat: '29.7779'
  long: "-82.4832"
  nearby_rate_centers:
  - name: ALACHUA
    distance:
      value: 1.76
      units: km
  - name: HIGH SPG
    distance:
      value: 12.1
      units: km
  - name: NEWBERRY
    distance:
      value: 18.54
      units: km
- country: US
  region: FL
  name: Alafaya
  lat: '28.5280'
  long: "-81.1868"
  nearby_rate_centers:
  - name: OVIEDO
    distance:
      value: 15.41
      units: km
  - name: EASTORANGE
    distance:
      value: 17.41
      units: km
  - name: WINTERPARK
    distance:
      value: 17.98
      units: km
- country: US
  region: FL
  name: Alford
  lat: '30.6967'
  long: "-85.3953"
  nearby_rate_centers:
  - name: ALFORD
    distance:
      value: 0.64
      units: km
  - name: COTTONDALE
    distance:
      value: 11.64
      units: km
  - name: CHIPLEY
    distance:
      value: 16.47
      units: km
- country: US
  region: FL
  name: Allentown
  lat: '30.7745'
  long: "-87.0822"
  nearby_rate_centers:
  - name: MILTON
    distance:
      value: 17.32
      units: km
  - name: PACE
    distance:
      value: 20.33
      units: km
  - name: JAY
    distance:
      value: 21.19
      units: km
- country: US
  region: FL
  name: Altamonte Springs
  lat: '28.6615'
  long: "-81.3953"
  nearby_rate_centers:
  - name: WINTERPARK
    distance:
      value: 8.12
      units: km
  - name: APOPKA
    distance:
      value: 10.65
      units: km
  - name: ORLANDO
    distance:
      value: 13.6
      units: km
- country: US
  region: FL
  name: Altha
  lat: '30.5721'
  long: "-85.1263"
  nearby_rate_centers:
  - name: ALTHA
    distance:
      value: 0.53
      units: km
  - name: BLOUNTSTN
    distance:
      value: 16.5
      units: km
  - name: GRANDRIDGE
    distance:
      value: 19.41
      units: km
- country: US
  region: FL
  name: Altoona
  lat: '28.9681'
  long: "-81.6482"
  nearby_rate_centers:
  - name: UMATILLA
    distance:
      value: 4.43
      units: km
  - name: EUSTIS
    distance:
      value: 12.68
      units: km
  - name: MOUNT DORA
    distance:
      value: 17.95
      units: km
- country: US
  region: FL
  name: Alturas
  lat: '27.8417'
  long: "-81.6952"
  nearby_rate_centers:
  - name: LAKE WALES
    distance:
      value: 13.16
      units: km
  - name: FORT MEADE
    distance:
      value: 13.87
      units: km
  - name: BARTOW
    distance:
      value: 14.58
      units: km
- country: US
  region: FL
  name: Alva
  lat: '26.7188'
  long: "-81.6269"
  nearby_rate_centers:
  - name: LEHIGHACRS
    distance:
      value: 12.56
      units: km
  - name: LABELLE
    distance:
      value: 18.9
      units: km
  - name: FORT MYERS
    distance:
      value: 24.32
      units: km
- country: US
  region: FL
  name: Andrews
  lat: '29.5496'
  long: "-82.8883"
  nearby_rate_centers:
  - name: CHIEFLAND
    distance:
      value: 8.11
      units: km
  - name: TRENTON
    distance:
      value: 9.96
      units: km
  - name: OLD TOWN
    distance:
      value: 10.15
      units: km
- country: US
  region: FL
  name: Anna Maria
  lat: '27.5297'
  long: "-82.7339"
  nearby_rate_centers:
  - name: PALMETTO
    distance:
      value: 16.12
      units: km
  - name: BRADENTON
    distance:
      value: 16.9
      units: km
  - name: STPETERSBG
    distance:
      value: 28.59
      units: km
- country: US
  region: FL
  name: Apalachicola
  lat: '29.7283'
  long: "-84.9940"
  nearby_rate_centers:
  - name: APALCHICOL
    distance:
      value: 1.35
      units: km
  - name: EAST POINT
    distance:
      value: 10.49
      units: km
  - name: PORTST JOE
    distance:
      value: 30.69
      units: km
- country: US
  region: FL
  name: Apollo Beach
  lat: '27.7618'
  long: "-82.4003"
  nearby_rate_centers:
  - name: TAMPASTH
    distance:
      value: 8.28
      units: km
  - name: TAMPACEN
    distance:
      value: 21.55
      units: km
  - name: STPETERSBG
    distance:
      value: 23.9
      units: km
- country: US
  region: FL
  name: Apopka
  lat: '28.7015'
  long: "-81.5316"
  nearby_rate_centers:
  - name: APOPKA
    distance:
      value: 3.53
      units: km
  - name: MOUNT DORA
    distance:
      value: 14.92
      units: km
  - name: WINTERGRDN
    distance:
      value: 15.72
      units: km
- country: US
  region: FL
  name: Arcadia
  lat: '27.2215'
  long: "-81.8585"
  nearby_rate_centers:
  - name: ARCADIA
    distance:
      value: 0.47
      units: km
  - name: ZOLFO SPG
    distance:
      value: 31.8
      units: km
  - name: MYAKKA
    distance:
      value: 33.5
      units: km
- country: US
  region: FL
  name: Archer
  lat: '29.5400'
  long: "-82.5186"
  nearby_rate_centers:
  - name: ARCHER
    distance:
      value: 1.81
      units: km
  - name: BRONSON
    distance:
      value: 14.74
      units: km
  - name: NEWBERRY
    distance:
      value: 15.09
      units: km
- country: US
  region: FL
  name: Aripeka
  lat: '28.4308'
  long: "-82.6668"
  nearby_rate_centers:
  - name: HUDSON
    distance:
      value: 7.64
      units: km
  - name: WEEKICHSPG
    distance:
      value: 14.03
      units: km
  - name: NWPTRICHEY
    distance:
      value: 21.37
      units: km
  - name: SEVEN SPGS
    distance:
      value: 21.37
      units: km
- country: US
  region: FL
  name: Asbury Lake
  lat: '30.0472'
  long: "-81.7853"
  nearby_rate_centers:
  - name: MIDDLEBURG
    distance:
      value: 8.07
      units: km
  - name: GREENCVSPG
    distance:
      value: 11.61
      units: km
  - name: ORANGEPARK
    distance:
      value: 15.55
      units: km
- country: US
  region: FL
  name: Astatula
  lat: '28.7065'
  long: "-81.7346"
  nearby_rate_centers:
  - name: HOWEYINHLS
    distance:
      value: 4.11
      units: km
  - name: TAVARES
    distance:
      value: 11.4
      units: km
  - name: MONTVERDE
    distance:
      value: 13.12
      units: km
- country: US
  region: FL
  name: Astor
  lat: '29.1635'
  long: "-81.5349"
  nearby_rate_centers:
  - name: ASTOR
    distance:
      value: 1.32
      units: km
  - name: PIERSON
    distance:
      value: 10.01
      units: km
  - name: DELEON SPG
    distance:
      value: 17.99
      units: km
- country: US
  region: FL
  name: Atlantic Beach
  lat: '30.3375'
  long: "-81.4127"
  nearby_rate_centers:
  - name: JACKSOLBCH
    distance:
      value: 6.41
      units: km
  - name: PNTVDRABCH
    distance:
      value: 12.2
      units: km
  - name: JACKSONVL
    distance:
      value: 24.36
      units: km
- country: US
  region: FL
  name: Atlantis
  lat: '26.5962'
  long: "-80.1031"
  nearby_rate_centers:
  - name: BOYNTONBCH
    distance:
      value: 9.26
      units: km
  - name: WPALMBEACH
    distance:
      value: 11.45
      units: km
  - name: DELRAY BCH
    distance:
      value: 15.76
      units: km
- country: US
  region: FL
  name: Auburndale
  lat: '28.0963'
  long: "-81.8012"
  nearby_rate_centers:
  - name: POLK CITY
    distance:
      value: 9.74
      units: km
  - name: WINTER HVN
    distance:
      value: 10.03
      units: km
  - name: LAKELAND
    distance:
      value: 16.28
      units: km
- country: US
  region: FL
  name: Aucilla
  lat: '30.4770'
  long: "-83.7604"
  nearby_rate_centers:
  - name: MONTICELLO
    distance:
      value: 12.33
      units: km
  - name: GREENVILLE
    distance:
      value: 12.97
      units: km
  - name: CHERRYLAKE
    distance:
      value: 33.82
      units: km
- country: US
  region: FL
  name: Avalon
  lat: '30.5366'
  long: "-87.1010"
  nearby_rate_centers:
  - name: PACE
    distance:
      value: 8.38
      units: km
  - name: MILTON
    distance:
      value: 11.92
      units: km
  - name: PENSACOLA
    distance:
      value: 17.13
      units: km
- country: US
  region: FL
  name: Ave Maria
  lat: '26.3218'
  long: "-81.4397"
  nearby_rate_centers:
  - name: IMMOKALEE
    distance:
      value: 10.71
      units: km
  - name: BONITA SPG
    distance:
      value: 34.24
      units: km
  - name: NO NAPLES
    distance:
      value: 37.23
      units: km
- country: US
  region: FL
  name: Aventura
  lat: '25.9566'
  long: "-80.1371"
  nearby_rate_centers:
  - name: NORTH DADE
    distance:
      value: 4.34
      units: km
  - name: HOLLYWOOD
    distance:
      value: 5.86
      units: km
  - name: FTLAUDERDL
    distance:
      value: 17.84
      units: km
- country: US
  region: FL
  name: Avon Park
  lat: '27.5898'
  long: "-81.5068"
  nearby_rate_centers:
  - name: AVON PARK
    distance:
      value: 2.68
      units: km
  - name: SEBRING
    distance:
      value: 12.09
      units: km
  - name: FROSTPROOF
    distance:
      value: 17.12
      units: km
- country: US
  region: FL
  name: Azalea Park
  lat: '28.5473'
  long: "-81.2956"
  nearby_rate_centers:
  - name: ORLANDO
    distance:
      value: 7.59
      units: km
  - name: WINTERPARK
    distance:
      value: 7.98
      units: km
  - name: OVIEDO
    distance:
      value: 16.31
      units: km
- country: US
  region: FL
  name: Babson Park
  lat: '27.8342'
  long: "-81.5281"
  nearby_rate_centers:
  - name: LAKE WALES
    distance:
      value: 9.61
      units: km
  - name: FROSTPROOF
    distance:
      value: 10.3
      units: km
  - name: INDIANLAKE
    distance:
      value: 19.3
      units: km
- country: US
  region: FL
  name: Bagdad
  lat: '30.5824'
  long: "-87.0447"
  nearby_rate_centers:
  - name: MILTON
    distance:
      value: 4.94
      units: km
  - name: PACE
    distance:
      value: 10.04
      units: km
  - name: HOLLEYNVRR
    distance:
      value: 20.02
      units: km
- country: US
  region: FL
  name: Bal Harbour
  lat: '25.8935'
  long: "-80.1258"
  nearby_rate_centers:
  - name: NORTH DADE
    distance:
      value: 4.56
      units: km
  - name: HOLLYWOOD
    distance:
      value: 12.97
      units: km
  - name: MIAMI
    distance:
      value: 14.71
      units: km
- country: US
  region: FL
  name: Baldwin
  lat: '30.3052'
  long: "-81.9744"
  nearby_rate_centers:
  - name: BALDWIN
    distance:
      value: 0.81
      units: km
  - name: MAXVILLE
    distance:
      value: 12.26
      units: km
  - name: MACCLENNY
    distance:
      value: 14.14
      units: km
- country: US
  region: FL
  name: Balm
  lat: '27.7542'
  long: "-82.2882"
  nearby_rate_centers:
  - name: TAMPASTH
    distance:
      value: 6.47
      units: km
  - name: TAMPAEST
    distance:
      value: 23.59
      units: km
  - name: TAMPACEN
    distance:
      value: 27.37
      units: km
- country: US
  region: FL
  name: Bardmoor
  lat: '27.8574'
  long: "-82.7534"
  nearby_rate_centers:
  - name: CLEARWATER
    distance:
      value: 12.97
      units: km
  - name: STPETERSBG
    distance:
      value: 14.3
      units: km
  - name: TAMPACEN
    distance:
      value: 30.65
      units: km
- country: US
  region: FL
  name: Bartow
  lat: '27.8868'
  long: "-81.8214"
  nearby_rate_centers:
  - name: BARTOW
    distance:
      value: 1.2
      units: km
  - name: MULBERRY
    distance:
      value: 14.08
      units: km
  - name: BRADLEY
    distance:
      value: 14.08
      units: km
  - name: FORT MEADE
    distance:
      value: 15.36
      units: km
- country: US
  region: FL
  name: Bascom
  lat: '30.9278'
  long: "-85.1181"
  nearby_rate_centers:
  - name: MALONE
    distance:
      value: 6.13
      units: km
  - name: GREENWOOD
    distance:
      value: 7.97
      units: km
  - name: MARIANNA
    distance:
      value: 20.15
      units: km
- country: US
  region: FL
  name: Bay Harbor Islands
  lat: '25.8877'
  long: "-80.1334"
  nearby_rate_centers:
  - name: NORTH DADE
    distance:
      value: 4.59
      units: km
  - name: HOLLYWOOD
    distance:
      value: 13.49
      units: km
  - name: MIAMI
    distance:
      value: 13.8
      units: km
- country: US
  region: FL
  name: Bay Hill
  lat: '28.4559'
  long: "-81.5122"
  nearby_rate_centers:
  - name: WINDERMERE
    distance:
      value: 5.2
      units: km
  - name: LKBUNAVIST
    distance:
      value: 7.48
      units: km
  - name: WKISSIMMEE
    distance:
      value: 12.31
      units: km
- country: US
  region: FL
  name: Bay Lake
  lat: '28.3870'
  long: "-81.5751"
  nearby_rate_centers:
  - name: LKBUNAVIST
    distance:
      value: 4.15
      units: km
  - name: REEDYCREEK
    distance:
      value: 5.63
      units: km
  - name: CELEBRATN
    distance:
      value: 6.48
      units: km
- country: US
  region: FL
  name: Bay Pines
  lat: '27.8139'
  long: "-82.7748"
  nearby_rate_centers:
  - name: STPETERSBG
    distance:
      value: 13.72
      units: km
  - name: CLEARWATER
    distance:
      value: 17.16
      units: km
  - name: TAMPACEN
    distance:
      value: 34.45
      units: km
- country: US
  region: FL
  name: Bayonet Point
  lat: '28.3254'
  long: "-82.6834"
  nearby_rate_centers:
  - name: HUDSON
    distance:
      value: 4.36
      units: km
  - name: NWPTRICHEY
    distance:
      value: 9.56
      units: km
  - name: SEVEN SPGS
    distance:
      value: 9.56
      units: km
  - name: TARPON SPG
    distance:
      value: 21.32
      units: km
- country: US
  region: FL
  name: Bayport
  lat: '28.5468'
  long: "-82.6456"
  nearby_rate_centers:
  - name: WEEKICHSPG
    distance:
      value: 6.23
      units: km
  - name: HUDSON
    distance:
      value: 20.68
      units: km
  - name: BROOKSVL
    distance:
      value: 25.73
      units: km
- country: US
  region: FL
  name: Bayshore Gardens
  lat: '27.4345'
  long: "-82.5793"
  nearby_rate_centers:
  - name: BRADENTON
    distance:
      value: 6.37
      units: km
  - name: PALMETTO
    distance:
      value: 8.86
      units: km
  - name: SARASOTA
    distance:
      value: 11.39
      units: km
- country: US
  region: FL
  name: Beacon Square
  lat: '28.2118'
  long: "-82.7504"
  nearby_rate_centers:
  - name: NWPTRICHEY
    distance:
      value: 5.45
      units: km
  - name: SEVEN SPGS
    distance:
      value: 5.45
      units: km
  - name: TARPON SPG
    distance:
      value: 7.61
      units: km
  - name: HUDSON
    distance:
      value: 18.07
      units: km
- country: US
  region: FL
  name: Bear Creek
  lat: '27.7542'
  long: "-82.7285"
  nearby_rate_centers:
  - name: STPETERSBG
    distance:
      value: 8.71
      units: km
  - name: CLEARWATER
    distance:
      value: 24.63
      units: km
  - name: PALMETTO
    distance:
      value: 30.89
      units: km
- country: US
  region: FL
  name: Bee Ridge
  lat: '27.2855'
  long: "-82.4731"
  nearby_rate_centers:
  - name: SARASOTA
    distance:
      value: 8.55
      units: km
  - name: VENICE
    distance:
      value: 20.65
      units: km
  - name: BRADENTON
    distance:
      value: 24.7
      units: km
- country: US
  region: FL
  name: Bell
  lat: '29.7568'
  long: "-82.8620"
  nearby_rate_centers:
  - name: TRENTON
    distance:
      value: 16.16
      units: km
  - name: OLD TOWN
    distance:
      value: 20.55
      units: km
  - name: FORT WHITE
    distance:
      value: 23.63
      units: km
- country: US
  region: FL
  name: Bellair-Meadowbrook Terrace
  lat: '30.1796'
  long: "-81.7375"
  nearby_rate_centers:
  - name: ORANGEPARK
    distance:
      value: 3.9
      units: km
  - name: JULINGTON
    distance:
      value: 12.55
      units: km
  - name: JACKSONVL
    distance:
      value: 17.52
      units: km
- country: US
  region: FL
  name: Belle Glade
  lat: '26.6916'
  long: "-80.6656"
  nearby_rate_centers:
  - name: BELLEGLADE
    distance:
      value: 1.22
      units: km
  - name: PAHOKEE
    distance:
      value: 14.08
      units: km
  - name: CLEWISTON
    distance:
      value: 25.5
      units: km
- country: US
  region: FL
  name: Belle Isle
  lat: '28.4723'
  long: "-81.3491"
  nearby_rate_centers:
  - name: ORLANDO
    distance:
      value: 7.96
      units: km
  - name: WINTERPARK
    distance:
      value: 14.1
      units: km
  - name: WINDERMERE
    distance:
      value: 18.32
      units: km
- country: US
  region: FL
  name: Belleair
  lat: '27.9365'
  long: "-82.8114"
  nearby_rate_centers:
  - name: CLEARWATER
    distance:
      value: 3.55
      units: km
  - name: TARPON SPG
    distance:
      value: 23.74
      units: km
  - name: STPETERSBG
    distance:
      value: 24.52
      units: km
- country: US
  region: FL
  name: Belleair Beach
  lat: '27.9242'
  long: "-82.8359"
  nearby_rate_centers:
  - name: CLEARWATER
    distance:
      value: 5.93
      units: km
  - name: STPETERSBG
    distance:
      value: 25.29
      units: km
  - name: TARPON SPG
    distance:
      value: 25.73
      units: km
- country: US
  region: FL
  name: Belleair Bluffs
  lat: '27.9198'
  long: "-82.8191"
  nearby_rate_centers:
  - name: CLEARWATER
    distance:
      value: 5.56
      units: km
  - name: STPETERSBG
    distance:
      value: 23.74
      units: km
  - name: TARPON SPG
    distance:
      value: 25.73
      units: km
- country: US
  region: FL
  name: Belleair Shore
  lat: '27.9173'
  long: "-82.8455"
  nearby_rate_centers:
  - name: CLEARWATER
    distance:
      value: 7.11
      units: km
  - name: STPETERSBG
    distance:
      value: 25.52
      units: km
  - name: TARPON SPG
    distance:
      value: 26.77
      units: km
- country: US
  region: FL
  name: Belleview
  lat: '29.0608'
  long: "-82.0565"
  nearby_rate_centers:
  - name: BELLEVIEW
    distance:
      value: 0.56
      units: km
  - name: SLRSPGSHRS
    distance:
      value: 6.18
      units: km
  - name: OCKLAWAHA
    distance:
      value: 12.53
      units: km
- country: US
  region: FL
  name: Bellview
  lat: '30.4620'
  long: "-87.3120"
  nearby_rate_centers:
  - name: PENSACOLA
    distance:
      value: 10.53
      units: km
  - name: CANTONMENT
    distance:
      value: 16.25
      units: km
  - name: GULFBREEZE
    distance:
      value: 19.47
      units: km
- country: US
  region: FL
  name: Berkshire Lakes
  lat: '26.1602'
  long: "-81.7274"
  nearby_rate_centers:
  - name: NAPLES
    distance:
      value: 7.27
      units: km
  - name: NO NAPLES
    distance:
      value: 14.16
      units: km
  - name: BONITA SPG
    distance:
      value: 19.85
      units: km
- country: US
  region: FL
  name: Berrydale
  lat: '30.8982'
  long: "-87.0350"
  nearby_rate_centers:
  - name: JAY
    distance:
      value: 12.7
      units: km
  - name: MUNSON
    distance:
      value: 16.03
      units: km
  - name: CENTURY
    distance:
      value: 23.12
      units: km
- country: US
  region: FL
  name: Beverly Beach
  lat: '29.5166'
  long: "-81.1476"
  nearby_rate_centers:
  - name: FLAGLERBCH
    distance:
      value: 4.88
      units: km
  - name: PALM COAST
    distance:
      value: 8.53
      units: km
  - name: BUNNELL
    distance:
      value: 12.66
      units: km
- country: US
  region: FL
  name: Beverly Hills
  lat: '28.9176'
  long: "-82.4542"
  nearby_rate_centers:
  - name: BEVERLYHLS
    distance:
      value: 1.16
      units: km
  - name: CRYSTALRIV
    distance:
      value: 12.9
      units: km
  - name: DUNNELLON
    distance:
      value: 14.51
      units: km
- country: US
  region: FL
  name: Big Coppitt Key
  lat: '24.5914'
  long: "-81.6574"
  nearby_rate_centers:
  - name: SUGARLFKEY
    distance:
      value: 11.05
      units: km
  - name: KEY WEST
    distance:
      value: 14.12
      units: km
  - name: BIG PINE
    distance:
      value: 32.37
      units: km
- country: US
  region: FL
  name: Big Pine Key
  lat: '24.6893'
  long: "-81.3676"
  nearby_rate_centers:
  - name: BIG PINE
    distance:
      value: 2.54
      units: km
  - name: SUGARLFKEY
    distance:
      value: 20.76
      units: km
  - name: MARATHON
    distance:
      value: 28.71
      units: km
  - name: KEYS
    distance:
      value: 28.71
      units: km
- country: US
  region: FL
  name: Biscayne Park
  lat: '25.8818'
  long: "-80.1814"
  nearby_rate_centers:
  - name: NORTH DADE
    distance:
      value: 5.08
      units: km
  - name: MIAMI
    distance:
      value: 11.95
      units: km
  - name: HOLLYWOOD
    distance:
      value: 14.43
      units: km
- country: US
  region: FL
  name: Bithlo
  lat: '28.5644'
  long: "-81.1073"
  nearby_rate_centers:
  - name: EASTORANGE
    distance:
      value: 10.25
      units: km
  - name: OVIEDO
    distance:
      value: 14.38
      units: km
  - name: GENEVA
    distance:
      value: 19.08
      units: km
- country: US
  region: FL
  name: Black Diamond
  lat: '28.9067'
  long: "-82.4946"
  nearby_rate_centers:
  - name: BEVERLYHLS
    distance:
      value: 4.69
      units: km
  - name: CRYSTALRIV
    distance:
      value: 8.86
      units: km
  - name: HOMOSSSSPG
    distance:
      value: 14.74
      units: km
- country: US
  region: FL
  name: Black Hammock
  lat: '28.7107'
  long: "-81.1801"
  nearby_rate_centers:
  - name: OVIEDO
    distance:
      value: 5.24
      units: km
  - name: GENEVA
    distance:
      value: 7.52
      units: km
  - name: SANFORD
    distance:
      value: 13.52
      units: km
- country: US
  region: FL
  name: Bloomingdale
  lat: '27.8784'
  long: "-82.2624"
  nearby_rate_centers:
  - name: TAMPAEST
    distance:
      value: 9.72
      units: km
  - name: TAMPASTH
    distance:
      value: 19.65
      units: km
  - name: PLANT CITY
    distance:
      value: 20.5
      units: km
- country: US
  region: FL
  name: Blountstown
  lat: '30.4430'
  long: "-85.0455"
  nearby_rate_centers:
  - name: BLOUNTSTN
    distance:
      value: 0.46
      units: km
  - name: BRISTOL
    distance:
      value: 5.9
      units: km
  - name: ALTHA
    distance:
      value: 16.74
      units: km
- country: US
  region: FL
  name: Boca Raton
  lat: '26.3752'
  long: "-80.1080"
  nearby_rate_centers:
  - name: BOCA RATON
    distance:
      value: 3.41
      units: km
  - name: DEERFLDBCH
    distance:
      value: 7.03
      units: km
  - name: DELRAY BCH
    distance:
      value: 10.26
      units: km
- country: US
  region: FL
  name: Bokeelia
  lat: '26.6800'
  long: "-82.1409"
  nearby_rate_centers:
  - name: PINEISLAND
    distance:
      value: 7.75
      units: km
  - name: BOCAGRANDE
    distance:
      value: 13.55
      units: km
  - name: NCAPECORAL
    distance:
      value: 20.3
      units: km
- country: US
  region: FL
  name: Bonifay
  lat: '30.7786'
  long: "-85.6862"
  nearby_rate_centers:
  - name: BONIFAY
    distance:
      value: 1.36
      units: km
  - name: CHIPLEY
    distance:
      value: 14.45
      units: km
  - name: WESTVILLE
    distance:
      value: 15.55
      units: km
- country: US
  region: FL
  name: Bonita Springs
  lat: '26.3558'
  long: "-81.7859"
  nearby_rate_centers:
  - name: BONITA SPG
    distance:
      value: 2.71
      units: km
  - name: NO NAPLES
    distance:
      value: 10.31
      units: km
  - name: FTMYERSBCH
    distance:
      value: 19.32
      units: km
- country: US
  region: FL
  name: Boulevard Gardens
  lat: '26.1253'
  long: "-80.1804"
  nearby_rate_centers:
  - name: FTLAUDERDL
    distance:
      value: 3.9
      units: km
  - name: POMPANOBCH
    distance:
      value: 13.39
      units: km
  - name: HOLLYWOOD
    distance:
      value: 13.39
      units: km
- country: US
  region: FL
  name: Bowling Green
  lat: '27.6380'
  long: "-81.8244"
  nearby_rate_centers:
  - name: BOWLNGGREN
    distance:
      value: 1.09
      units: km
  - name: WAUCHULA
    distance:
      value: 9.68
      units: km
  - name: FORT MEADE
    distance:
      value: 12.97
      units: km
- country: US
  region: FL
  name: Boynton Beach
  lat: '26.5281'
  long: "-80.0811"
  nearby_rate_centers:
  - name: BOYNTONBCH
    distance:
      value: 2.48
      units: km
  - name: DELRAY BCH
    distance:
      value: 7.89
      units: km
  - name: WPALMBEACH
    distance:
      value: 18.27
      units: km
- country: US
  region: FL
  name: Bradenton
  lat: '27.4901'
  long: "-82.5757"
  nearby_rate_centers:
  - name: BRADENTON
    distance:
      value: 0.75
      units: km
  - name: PALMETTO
    distance:
      value: 2.67
      units: km
  - name: SARASOTA
    distance:
      value: 17.16
      units: km
- country: US
  region: FL
  name: Bradenton Beach
  lat: '27.4651'
  long: "-82.6958"
  nearby_rate_centers:
  - name: BRADENTON
    distance:
      value: 12.91
      units: km
  - name: PALMETTO
    distance:
      value: 13.42
      units: km
  - name: SARASOTA
    distance:
      value: 21.17
      units: km
- country: US
  region: FL
  name: Bradfordville
  lat: '30.5735'
  long: "-84.2055"
  nearby_rate_centers:
  - name: TALLAHASSE
    distance:
      value: 16.04
      units: km
  - name: HAVANA
    distance:
      value: 20.54
      units: km
  - name: MONTICELLO
    distance:
      value: 32.76
      units: km
- country: US
  region: FL
  name: Bradley Junction
  lat: '27.7942'
  long: "-81.9784"
  nearby_rate_centers:
  - name: MULBERRY
    distance:
      value: 11.92
      units: km
  - name: BRADLEY
    distance:
      value: 11.92
      units: km
  - name: BARTOW
    distance:
      value: 17.82
      units: km
  - name: FORT MEADE
    distance:
      value: 18.94
      units: km
- country: US
  region: FL
  name: Brandon
  lat: '27.9367'
  long: "-82.3000"
  nearby_rate_centers:
  - name: TAMPAEST
    distance:
      value: 4.45
      units: km
  - name: TAMPACEN
    distance:
      value: 15.68
      units: km
  - name: PLANT CITY
    distance:
      value: 19.3
      units: km
- country: US
  region: FL
  name: Branford
  lat: '29.9623'
  long: "-82.9243"
  nearby_rate_centers:
  - name: BRANFORD
    distance:
      value: 0.51
      units: km
  - name: FORT WHITE
    distance:
      value: 22.14
      units: km
  - name: MAYO
    distance:
      value: 25.91
      units: km
- country: US
  region: FL
  name: Brent
  lat: '30.4727'
  long: "-87.2495"
  nearby_rate_centers:
  - name: PENSACOLA
    distance:
      value: 6.94
      units: km
  - name: GULFBREEZE
    distance:
      value: 16.06
      units: km
  - name: CANTONMENT
    distance:
      value: 16.58
      units: km
- country: US
  region: FL
  name: Briny Breezes
  lat: '26.5090'
  long: "-80.0542"
  nearby_rate_centers:
  - name: BOYNTONBCH
    distance:
      value: 1.69
      units: km
  - name: DELRAY BCH
    distance:
      value: 5.67
      units: km
  - name: BOCA RATON
    distance:
      value: 18.07
      units: km
- country: US
  region: FL
  name: Bristol
  lat: '30.4255'
  long: "-84.9773"
  nearby_rate_centers:
  - name: BRISTOL
    distance:
      value: 1.29
      units: km
  - name: BLOUNTSTN
    distance:
      value: 7.0
      units: km
  - name: HOSFORD
    distance:
      value: 17.79
      units: km
- country: US
  region: FL
  name: Broadview Park
  lat: '26.0978'
  long: "-80.2090"
  nearby_rate_centers:
  - name: FTLAUDERDL
    distance:
      value: 6.98
      units: km
  - name: HOLLYWOOD
    distance:
      value: 11.63
      units: km
  - name: POMPANOBCH
    distance:
      value: 17.45
      units: km
- country: US
  region: FL
  name: Bronson
  lat: '29.4501'
  long: "-82.6391"
  nearby_rate_centers:
  - name: BRONSON
    distance:
      value: 0.79
      units: km
  - name: ARCHER
    distance:
      value: 14.49
      units: km
  - name: WILLISTON
    distance:
      value: 19.39
      units: km
- country: US
  region: FL
  name: Brooker
  lat: '29.8877'
  long: "-82.3327"
  nearby_rate_centers:
  - name: BROOKER
    distance:
      value: 0.49
      units: km
  - name: LAKEBUTLER
    distance:
      value: 14.12
      units: km
  - name: ALACHUA
    distance:
      value: 18.5
      units: km
- country: US
  region: FL
  name: Brookridge
  lat: '28.5483'
  long: "-82.4897"
  nearby_rate_centers:
  - name: WEEKICHSPG
    distance:
      value: 9.32
      units: km
  - name: BROOKSVL
    distance:
      value: 10.51
      units: km
  - name: HUDSON
    distance:
      value: 28.12
      units: km
- country: US
  region: FL
  name: Brooksville
  lat: '28.5404'
  long: "-82.3903"
  nearby_rate_centers:
  - name: BROOKSVL
    distance:
      value: 1.94
      units: km
  - name: WEEKICHSPG
    distance:
      value: 18.9
      units: km
  - name: TRILACOCHE
    distance:
      value: 21.86
      units: km
- country: US
  region: FL
  name: Brownsdale
  lat: '30.8859'
  long: "-87.2218"
  nearby_rate_centers:
  - name: CENTURY
    distance:
      value: 9.81
      units: km
  - name: JAY
    distance:
      value: 10.38
      units: km
  - name: MOLINO
    distance:
      value: 20.07
      units: km
- country: US
  region: FL
  name: Brownsville
  lat: '25.8216'
  long: "-80.2417"
  nearby_rate_centers:
  - name: MIAMI
    distance:
      value: 7.33
      units: km
  - name: NORTH DADE
    distance:
      value: 13.99
      units: km
  - name: HOLLYWOOD
    distance:
      value: 22.73
      units: km
- country: US
  region: FL
  name: Buckhead Ridge
  lat: '27.1331'
  long: "-80.8868"
  nearby_rate_centers:
  - name: OKEECHOBEE
    distance:
      value: 13.49
      units: km
  - name: MOOREHAVEN
    distance:
      value: 39.22
      units: km
  - name: PAHOKEE
    distance:
      value: 41.25
      units: km
- country: US
  region: FL
  name: Buckingham
  lat: '26.6613'
  long: "-81.7402"
  nearby_rate_centers:
  - name: LEHIGHACRS
    distance:
      value: 11.5
      units: km
  - name: FORT MYERS
    distance:
      value: 11.71
      units: km
  - name: NOFT MYERS
    distance:
      value: 14.07
      units: km
- country: US
  region: FL
  name: Buenaventura Lakes
  lat: '28.3349'
  long: "-81.3539"
  nearby_rate_centers:
  - name: KISSIMMEE
    distance:
      value: 6.05
      units: km
  - name: ST CLOUD
    distance:
      value: 11.65
      units: km
  - name: WKISSIMMEE
    distance:
      value: 13.38
      units: km
- country: US
  region: FL
  name: Bunnell
  lat: '29.4193'
  long: "-81.3231"
  nearby_rate_centers:
  - name: BUNNELL
    distance:
      value: 7.5
      units: km
  - name: CRESCENTCY
    distance:
      value: 18.03
      units: km
  - name: FLAGLERBCH
    distance:
      value: 20.27
      units: km
- country: US
  region: FL
  name: Burnt Store Marina
  lat: '26.7645'
  long: "-82.0507"
  nearby_rate_centers:
  - name: PINEISLAND
    distance:
      value: 17.38
      units: km
  - name: NCAPECORAL
    distance:
      value: 17.94
      units: km
  - name: PUNTAGORDA
    distance:
      value: 18.47
      units: km
- country: US
  region: FL
  name: Bushnell
  lat: '28.6860'
  long: "-82.1165"
  nearby_rate_centers:
  - name: BUSHNELL
    distance:
      value: 2.4
      units: km
  - name: WILDWOOD
    distance:
      value: 21.86
      units: km
  - name: TRILACOCHE
    distance:
      value: 25.61
      units: km
- country: US
  region: FL
  name: Butler Beach
  lat: '29.7980'
  long: "-81.2653"
  nearby_rate_centers:
  - name: STAUGUSTIN
    distance:
      value: 12.3
      units: km
  - name: HASTINGS
    distance:
      value: 25.0
      units: km
  - name: PALM COAST
    distance:
      value: 25.54
      units: km
- country: US
  region: FL
  name: Cabana Colony
  lat: '26.8555'
  long: "-80.0864"
  nearby_rate_centers:
  - name: JUPITER
    distance:
      value: 9.51
      units: km
  - name: WPALMBEACH
    distance:
      value: 18.48
      units: km
  - name: HOBE SOUND
    distance:
      value: 23.26
      units: km
- country: US
  region: FL
  name: Callahan
  lat: '30.5655'
  long: "-81.8319"
  nearby_rate_centers:
  - name: CALLAHAN
    distance:
      value: 1.01
      units: km
  - name: HILLIARD
    distance:
      value: 16.08
      units: km
  - name: YULEE
    distance:
      value: 23.2
      units: km
- country: US
  region: FL
  name: Callaway
  lat: '30.1349'
  long: "-85.5568"
  nearby_rate_centers:
  - name: TYNDALLAFB
    distance:
      value: 8.03
      units: km
  - name: PANAMACITY
    distance:
      value: 10.06
      units: km
  - name: LYNN HAVEN
    distance:
      value: 15.62
      units: km
- country: US
  region: FL
  name: Campbell
  lat: '28.2603'
  long: "-81.4525"
  nearby_rate_centers:
  - name: KISSIMMEE
    distance:
      value: 6.68
      units: km
  - name: WKISSIMMEE
    distance:
      value: 10.31
      units: km
  - name: CELEBRATN
    distance:
      value: 12.35
      units: km
- country: US
  region: FL
  name: Campbellton
  lat: '30.9505'
  long: "-85.4025"
  nearby_rate_centers:
  - name: GRACEVILLE
    distance:
      value: 10.9
      units: km
  - name: COTTONDALE
    distance:
      value: 16.72
      units: km
  - name: CHIPLEY
    distance:
      value: 22.48
      units: km
- country: US
  region: FL
  name: Canal Point
  lat: '26.8626'
  long: "-80.6222"
  nearby_rate_centers:
  - name: PAHOKEE
    distance:
      value: 6.62
      units: km
  - name: BELLEGLADE
    distance:
      value: 20.63
      units: km
  - name: INDIANTOWN
    distance:
      value: 22.6
      units: km
- country: US
  region: FL
  name: Cape Canaveral
  lat: '28.3933'
  long: "-80.6049"
  nearby_rate_centers:
  - name: COCOABEACH
    distance:
      value: 8.54
      units: km
  - name: COCOA
    distance:
      value: 12.92
      units: km
  - name: EAU GALLIE
    distance:
      value: 29.78
      units: km
- country: US
  region: FL
  name: Cape Coral
  lat: '26.6443'
  long: "-81.9957"
  nearby_rate_centers:
  - name: NCAPECORAL
    distance:
      value: 5.35
      units: km
  - name: CAPE CORAL
    distance:
      value: 11.55
      units: km
  - name: PINEISLAND
    distance:
      value: 11.57
      units: km
- country: US
  region: FL
  name: Capitola
  lat: '30.4449'
  long: "-84.0799"
  nearby_rate_centers:
  - name: TALLAHASSE
    distance:
      value: 18.81
      units: km
  - name: MONTICELLO
    distance:
      value: 23.16
      units: km
  - name: ST MARKS
    distance:
      value: 34.04
      units: km
- country: US
  region: FL
  name: Captiva
  lat: '26.5205'
  long: "-82.1910"
  nearby_rate_centers:
  - name: PINEISLAND
    distance:
      value: 13.52
      units: km
  - name: SNCPVISNDS
    distance:
      value: 18.24
      units: km
  - name: FTMYERSBCH
    distance:
      value: 25.27
      units: km
- country: US
  region: FL
  name: Carrabelle
  lat: '29.8555'
  long: "-84.6685"
  nearby_rate_centers:
  - name: CARRABELLE
    distance:
      value: 0.81
      units: km
  - name: EAST POINT
    distance:
      value: 25.19
      units: km
  - name: SOPCHOPPY
    distance:
      value: 28.63
      units: km
- country: US
  region: FL
  name: Carrollwood
  lat: '28.0577'
  long: "-82.5148"
  nearby_rate_centers:
  - name: TAMPAWST
    distance:
      value: 10.2
      units: km
  - name: TAMPACEN
    distance:
      value: 13.32
      units: km
  - name: TARPON SPG
    distance:
      value: 25.12
      units: km
- country: US
  region: FL
  name: Caryville
  lat: '30.7753'
  long: "-85.8120"
  nearby_rate_centers:
  - name: WESTVILLE
    distance:
      value: 3.68
      units: km
  - name: BONIFAY
    distance:
      value: 12.51
      units: km
  - name: PONCE LEON
    distance:
      value: 13.44
      units: km
- country: US
  region: FL
  name: Casselberry
  lat: '28.6624'
  long: "-81.3217"
  nearby_rate_centers:
  - name: WINTERPARK
    distance:
      value: 7.64
      units: km
  - name: OVIEDO
    distance:
      value: 12.08
      units: km
  - name: ORLANDO
    distance:
      value: 14.42
      units: km
- country: US
  region: FL
  name: Cedar Grove
  lat: '30.1812'
  long: "-85.6268"
  nearby_rate_centers:
  - name: PANAMACITY
    distance:
      value: 3.8
      units: km
  - name: LYNN HAVEN
    distance:
      value: 7.98
      units: km
  - name: TYNDALLAFB
    distance:
      value: 13.45
      units: km
- country: US
  region: FL
  name: Cedar Key
  lat: '29.1460'
  long: "-83.0388"
  nearby_rate_centers:
  - name: CEDAR KEYS
    distance:
      value: 1.74
      units: km
  - name: YANKEETOWN
    distance:
      value: 33.73
      units: km
  - name: CHIEFLAND
    distance:
      value: 41.74
      units: km
- country: US
  region: FL
  name: Celebration
  lat: '28.3102'
  long: "-81.5510"
  nearby_rate_centers:
  - name: CELEBRATN
    distance:
      value: 2.73
      units: km
  - name: REEDYCREEK
    distance:
      value: 7.12
      units: km
  - name: WKISSIMMEE
    distance:
      value: 7.24
      units: km
- country: US
  region: FL
  name: Center Hill
  lat: '28.6334'
  long: "-81.9986"
  nearby_rate_centers:
  - name: BUSHNELL
    distance:
      value: 11.06
      units: km
  - name: GROVELAND
    distance:
      value: 16.16
      units: km
  - name: LEESBURG
    distance:
      value: 22.74
      units: km
- country: US
  region: FL
  name: Century
  lat: '30.9767'
  long: "-87.2629"
  nearby_rate_centers:
  - name: CENTURY
    distance:
      value: 1.15
      units: km
  - name: JAY
    distance:
      value: 11.02
      units: km
  - name: WALNUTHILL
    distance:
      value: 25.06
      units: km
- country: US
  region: FL
  name: Chaires
  lat: '30.4421'
  long: "-84.1269"
  nearby_rate_centers:
  - name: TALLAHASSE
    distance:
      value: 14.31
      units: km
  - name: MONTICELLO
    distance:
      value: 27.36
      units: km
  - name: ST MARKS
    distance:
      value: 32.5
      units: km
- country: US
  region: FL
  name: Charleston Park
  lat: '26.7055'
  long: "-81.5807"
  nearby_rate_centers:
  - name: LEHIGHACRS
    distance:
      value: 12.56
      units: km
  - name: LABELLE
    distance:
      value: 15.15
      units: km
  - name: FORT MYERS
    distance:
      value: 28.26
      units: km
- country: US
  region: FL
  name: Charlotte Harbor
  lat: '26.9629'
  long: "-82.0571"
  nearby_rate_centers:
  - name: PUNTAGORDA
    distance:
      value: 3.67
      units: km
  - name: PTCHARLOTT
    distance:
      value: 5.79
      units: km
  - name: NORTH PORT
    distance:
      value: 20.49
      units: km
- country: US
  region: FL
  name: Charlotte Park
  lat: '26.9032'
  long: "-82.0487"
  nearby_rate_centers:
  - name: PUNTAGORDA
    distance:
      value: 3.05
      units: km
  - name: PTCHARLOTT
    distance:
      value: 9.61
      units: km
  - name: CAPE HAZE
    distance:
      value: 24.59
      units: km
- country: US
  region: FL
  name: Chattahoochee
  lat: '30.6977'
  long: "-84.8341"
  nearby_rate_centers:
  - name: CHATAHOCHE
    distance:
      value: 0.9
      units: km
  - name: SNEADS
    distance:
      value: 9.0
      units: km
  - name: GREENSBORO
    distance:
      value: 16.54
      units: km
- country: US
  region: FL
  name: Cheval
  lat: '28.1459'
  long: "-82.5184"
  nearby_rate_centers:
  - name: TAMPAWST
    distance:
      value: 8.76
      units: km
  - name: TAMPANTH
    distance:
      value: 17.12
      units: km
  - name: SEVEN SPGS
    distance:
      value: 21.29
      units: km
  - name: NWPTRICHEY
    distance:
      value: 21.29
      units: km
- country: US
  region: FL
  name: Chiefland
  lat: '29.4923'
  long: "-82.8682"
  nearby_rate_centers:
  - name: CHIEFLAND
    distance:
      value: 1.86
      units: km
  - name: TRENTON
    distance:
      value: 14.57
      units: km
  - name: OLD TOWN
    distance:
      value: 15.89
      units: km
- country: US
  region: FL
  name: Chipley
  lat: '30.7752'
  long: "-85.5406"
  nearby_rate_centers:
  - name: CHIPLEY
    distance:
      value: 1.05
      units: km
  - name: BONIFAY
    distance:
      value: 13.63
      units: km
  - name: COTTONDALE
    distance:
      value: 15.17
      units: km
- country: US
  region: FL
  name: Chokoloskee
  lat: '25.8143'
  long: "-81.3603"
  nearby_rate_centers:
  - name: EVERGLADES
    distance:
      value: 5.7
      units: km
  - name: MARCO IS
    distance:
      value: 39.11
      units: km
  - name: NAPLES
    distance:
      value: 56.97
      units: km
- country: US
  region: FL
  name: Christmas
  lat: '28.5605'
  long: "-81.0201"
  nearby_rate_centers:
  - name: EASTORANGE
    distance:
      value: 3.28
      units: km
  - name: OVIEDO
    distance:
      value: 20.97
      units: km
  - name: GENEVA
    distance:
      value: 21.34
      units: km
- country: US
  region: FL
  name: Chuluota
  lat: '28.6380'
  long: "-81.1159"
  nearby_rate_centers:
  - name: OVIEDO
    distance:
      value: 8.6
      units: km
  - name: GENEVA
    distance:
      value: 10.92
      units: km
  - name: EASTORANGE
    distance:
      value: 15.7
      units: km
- country: US
  region: FL
  name: Chumuckla
  lat: '30.7826'
  long: "-87.2309"
  nearby_rate_centers:
  - name: MOLINO
    distance:
      value: 10.49
      units: km
  - name: CENTURY
    distance:
      value: 20.68
      units: km
  - name: JAY
    distance:
      value: 20.78
      units: km
- country: US
  region: FL
  name: Cinco Bayou
  lat: '30.4222'
  long: "-86.6096"
  nearby_rate_centers:
  - name: FTWALTNBCH
    distance:
      value: 1.41
      units: km
  - name: SHALIMAR
    distance:
      value: 2.92
      units: km
  - name: DESTIN
    distance:
      value: 10.54
      units: km
- country: US
  region: FL
  name: Citrus Hills
  lat: '28.8870'
  long: "-82.4312"
  nearby_rate_centers:
  - name: BEVERLYHLS
    distance:
      value: 5.03
      units: km
  - name: INVERNESS
    distance:
      value: 10.71
      units: km
  - name: CRYSTALRIV
    distance:
      value: 15.09
      units: km
- country: US
  region: FL
  name: Citrus Park
  lat: '28.0730'
  long: "-82.5628"
  nearby_rate_centers:
  - name: TAMPAWST
    distance:
      value: 5.57
      units: km
  - name: TAMPACEN
    distance:
      value: 17.18
      units: km
  - name: TARPON SPG
    distance:
      value: 20.12
      units: km
- country: US
  region: FL
  name: Citrus Springs
  lat: '28.9931'
  long: "-82.4594"
  nearby_rate_centers:
  - name: DUNNELLON
    distance:
      value: 6.11
      units: km
  - name: BEVERLYHLS
    distance:
      value: 7.26
      units: km
  - name: CRYSTALRIV
    distance:
      value: 15.98
      units: km
- country: US
  region: FL
  name: Clarcona
  lat: '28.6268'
  long: "-81.4979"
  nearby_rate_centers:
  - name: APOPKA
    distance:
      value: 6.36
      units: km
  - name: WINTERGRDN
    distance:
      value: 10.7
      units: km
  - name: WINTERPARK
    distance:
      value: 14.56
      units: km
- country: US
  region: FL
  name: Clearwater
  lat: '27.9790'
  long: "-82.7623"
  nearby_rate_centers:
  - name: CLEARWATER
    distance:
      value: 3.9
      units: km
  - name: TARPON SPG
    distance:
      value: 18.31
      units: km
  - name: TAMPAWST
    distance:
      value: 21.79
      units: km
- country: US
  region: FL
  name: Clermont
  lat: '28.5325'
  long: "-81.7208"
  nearby_rate_centers:
  - name: CLERMONT
    distance:
      value: 5.29
      units: km
  - name: MONTVERDE
    distance:
      value: 9.24
      units: km
  - name: GROVELAND
    distance:
      value: 13.63
      units: km
- country: US
  region: FL
  name: Cleveland
  lat: '26.9529'
  long: "-81.9925"
  nearby_rate_centers:
  - name: PUNTAGORDA
    distance:
      value: 6.14
      units: km
  - name: PTCHARLOTT
    distance:
      value: 12.27
      units: km
  - name: NORTH PORT
    distance:
      value: 26.75
      units: km
- country: US
  region: FL
  name: Clewiston
  lat: '26.7529'
  long: "-80.9399"
  nearby_rate_centers:
  - name: CLEWISTON
    distance:
      value: 2.61
      units: km
  - name: MOOREHAVEN
    distance:
      value: 17.5
      units: km
  - name: BELLEGLADE
    distance:
      value: 27.67
      units: km
- country: US
  region: FL
  name: Cloud Lake
  lat: '26.6743'
  long: "-80.0731"
  nearby_rate_centers:
  - name: WPALMBEACH
    distance:
      value: 2.37
      units: km
  - name: BOYNTONBCH
    distance:
      value: 16.78
      units: km
  - name: DELRAY BCH
    distance:
      value: 23.98
      units: km
- country: US
  region: FL
  name: Cobbtown
  lat: '30.8823'
  long: "-87.1212"
  nearby_rate_centers:
  - name: JAY
    distance:
      value: 8.64
      units: km
  - name: CENTURY
    distance:
      value: 16.52
      units: km
  - name: MUNSON
    distance:
      value: 23.64
      units: km
- country: US
  region: FL
  name: Cocoa
  lat: '28.3820'
  long: "-80.7675"
  nearby_rate_centers:
  - name: COCOA
    distance:
      value: 5.47
      units: km
  - name: COCOABEACH
    distance:
      value: 17.16
      units: km
  - name: TITUSVILLE
    distance:
      value: 26.34
      units: km
- country: US
  region: FL
  name: Cocoa Beach
  lat: '28.3327'
  long: "-80.6274"
  nearby_rate_centers:
  - name: COCOABEACH
    distance:
      value: 2.56
      units: km
  - name: COCOA
    distance:
      value: 9.87
      units: km
  - name: EAU GALLIE
    distance:
      value: 23.0
      units: km
- country: US
  region: FL
  name: Cocoa West
  lat: '28.3591'
  long: "-80.7713"
  nearby_rate_centers:
  - name: COCOA
    distance:
      value: 4.53
      units: km
  - name: COCOABEACH
    distance:
      value: 16.6
      units: km
  - name: TITUSVILLE
    distance:
      value: 28.81
      units: km
- country: US
  region: FL
  name: Coconut Creek
  lat: '26.2803'
  long: "-80.1842"
  nearby_rate_centers:
  - name: CORAL SPG
    distance:
      value: 7.15
      units: km
  - name: DEERFLDBCH
    distance:
      value: 8.35
      units: km
  - name: POMPANOBCH
    distance:
      value: 8.37
      units: km
- country: US
  region: FL
  name: Coleman
  lat: '28.8028'
  long: "-82.0707"
  nearby_rate_centers:
  - name: WILDWOOD
    distance:
      value: 8.17
      units: km
  - name: BUSHNELL
    distance:
      value: 15.49
      units: km
  - name: LEESBURG
    distance:
      value: 19.15
      units: km
- country: US
  region: FL
  name: Combee Settlement
  lat: '28.0597'
  long: "-81.9051"
  nearby_rate_centers:
  - name: LAKELAND
    distance:
      value: 5.41
      units: km
  - name: POLK CITY
    distance:
      value: 15.37
      units: km
  - name: WINTER HVN
    distance:
      value: 17.8
      units: km
- country: US
  region: FL
  name: Connerton
  lat: '28.3022'
  long: "-82.4624"
  nearby_rate_centers:
  - name: TAMPANTH
    distance:
      value: 5.04
      units: km
  - name: SANANTONIO
    distance:
      value: 18.74
      units: km
  - name: HUDSON
    distance:
      value: 23.06
      units: km
- country: US
  region: FL
  name: Conway
  lat: '28.4968'
  long: "-81.3316"
  nearby_rate_centers:
  - name: ORLANDO
    distance:
      value: 6.34
      units: km
  - name: WINTERPARK
    distance:
      value: 11.55
      units: km
  - name: WINDERMERE
    distance:
      value: 19.8
      units: km
- country: US
  region: FL
  name: Cooper City
  lat: '26.0463'
  long: "-80.2862"
  nearby_rate_centers:
  - name: HOLLYWOOD
    distance:
      value: 14.35
      units: km
  - name: FTLAUDERDL
    distance:
      value: 16.37
      units: km
  - name: NORTH DADE
    distance:
      value: 18.8
      units: km
- country: US
  region: FL
  name: Coral Gables
  lat: '25.7037'
  long: "-80.2715"
  nearby_rate_centers:
  - name: MIAMI
    distance:
      value: 11.33
      units: km
  - name: PERRINE
    distance:
      value: 13.81
      units: km
  - name: NORTH DADE
    distance:
      value: 26.84
      units: km
- country: US
  region: FL
  name: Coral Springs
  lat: '26.2702'
  long: "-80.2591"
  nearby_rate_centers:
  - name: CORAL SPG
    distance:
      value: 1.59
      units: km
  - name: POMPANOBCH
    distance:
      value: 14.55
      units: km
  - name: DEERFLDBCH
    distance:
      value: 15.74
      units: km
- country: US
  region: FL
  name: Coral Terrace
  lat: '25.7464'
  long: "-80.3049"
  nearby_rate_centers:
  - name: MIAMI
    distance:
      value: 11.9
      units: km
  - name: PERRINE
    distance:
      value: 16.69
      units: km
  - name: NORTH DADE
    distance:
      value: 24.47
      units: km
- country: US
  region: FL
  name: Cortez
  lat: '27.4668'
  long: "-82.6688"
  nearby_rate_centers:
  - name: BRADENTON
    distance:
      value: 10.28
      units: km
  - name: PALMETTO
    distance:
      value: 10.94
      units: km
  - name: SARASOTA
    distance:
      value: 19.38
      units: km
- country: US
  region: FL
  name: Cottondale
  lat: '30.7891'
  long: "-85.3644"
  nearby_rate_centers:
  - name: COTTONDALE
    distance:
      value: 2.34
      units: km
  - name: ALFORD
    distance:
      value: 10.41
      units: km
  - name: MARIANNA
    distance:
      value: 12.83
      units: km
- country: US
  region: FL
  name: Country Club
  lat: '25.9407'
  long: "-80.3102"
  nearby_rate_centers:
  - name: NORTH DADE
    distance:
      value: 15.34
      units: km
  - name: HOLLYWOOD
    distance:
      value: 17.78
      units: km
  - name: MIAMI
    distance:
      value: 22.02
      units: km
- country: US
  region: FL
  name: Country Walk
  lat: '25.6330'
  long: "-80.4353"
  nearby_rate_centers:
  - name: PERRINE
    distance:
      value: 9.16
      units: km
  - name: HOMESTEAD
    distance:
      value: 18.96
      units: km
  - name: MIAMI
    distance:
      value: 29.16
      units: km
- country: US
  region: FL
  name: Crawfordville
  lat: '30.1996'
  long: "-84.3634"
  nearby_rate_centers:
  - name: CRAWFORDVL
    distance:
      value: 2.98
      units: km
  - name: ST MARKS
    distance:
      value: 16.55
      units: km
  - name: PANACEA
    distance:
      value: 18.69
      units: km
- country: US
  region: FL
  name: Crescent Beach
  lat: '29.7355'
  long: "-81.2413"
  nearby_rate_centers:
  - name: PALM COAST
    distance:
      value: 18.26
      units: km
  - name: STAUGUSTIN
    distance:
      value: 19.61
      units: km
  - name: HASTINGS
    distance:
      value: 25.74
      units: km
- country: US
  region: FL
  name: Crescent City
  lat: '29.4374'
  long: "-81.5173"
  nearby_rate_centers:
  - name: CRESCENTCY
    distance:
      value: 0.9
      units: km
  - name: POMONAPARK
    distance:
      value: 9.93
      units: km
  - name: WELAKA
    distance:
      value: 15.26
      units: km
- country: US
  region: FL
  name: Crestview
  lat: '30.7477'
  long: "-86.5785"
  nearby_rate_centers:
  - name: CRESTVIEW
    distance:
      value: 1.36
      units: km
  - name: BAKER
    distance:
      value: 11.68
      units: km
  - name: LAURELHILL
    distance:
      value: 26.38
      units: km
- country: US
  region: FL
  name: Crooked Lake Park
  lat: '27.8293'
  long: "-81.5897"
  nearby_rate_centers:
  - name: LAKE WALES
    distance:
      value: 8.55
      units: km
  - name: FROSTPROOF
    distance:
      value: 11.14
      units: km
  - name: FORT MEADE
    distance:
      value: 21.73
      units: km
- country: US
  region: FL
  name: Cross City
  lat: '29.6386'
  long: "-83.1248"
  nearby_rate_centers:
  - name: CROSS CITY
    distance:
      value: 0.57
      units: km
  - name: OLD TOWN
    distance:
      value: 15.04
      units: km
  - name: TRENTON
    distance:
      value: 29.62
      units: km
- country: US
  region: FL
  name: Crystal Lake
  lat: '28.0371'
  long: "-81.9064"
  nearby_rate_centers:
  - name: LAKELAND
    distance:
      value: 4.34
      units: km
  - name: MULBERRY
    distance:
      value: 16.19
      units: km
  - name: BRADLEY
    distance:
      value: 16.19
      units: km
  - name: POLK CITY
    distance:
      value: 17.67
      units: km
- country: US
  region: FL
  name: Crystal River
  lat: '28.8964'
  long: "-82.5991"
  nearby_rate_centers:
  - name: CRYSTALRIV
    distance:
      value: 1.43
      units: km
  - name: HOMOSSSSPG
    distance:
      value: 11.14
      units: km
  - name: BEVERLYHLS
    distance:
      value: 14.64
      units: km
- country: US
  region: FL
  name: Crystal Springs
  lat: '28.1830'
  long: "-82.1539"
  nearby_rate_centers:
  - name: ZEPHYRHILS
    distance:
      value: 6.44
      units: km
  - name: PLANT CITY
    distance:
      value: 18.49
      units: km
  - name: DADE CITY
    distance:
      value: 20.84
      units: km
- country: US
  region: FL
  name: Cudjoe Key
  lat: '24.6745'
  long: "-81.4986"
  nearby_rate_centers:
  - name: SUGARLFKEY
    distance:
      value: 7.59
      units: km
  - name: BIG PINE
    distance:
      value: 15.02
      units: km
  - name: KEY WEST
    distance:
      value: 32.37
      units: km
- country: US
  region: FL
  name: Cutler Bay
  lat: '25.5765'
  long: "-80.3356"
  nearby_rate_centers:
  - name: PERRINE
    distance:
      value: 3.21
      units: km
  - name: HOMESTEAD
    distance:
      value: 19.2
      units: km
  - name: MIAMI
    distance:
      value: 26.41
      units: km
- country: US
  region: FL
  name: Cypress Gardens
  lat: '28.0036'
  long: "-81.6857"
  nearby_rate_centers:
  - name: WINTER HVN
    distance:
      value: 5.29
      units: km
  - name: HAINESCITY
    distance:
      value: 13.68
      units: km
  - name: POINCIANA
    distance:
      value: 13.68
      units: km
  - name: LAKE WALES
    distance:
      value: 14.84
      units: km
- country: US
  region: FL
  name: Cypress Lake
  lat: '26.5392'
  long: "-81.8999"
  nearby_rate_centers:
  - name: CAPE CORAL
    distance:
      value: 3.91
      units: km
  - name: FTMYERSBCH
    distance:
      value: 11.34
      units: km
  - name: NCAPECORAL
    distance:
      value: 11.48
      units: km
- country: US
  region: FL
  name: Cypress Quarters
  lat: '27.2479'
  long: "-80.8115"
  nearby_rate_centers:
  - name: OKEECHOBEE
    distance:
      value: 1.44
      units: km
  - name: INDIANTOWN
    distance:
      value: 42.03
      units: km
  - name: PAHOKEE
    distance:
      value: 49.89
      units: km
- country: US
  region: FL
  name: Dade City
  lat: '28.3565'
  long: "-82.1942"
  nearby_rate_centers:
  - name: DADE CITY
    distance:
      value: 1.19
      units: km
  - name: SANANTONIO
    distance:
      value: 8.26
      units: km
  - name: TRILACOCHE
    distance:
      value: 11.94
      units: km
- country: US
  region: FL
  name: Dade City North
  lat: '28.3839'
  long: "-82.1943"
  nearby_rate_centers:
  - name: DADE CITY
    distance:
      value: 1.86
      units: km
  - name: TRILACOCHE
    distance:
      value: 8.91
      units: km
  - name: SANANTONIO
    distance:
      value: 9.12
      units: km
- country: US
  region: FL
  name: Dania Beach
  lat: '26.0593'
  long: "-80.1637"
  nearby_rate_centers:
  - name: HOLLYWOOD
    distance:
      value: 5.87
      units: km
  - name: FTLAUDERDL
    distance:
      value: 6.75
      units: km
  - name: NORTH DADE
    distance:
      value: 15.23
      units: km
- country: US
  region: FL
  name: Davenport
  lat: '28.1587'
  long: "-81.6083"
  nearby_rate_centers:
  - name: HAINESCITY
    distance:
      value: 5.44
      units: km
  - name: POINCIANA
    distance:
      value: 5.44
      units: km
  - name: WINTER HVN
    distance:
      value: 17.92
      units: km
  - name: CELEBRATN
    distance:
      value: 20.45
      units: km
- country: US
  region: FL
  name: Davie
  lat: '26.0789'
  long: "-80.2870"
  nearby_rate_centers:
  - name: FTLAUDERDL
    distance:
      value: 15.04
      units: km
  - name: HOLLYWOOD
    distance:
      value: 15.87
      units: km
  - name: CORAL SPG
    distance:
      value: 20.2
      units: km
- country: US
  region: FL
  name: Day
  lat: '30.1950'
  long: "-83.2909"
  nearby_rate_centers:
  - name: DOWLING PK
    distance:
      value: 8.29
      units: km
  - name: LURAVILLE
    distance:
      value: 16.04
      units: km
  - name: MAYO
    distance:
      value: 19.61
      units: km
- country: US
  region: FL
  name: Daytona Beach
  lat: '29.1995'
  long: "-81.0982"
  nearby_rate_centers:
  - name: DAYTONABCH
    distance:
      value: 7.09
      units: km
  - name: NWSMYRNBCH
    distance:
      value: 25.74
      units: km
  - name: DELAND
    distance:
      value: 26.51
      units: km
- country: US
  region: FL
  name: Daytona Beach Shores
  lat: '29.1696'
  long: "-80.9796"
  nearby_rate_centers:
  - name: DAYTONABCH
    distance:
      value: 8.75
      units: km
  - name: NWSMYRNBCH
    distance:
      value: 17.06
      units: km
  - name: DELAND
    distance:
      value: 34.02
      units: km
- country: US
  region: FL
  name: De Leon Springs
  lat: '29.1172'
  long: "-81.3517"
  nearby_rate_centers:
  - name: DELEON SPG
    distance:
      value: 0.67
      units: km
  - name: DELAND
    distance:
      value: 11.1
      units: km
  - name: PIERSON
    distance:
      value: 17.07
      units: km
- country: US
  region: FL
  name: DeBary
  lat: '28.8815'
  long: "-81.3240"
  nearby_rate_centers:
  - name: DEBARY
    distance:
      value: 2.41
      units: km
  - name: ORANGECITY
    distance:
      value: 8.39
      units: km
  - name: SANFORD
    distance:
      value: 10.11
      units: km
- country: US
  region: FL
  name: DeFuniak Springs
  lat: '30.7123'
  long: "-86.1208"
  nearby_rate_centers:
  - name: DFUNIAKSPG
    distance:
      value: 0.76
      units: km
  - name: GLENDALE
    distance:
      value: 16.35
      units: km
  - name: PONCE LEON
    distance:
      value: 17.84
      units: km
- country: US
  region: FL
  name: DeLand
  lat: '29.0225'
  long: "-81.2875"
  nearby_rate_centers:
  - name: DELAND
    distance:
      value: 1.15
      units: km
  - name: ORANGECITY
    distance:
      value: 7.91
      units: km
  - name: DELEON SPG
    distance:
      value: 12.37
      units: km
- country: US
  region: FL
  name: DeLand Southwest
  lat: '29.0078'
  long: "-81.3113"
  nearby_rate_centers:
  - name: DELAND
    distance:
      value: 3.25
      units: km
  - name: ORANGECITY
    distance:
      value: 6.55
      units: km
  - name: DELEON SPG
    distance:
      value: 12.76
      units: km
- country: US
  region: FL
  name: Deerfield Beach
  lat: '26.3050'
  long: "-80.1277"
  nearby_rate_centers:
  - name: DEERFLDBCH
    distance:
      value: 2.08
      units: km
  - name: BOCA RATON
    distance:
      value: 6.26
      units: km
  - name: POMPANOBCH
    distance:
      value: 8.1
      units: km
- country: US
  region: FL
  name: Delray Beach
  lat: '26.4550'
  long: "-80.0905"
  nearby_rate_centers:
  - name: DELRAY BCH
    distance:
      value: 2.64
      units: km
  - name: BOYNTONBCH
    distance:
      value: 8.39
      units: km
  - name: BOCA RATON
    distance:
      value: 11.73
      units: km
- country: US
  region: FL
  name: Deltona
  lat: '28.9050'
  long: "-81.2137"
  nearby_rate_centers:
  - name: DEBARY
    distance:
      value: 9.02
      units: km
  - name: ORANGECITY
    distance:
      value: 9.19
      units: km
  - name: SANFORD
    distance:
      value: 11.34
      units: km
- country: US
  region: FL
  name: Desoto Acres
  lat: '27.3823'
  long: "-82.5167"
  nearby_rate_centers:
  - name: SARASOTA
    distance:
      value: 4.96
      units: km
  - name: BRADENTON
    distance:
      value: 13.11
      units: km
  - name: PALMETTO
    distance:
      value: 15.59
      units: km
- country: US
  region: FL
  name: Desoto Lakes
  lat: '27.3781'
  long: "-82.4951"
  nearby_rate_centers:
  - name: SARASOTA
    distance:
      value: 5.68
      units: km
  - name: BRADENTON
    distance:
      value: 14.47
      units: km
  - name: PALMETTO
    distance:
      value: 16.86
      units: km
- country: US
  region: FL
  name: Destin
  lat: '30.3950'
  long: "-86.4701"
  nearby_rate_centers:
  - name: DESTIN
    distance:
      value: 3.4
      units: km
  - name: VALPARAISO
    distance:
      value: 12.46
      units: km
  - name: SHALIMAR
    distance:
      value: 12.59
      units: km
- country: US
  region: FL
  name: Dickerson City
  lat: '30.4827'
  long: "-87.0651"
  nearby_rate_centers:
  - name: PACE
    distance:
      value: 15.29
      units: km
  - name: HOLLEYNVRR
    distance:
      value: 16.04
      units: km
  - name: PENSACOLA
    distance:
      value: 16.06
      units: km
- country: US
  region: FL
  name: Dixonville
  lat: '30.9865'
  long: "-87.0416"
  nearby_rate_centers:
  - name: JAY
    distance:
      value: 10.87
      units: km
  - name: CENTURY
    distance:
      value: 21.32
      units: km
  - name: MUNSON
    distance:
      value: 21.79
      units: km
- country: US
  region: FL
  name: Doctor Phillips
  lat: '28.4474'
  long: "-81.4914"
  nearby_rate_centers:
  - name: WINDERMERE
    distance:
      value: 7.06
      units: km
  - name: LKBUNAVIST
    distance:
      value: 7.45
      units: km
  - name: WKISSIMMEE
    distance:
      value: 11.17
      units: km
- country: US
  region: FL
  name: Doral
  lat: '25.8152'
  long: "-80.3565"
  nearby_rate_centers:
  - name: MIAMI
    distance:
      value: 17.24
      units: km
  - name: NORTH DADE
    distance:
      value: 23.15
      units: km
  - name: PERRINE
    distance:
      value: 23.71
      units: km
- country: US
  region: FL
  name: Dover
  lat: '27.9927'
  long: "-82.2198"
  nearby_rate_centers:
  - name: TAMPAEST
    distance:
      value: 5.67
      units: km
  - name: PLANT CITY
    distance:
      value: 9.58
      units: km
  - name: TAMPACEN
    distance:
      value: 24.01
      units: km
- country: US
  region: FL
  name: Duck Key
  lat: '24.7710'
  long: "-80.9132"
  nearby_rate_centers:
  - name: MARATHON
    distance:
      value: 18.64
      units: km
  - name: KEYS
    distance:
      value: 18.64
      units: km
  - name: ISLAMORADA
    distance:
      value: 31.05
      units: km
  - name: BIG PINE
    distance:
      value: 45.44
      units: km
- country: US
  region: FL
  name: Dundee
  lat: '28.0115'
  long: "-81.5995"
  nearby_rate_centers:
  - name: HAINESCITY
    distance:
      value: 11.11
      units: km
  - name: POINCIANA
    distance:
      value: 11.11
      units: km
  - name: LAKE WALES
    distance:
      value: 11.86
      units: km
  - name: WINTER HVN
    distance:
      value: 12.68
      units: km
- country: US
  region: FL
  name: Dunedin
  lat: '28.0329'
  long: "-82.7862"
  nearby_rate_centers:
  - name: CLEARWATER
    distance:
      value: 7.48
      units: km
  - name: TARPON SPG
    distance:
      value: 12.74
      units: km
  - name: TAMPAWST
    distance:
      value: 20.36
      units: km
- country: US
  region: FL
  name: Dunnellon
  lat: '29.0572'
  long: "-82.4289"
  nearby_rate_centers:
  - name: DUNNELLON
    distance:
      value: 3.1
      units: km
  - name: BEVERLYHLS
    distance:
      value: 14.56
      units: km
  - name: CRYSTALRIV
    distance:
      value: 23.1
      units: km
- country: US
  region: FL
  name: Eagle Lake
  lat: '27.9760'
  long: "-81.7573"
  nearby_rate_centers:
  - name: WINTER HVN
    distance:
      value: 7.29
      units: km
  - name: BARTOW
    distance:
      value: 12.13
      units: km
  - name: LAKE WALES
    distance:
      value: 18.83
      units: km
- country: US
  region: FL
  name: East Bronson
  lat: '29.4593'
  long: "-82.5905"
  nearby_rate_centers:
  - name: BRONSON
    distance:
      value: 4.04
      units: km
  - name: ARCHER
    distance:
      value: 10.2
      units: km
  - name: WILLISTON
    distance:
      value: 15.47
      units: km
- country: US
  region: FL
  name: East Lake
  lat: '28.1206'
  long: "-82.6868"
  nearby_rate_centers:
  - name: TARPON SPG
    distance:
      value: 6.86
      units: km
  - name: TAMPAWST
    distance:
      value: 8.68
      units: km
  - name: NWPTRICHEY
    distance:
      value: 13.62
      units: km
  - name: SEVEN SPGS
    distance:
      value: 13.62
      units: km
- country: US
  region: FL
  name: East Lake-Orient Park
  lat: '27.9970'
  long: "-82.3653"
  nearby_rate_centers:
  - name: TAMPAEST
    distance:
      value: 10.11
      units: km
  - name: TAMPACEN
    distance:
      value: 10.67
      units: km
  - name: PLANT CITY
    distance:
      value: 23.55
      units: km
- country: US
  region: FL
  name: East Milton
  lat: '30.6175'
  long: "-86.9636"
  nearby_rate_centers:
  - name: MILTON
    distance:
      value: 6.48
      units: km
  - name: PACE
    distance:
      value: 17.69
      units: km
  - name: HOLLEYNVRR
    distance:
      value: 19.44
      units: km
- country: US
  region: FL
  name: East Palatka
  lat: '29.6502'
  long: "-81.5997"
  nearby_rate_centers:
  - name: PALATKA
    distance:
      value: 4.16
      units: km
  - name: HASTINGS
    distance:
      value: 11.66
      units: km
  - name: POMONAPARK
    distance:
      value: 17.5
      units: km
- country: US
  region: FL
  name: East Williston
  lat: '29.3883'
  long: "-82.4165"
  nearby_rate_centers:
  - name: WILLISTON
    distance:
      value: 3.26
      units: km
  - name: ARCHER
    distance:
      value: 17.87
      units: km
  - name: MICANOPY
    distance:
      value: 18.73
      units: km
- country: US
  region: FL
  name: Eastpoint
  lat: '29.7543'
  long: "-84.8695"
  nearby_rate_centers:
  - name: EAST POINT
    distance:
      value: 3.17
      units: km
  - name: APALCHICOL
    distance:
      value: 12.29
      units: km
  - name: CARRABELLE
    distance:
      value: 22.24
      units: km
- country: US
  region: FL
  name: Eatonville
  lat: '28.6167'
  long: "-81.3906"
  nearby_rate_centers:
  - name: WINTERPARK
    distance:
      value: 4.23
      units: km
  - name: ORLANDO
    distance:
      value: 8.62
      units: km
  - name: APOPKA
    distance:
      value: 13.15
      units: km
- country: US
  region: FL
  name: Ebro
  lat: '30.4369'
  long: "-85.8791"
  nearby_rate_centers:
  - name: FREEPORT
    distance:
      value: 25.36
      units: km
  - name: VERNON
    distance:
      value: 25.43
      units: km
  - name: SEAGRV BCH
    distance:
      value: 26.73
      units: km
- country: US
  region: FL
  name: Edgewater
  lat: '28.9594'
  long: "-80.9406"
  nearby_rate_centers:
  - name: NWSMYRNBCH
    distance:
      value: 7.25
      units: km
  - name: OAK HILL
    distance:
      value: 15.17
      units: km
  - name: GENEVA
    distance:
      value: 29.74
      units: km
- country: US
  region: FL
  name: Edgewood
  lat: '28.4879'
  long: "-81.3771"
  nearby_rate_centers:
  - name: ORLANDO
    distance:
      value: 5.89
      units: km
  - name: WINTERPARK
    distance:
      value: 12.6
      units: km
  - name: WINDERMERE
    distance:
      value: 15.39
      units: km
- country: US
  region: FL
  name: Eglin AFB
  lat: '30.4592'
  long: "-86.5499"
  nearby_rate_centers:
  - name: SHALIMAR
    distance:
      value: 4.26
      units: km
  - name: DESTIN
    distance:
      value: 7.17
      units: km
  - name: FTWALTNBCH
    distance:
      value: 7.32
      units: km
- country: US
  region: FL
  name: Egypt Lake-Leto
  lat: '28.0177'
  long: "-82.5062"
  nearby_rate_centers:
  - name: TAMPACEN
    distance:
      value: 8.98
      units: km
  - name: TAMPAWST
    distance:
      value: 13.85
      units: km
  - name: TAMPAEST
    distance:
      value: 24.03
      units: km
- country: US
  region: FL
  name: El Portal
  lat: '25.8556'
  long: "-80.1954"
  nearby_rate_centers:
  - name: NORTH DADE
    distance:
      value: 8.31
      units: km
  - name: MIAMI
    distance:
      value: 9.02
      units: km
  - name: HOLLYWOOD
    distance:
      value: 17.6
      units: km
- country: US
  region: FL
  name: Elfers
  lat: '28.2140'
  long: "-82.7230"
  nearby_rate_centers:
  - name: NWPTRICHEY
    distance:
      value: 3.5
      units: km
  - name: SEVEN SPGS
    distance:
      value: 3.5
      units: km
  - name: TARPON SPG
    distance:
      value: 8.34
      units: km
  - name: TAMPAWST
    distance:
      value: 16.66
      units: km
- country: US
  region: FL
  name: Ellenton
  lat: '27.5269'
  long: "-82.5258"
  nearby_rate_centers:
  - name: PALMETTO
    distance:
      value: 4.72
      units: km
  - name: BRADENTON
    distance:
      value: 5.78
      units: km
  - name: SARASOTA
    distance:
      value: 20.76
      units: km
- country: US
  region: FL
  name: Englewood
  lat: '26.9717'
  long: "-82.3524"
  nearby_rate_centers:
  - name: ENGLEWOOD
    distance:
      value: 1.81
      units: km
  - name: NORTH PORT
    distance:
      value: 13.96
      units: km
  - name: CAPE HAZE
    distance:
      value: 14.09
      units: km
- country: US
  region: FL
  name: Ensley
  lat: '30.5259'
  long: "-87.2733"
  nearby_rate_centers:
  - name: CANTONMENT
    distance:
      value: 10.27
      units: km
  - name: PENSACOLA
    distance:
      value: 13.26
      units: km
  - name: PACE
    distance:
      value: 14.63
      units: km
- country: US
  region: FL
  name: Estero
  lat: '26.4276'
  long: "-81.7951"
  nearby_rate_centers:
  - name: BONITA SPG
    distance:
      value: 10.74
      units: km
  - name: FTMYERSBCH
    distance:
      value: 15.63
      units: km
  - name: NO NAPLES
    distance:
      value: 18.1
      units: km
- country: US
  region: FL
  name: Esto
  lat: '30.9819'
  long: "-85.6429"
  nearby_rate_centers:
  - name: GRACEVILLE
    distance:
      value: 12.34
      units: km
  - name: BONIFAY
    distance:
      value: 21.63
      units: km
  - name: CHIPLEY
    distance:
      value: 24.35
      units: km
- country: US
  region: FL
  name: Eustis
  lat: '28.8563'
  long: "-81.6771"
  nearby_rate_centers:
  - name: EUSTIS
    distance:
      value: 0.07
      units: km
  - name: TAVARES
    distance:
      value: 7.19
      units: km
  - name: MOUNT DORA
    distance:
      value: 7.41
      units: km
- country: US
  region: FL
  name: Everglades
  lat: '25.8580'
  long: "-81.3862"
  nearby_rate_centers:
  - name: EVERGLADES
    distance:
      value: 0.39
      units: km
  - name: MARCO IS
    distance:
      value: 35.04
      units: km
  - name: NAPLES
    distance:
      value: 51.9
      units: km
- country: US
  region: FL
  name: Fairview Shores
  lat: '28.6021'
  long: "-81.3958"
  nearby_rate_centers:
  - name: WINTERPARK
    distance:
      value: 4.27
      units: km
  - name: ORLANDO
    distance:
      value: 7.18
      units: km
  - name: APOPKA
    distance:
      value: 13.75
      units: km
- country: US
  region: FL
  name: Fanning Springs
  lat: '29.5873'
  long: "-82.9245"
  nearby_rate_centers:
  - name: OLD TOWN
    distance:
      value: 5.14
      units: km
  - name: TRENTON
    distance:
      value: 10.66
      units: km
  - name: CHIEFLAND
    distance:
      value: 13.48
      units: km
- country: US
  region: FL
  name: Feather Sound
  lat: '27.9061'
  long: "-82.6813"
  nearby_rate_centers:
  - name: CLEARWATER
    distance:
      value: 13.42
      units: km
  - name: STPETERSBG
    distance:
      value: 15.18
      units: km
  - name: TAMPACEN
    distance:
      value: 22.34
      units: km
- country: US
  region: FL
  name: Fellsmere
  lat: '27.7241'
  long: "-80.5974"
  nearby_rate_centers:
  - name: SEBASTIAN
    distance:
      value: 16.37
      units: km
  - name: VERO BEACH
    distance:
      value: 21.54
      units: km
  - name: MELBOURNE
    distance:
      value: 39.77
      units: km
- country: US
  region: FL
  name: Fern Park
  lat: '28.6485'
  long: "-81.3458"
  nearby_rate_centers:
  - name: WINTERPARK
    distance:
      value: 5.53
      units: km
  - name: ORLANDO
    distance:
      value: 12.27
      units: km
  - name: OVIEDO
    distance:
      value: 14.56
      units: km
- country: US
  region: FL
  name: Fernandina Beach
  lat: '30.6571'
  long: "-81.4511"
  nearby_rate_centers:
  - name: FERNADNBCH
    distance:
      value: 1.04
      units: km
  - name: YULEE
    distance:
      value: 14.75
      units: km
  - name: CALLAHAN
    distance:
      value: 38.38
      units: km
- country: US
  region: FL
  name: Ferndale
  lat: '28.6220'
  long: "-81.7014"
  nearby_rate_centers:
  - name: MONTVERDE
    distance:
      value: 3.7
      units: km
  - name: CLERMONT
    distance:
      value: 9.57
      units: km
  - name: HOWEYINHLS
    distance:
      value: 11.97
      units: km
- country: US
  region: FL
  name: Ferry Pass
  lat: '30.5205'
  long: "-87.1899"
  nearby_rate_centers:
  - name: PACE
    distance:
      value: 9.78
      units: km
  - name: PENSACOLA
    distance:
      value: 11.66
      units: km
  - name: CANTONMENT
    distance:
      value: 16.0
      units: km
- country: US
  region: FL
  name: Fidelis
  lat: '30.9343'
  long: "-87.0245"
  nearby_rate_centers:
  - name: JAY
    distance:
      value: 12.2
      units: km
  - name: MUNSON
    distance:
      value: 16.9
      units: km
  - name: CENTURY
    distance:
      value: 23.11
      units: km
- country: US
  region: FL
  name: Fish Hawk
  lat: '27.8511'
  long: "-82.2164"
  nearby_rate_centers:
  - name: TAMPAEST
    distance:
      value: 13.73
      units: km
  - name: TAMPASTH
    distance:
      value: 19.24
      units: km
  - name: PLANT CITY
    distance:
      value: 20.59
      units: km
- country: US
  region: FL
  name: Fisher Island
  lat: '25.7607'
  long: "-80.1416"
  nearby_rate_centers:
  - name: MIAMI
    distance:
      value: 5.12
      units: km
  - name: NORTH DADE
    distance:
      value: 18.06
      units: km
  - name: PERRINE
    distance:
      value: 27.38
      units: km
- country: US
  region: FL
  name: Five Points
  lat: '30.2225'
  long: "-82.6465"
  nearby_rate_centers:
  - name: LAKE CITY
    distance:
      value: 3.66
      units: km
  - name: WELLBORN
    distance:
      value: 16.35
      units: km
  - name: WHITE SPG
    distance:
      value: 16.56
      units: km
- country: US
  region: FL
  name: Flagler Beach
  lat: '29.4716'
  long: "-81.1303"
  nearby_rate_centers:
  - name: FLAGLERBCH
    distance:
      value: 0.85
      units: km
  - name: BUNNELL
    distance:
      value: 12.65
      units: km
  - name: PALM COAST
    distance:
      value: 13.55
      units: km
- country: US
  region: FL
  name: Flagler Estates
  lat: '29.6441'
  long: "-81.4571"
  nearby_rate_centers:
  - name: HASTINGS
    distance:
      value: 9.48
      units: km
  - name: PALATKA
    distance:
      value: 17.9
      units: km
  - name: POMONAPARK
    distance:
      value: 21.63
      units: km
- country: US
  region: FL
  name: Fleming Island
  lat: '30.0988'
  long: "-81.7124"
  nearby_rate_centers:
  - name: ORANGEPARK
    distance:
      value: 7.57
      units: km
  - name: JULINGTON
    distance:
      value: 8.36
      units: km
  - name: GREENCVSPG
    distance:
      value: 12.24
      units: km
- country: US
  region: FL
  name: Floral City
  lat: '28.7065'
  long: "-82.3090"
  nearby_rate_centers:
  - name: INVERNESS
    distance:
      value: 14.33
      units: km
  - name: BROOKSVL
    distance:
      value: 18.16
      units: km
  - name: BUSHNELL
    distance:
      value: 20.35
      units: km
- country: US
  region: FL
  name: Florida City
  lat: '25.4418'
  long: "-80.4685"
  nearby_rate_centers:
  - name: HOMESTEAD
    distance:
      value: 3.38
      units: km
  - name: PERRINE
    distance:
      value: 21.39
      units: km
  - name: NOKEYLARGO
    distance:
      value: 23.2
      units: km
- country: US
  region: FL
  name: Florida Gulf Coast University
  lat: '26.4613'
  long: "-81.7686"
  nearby_rate_centers:
  - name: BONITA SPG
    distance:
      value: 14.49
      units: km
  - name: FTMYERSBCH
    distance:
      value: 18.16
      units: km
  - name: CAPE CORAL
    distance:
      value: 19.57
      units: km
- country: US
  region: FL
  name: Florida Ridge
  lat: '27.5805'
  long: "-80.3848"
  nearby_rate_centers:
  - name: VERO BEACH
    distance:
      value: 6.82
      units: km
  - name: FORTPIERCE
    distance:
      value: 16.06
      units: km
  - name: SEBASTIAN
    distance:
      value: 27.54
      units: km
- country: US
  region: FL
  name: Floridatown
  lat: '30.5828'
  long: "-87.1613"
  nearby_rate_centers:
  - name: PACE
    distance:
      value: 2.38
      units: km
  - name: MILTON
    distance:
      value: 13.35
      units: km
  - name: CANTONMENT
    distance:
      value: 15.7
      units: km
- country: US
  region: FL
  name: Forest City
  lat: '28.6619'
  long: "-81.4444"
  nearby_rate_centers:
  - name: APOPKA
    distance:
      value: 6.08
      units: km
  - name: WINTERPARK
    distance:
      value: 11.4
      units: km
  - name: ORLANDO
    distance:
      value: 15.17
      units: km
- country: US
  region: FL
  name: Fort Braden
  lat: '30.4308'
  long: "-84.5346"
  nearby_rate_centers:
  - name: QUINCY
    distance:
      value: 17.42
      units: km
  - name: HAVANA
    distance:
      value: 23.6
      units: km
  - name: GRETNA
    distance:
      value: 23.61
      units: km
- country: US
  region: FL
  name: Fort Denaud
  lat: '26.7404'
  long: "-81.5241"
  nearby_rate_centers:
  - name: LABELLE
    distance:
      value: 8.45
      units: km
  - name: LEHIGHACRS
    distance:
      value: 18.93
      units: km
  - name: FORT MYERS
    distance:
      value: 34.75
      units: km
- country: US
  region: FL
  name: Fort Green
  lat: '27.6255'
  long: "-81.9397"
  nearby_rate_centers:
  - name: BOWLNGGREN
    distance:
      value: 12.14
      units: km
  - name: WAUCHULA
    distance:
      value: 15.31
      units: km
  - name: ZOLFO SPG
    distance:
      value: 19.94
      units: km
- country: US
  region: FL
  name: Fort Green Springs
  lat: '27.5876'
  long: "-81.9402"
  nearby_rate_centers:
  - name: BOWLNGGREN
    distance:
      value: 13.1
      units: km
  - name: WAUCHULA
    distance:
      value: 13.59
      units: km
  - name: ZOLFO SPG
    distance:
      value: 17.35
      units: km
- country: US
  region: FL
  name: Fort Lauderdale
  lat: '26.1412'
  long: "-80.1464"
  nearby_rate_centers:
  - name: FTLAUDERDL
    distance:
      value: 2.73
      units: km
  - name: POMPANOBCH
    distance:
      value: 10.5
      units: km
  - name: HOLLYWOOD
    distance:
      value: 14.79
      units: km
- country: US
  region: FL
  name: Fort Meade
  lat: '27.7645'
  long: "-81.8058"
  nearby_rate_centers:
  - name: FORT MEADE
    distance:
      value: 2.01
      units: km
  - name: BARTOW
    distance:
      value: 14.2
      units: km
  - name: BOWLNGGREN
    distance:
      value: 14.88
      units: km
- country: US
  region: FL
  name: Fort Myers
  lat: '26.6194'
  long: "-81.8302"
  nearby_rate_centers:
  - name: FORT MYERS
    distance:
      value: 3.56
      units: km
  - name: NOFT MYERS
    distance:
      value: 7.29
      units: km
  - name: NCAPECORAL
    distance:
      value: 11.34
      units: km
- country: US
  region: FL
  name: Fort Myers Beach
  lat: '26.4308'
  long: "-81.9146"
  nearby_rate_centers:
  - name: FTMYERSBCH
    distance:
      value: 4.04
      units: km
  - name: SNCPVISNDS
    distance:
      value: 11.23
      units: km
  - name: CAPE CORAL
    distance:
      value: 14.07
      units: km
- country: US
  region: FL
  name: Fort Myers Shores
  lat: '26.7135'
  long: "-81.7384"
  nearby_rate_centers:
  - name: FORT MYERS
    distance:
      value: 14.15
      units: km
  - name: NOFT MYERS
    distance:
      value: 15.18
      units: km
  - name: LEHIGHACRS
    distance:
      value: 15.26
      units: km
- country: US
  region: FL
  name: Fort Pierce
  lat: '27.4255'
  long: "-80.3431"
  nearby_rate_centers:
  - name: FORTPIERCE
    distance:
      value: 2.18
      units: km
  - name: PTST LUCIE
    distance:
      value: 18.63
      units: km
  - name: JENSEN BCH
    distance:
      value: 23.13
      units: km
- country: US
  region: FL
  name: Fort Pierce North
  lat: '27.4736'
  long: "-80.3595"
  nearby_rate_centers:
  - name: FORTPIERCE
    distance:
      value: 4.21
      units: km
  - name: VERO BEACH
    distance:
      value: 18.97
      units: km
  - name: PTST LUCIE
    distance:
      value: 24.22
      units: km
- country: US
  region: FL
  name: Fort Pierce South
  lat: '27.4098'
  long: "-80.3539"
  nearby_rate_centers:
  - name: FORTPIERCE
    distance:
      value: 4.22
      units: km
  - name: PTST LUCIE
    distance:
      value: 17.38
      units: km
  - name: JENSEN BCH
    distance:
      value: 22.22
      units: km
- country: US
  region: FL
  name: Fort Walton Beach
  lat: '30.4255'
  long: "-86.6222"
  nearby_rate_centers:
  - name: FTWALTNBCH
    distance:
      value: 2.49
      units: km
  - name: SHALIMAR
    distance:
      value: 3.62
      units: km
  - name: DESTIN
    distance:
      value: 11.79
      units: km
- country: US
  region: FL
  name: Fort White
  lat: '29.9224'
  long: "-82.7135"
  nearby_rate_centers:
  - name: FORT WHITE
    distance:
      value: 1.39
      units: km
  - name: HIGH SPG
    distance:
      value: 15.39
      units: km
  - name: BRANFORD
    distance:
      value: 20.84
      units: km
- country: US
  region: FL
  name: Fountainebleau
  lat: '25.7723'
  long: "-80.3460"
  nearby_rate_centers:
  - name: MIAMI
    distance:
      value: 15.59
      units: km
  - name: PERRINE
    distance:
      value: 18.94
      units: km
  - name: NORTH DADE
    distance:
      value: 25.14
      units: km
- country: US
  region: FL
  name: Franklin Park
  lat: '26.1327'
  long: "-80.1763"
  nearby_rate_centers:
  - name: FTLAUDERDL
    distance:
      value: 3.81
      units: km
  - name: POMPANOBCH
    distance:
      value: 12.47
      units: km
  - name: HOLLYWOOD
    distance:
      value: 14.11
      units: km
- country: US
  region: FL
  name: Freeport
  lat: '30.5039'
  long: "-86.1391"
  nearby_rate_centers:
  - name: FREEPORT
    distance:
      value: 0.68
      units: km
  - name: SANROSABCH
    distance:
      value: 16.57
      units: km
  - name: SEAGRV BCH
    distance:
      value: 20.96
      units: km
- country: US
  region: FL
  name: Frostproof
  lat: '27.7494'
  long: "-81.5252"
  nearby_rate_centers:
  - name: FROSTPROOF
    distance:
      value: 1.27
      units: km
  - name: AVON PARK
    distance:
      value: 15.2
      units: km
  - name: LAKE WALES
    distance:
      value: 18.3
      units: km
- country: US
  region: FL
  name: Fruit Cove
  lat: '30.0972'
  long: "-81.6175"
  nearby_rate_centers:
  - name: JULINGTON
    distance:
      value: 2.51
      units: km
  - name: ORANGEPARK
    distance:
      value: 11.03
      units: km
  - name: GREENCVSPG
    distance:
      value: 13.33
      units: km
- country: US
  region: FL
  name: Fruitland Park
  lat: '28.8599'
  long: "-81.9177"
  nearby_rate_centers:
  - name: LADY LAKE
    distance:
      value: 7.05
      units: km
  - name: LEESBURG
    distance:
      value: 7.31
      units: km
  - name: WILDWOOD
    distance:
      value: 11.25
      units: km
- country: US
  region: FL
  name: Fruitville
  lat: '27.3328'
  long: "-82.4616"
  nearby_rate_centers:
  - name: SARASOTA
    distance:
      value: 7.18
      units: km
  - name: BRADENTON
    distance:
      value: 20.49
      units: km
  - name: PALMETTO
    distance:
      value: 22.86
      units: km
- country: US
  region: FL
  name: Fuller Heights
  lat: '27.9227'
  long: "-81.9978"
  nearby_rate_centers:
  - name: BRADLEY
    distance:
      value: 4.14
      units: km
  - name: MULBERRY
    distance:
      value: 4.14
      units: km
  - name: LAKELAND
    distance:
      value: 13.0
      units: km
  - name: PLANT CITY
    distance:
      value: 16.54
      units: km
- country: US
  region: FL
  name: Fussels Corner
  lat: '28.0574'
  long: "-81.8610"
  nearby_rate_centers:
  - name: LAKELAND
    distance:
      value: 9.2
      units: km
  - name: WINTER HVN
    distance:
      value: 13.49
      units: km
  - name: POLK CITY
    distance:
      value: 14.04
      units: km
- country: US
  region: FL
  name: Gainesville
  lat: '29.6804'
  long: "-82.3459"
  nearby_rate_centers:
  - name: GAINESVL
    distance:
      value: 3.29
      units: km
  - name: ALACHUA
    distance:
      value: 18.69
      units: km
  - name: MICANOPY
    distance:
      value: 20.0
      units: km
- country: US
  region: FL
  name: Garcon Point
  lat: '30.4758'
  long: "-87.0900"
  nearby_rate_centers:
  - name: PENSACOLA
    distance:
      value: 13.59
      units: km
  - name: GULFBREEZE
    distance:
      value: 14.43
      units: km
  - name: PACE
    distance:
      value: 14.92
      units: km
- country: US
  region: FL
  name: Garden Grove
  lat: '28.4716'
  long: "-82.4349"
  nearby_rate_centers:
  - name: BROOKSVL
    distance:
      value: 10.74
      units: km
  - name: WEEKICHSPG
    distance:
      value: 16.09
      units: km
  - name: SANANTONIO
    distance:
      value: 20.61
      units: km
- country: US
  region: FL
  name: Gardner
  lat: '27.3537'
  long: "-81.7895"
  nearby_rate_centers:
  - name: ZOLFO SPG
    distance:
      value: 16.45
      units: km
  - name: ARCADIA
    distance:
      value: 16.64
      units: km
  - name: WAUCHULA
    distance:
      value: 22.14
      units: km
- country: US
  region: FL
  name: Gateway
  lat: '26.5793'
  long: "-81.7446"
  nearby_rate_centers:
  - name: LEHIGHACRS
    distance:
      value: 10.65
      units: km
  - name: FORT MYERS
    distance:
      value: 13.06
      units: km
  - name: NOFT MYERS
    distance:
      value: 16.7
      units: km
- country: US
  region: FL
  name: Geneva
  lat: '28.7377'
  long: "-81.1143"
  nearby_rate_centers:
  - name: GENEVA
    distance:
      value: 0.59
      units: km
  - name: OVIEDO
    distance:
      value: 11.39
      units: km
  - name: SANFORD
    distance:
      value: 16.25
      units: km
- country: US
  region: FL
  name: Gibsonton
  lat: '27.8260'
  long: "-82.3761"
  nearby_rate_centers:
  - name: TAMPASTH
    distance:
      value: 13.07
      units: km
  - name: TAMPACEN
    distance:
      value: 15.88
      units: km
  - name: TAMPAEST
    distance:
      value: 18.77
      units: km
- country: US
  region: FL
  name: Gifford
  lat: '27.6756'
  long: "-80.4252"
  nearby_rate_centers:
  - name: VERO BEACH
    distance:
      value: 4.63
      units: km
  - name: SEBASTIAN
    distance:
      value: 16.27
      units: km
  - name: FORTPIERCE
    distance:
      value: 27.35
      units: km
- country: US
  region: FL
  name: Gladeview
  lat: '25.8395'
  long: "-80.2368"
  nearby_rate_centers:
  - name: MIAMI
    distance:
      value: 8.59
      units: km
  - name: NORTH DADE
    distance:
      value: 12.12
      units: km
  - name: HOLLYWOOD
    distance:
      value: 20.72
      units: km
- country: US
  region: FL
  name: Glen Ridge
  lat: '26.6714'
  long: "-80.0751"
  nearby_rate_centers:
  - name: WPALMBEACH
    distance:
      value: 2.75
      units: km
  - name: BOYNTONBCH
    distance:
      value: 16.48
      units: km
  - name: DELRAY BCH
    distance:
      value: 23.67
      units: km
- country: US
  region: FL
  name: Glen St. Mary
  lat: '30.2752'
  long: "-82.1604"
  nearby_rate_centers:
  - name: MACCLENNY
    distance:
      value: 4.03
      units: km
  - name: SANDERSON
    distance:
      value: 10.65
      units: km
  - name: MAXVILLE
    distance:
      value: 16.76
      units: km
- country: US
  region: FL
  name: Glencoe
  lat: '29.0005'
  long: "-80.9604"
  nearby_rate_centers:
  - name: NWSMYRNBCH
    distance:
      value: 4.19
      units: km
  - name: OAK HILL
    distance:
      value: 20.03
      units: km
  - name: DAYTONABCH
    distance:
      value: 26.7
      units: km
- country: US
  region: FL
  name: Glenvar Heights
  lat: '25.7090'
  long: "-80.3155"
  nearby_rate_centers:
  - name: PERRINE
    distance:
      value: 12.4
      units: km
  - name: MIAMI
    distance:
      value: 14.51
      units: km
  - name: NORTH DADE
    distance:
      value: 28.48
      units: km
- country: US
  region: FL
  name: Golden Beach
  lat: '25.9660'
  long: "-80.1210"
  nearby_rate_centers:
  - name: HOLLYWOOD
    distance:
      value: 5.46
      units: km
  - name: NORTH DADE
    distance:
      value: 6.1
      units: km
  - name: FTLAUDERDL
    distance:
      value: 16.92
      units: km
- country: US
  region: FL
  name: Golden Gate
  lat: '26.1844'
  long: "-81.7031"
  nearby_rate_centers:
  - name: NAPLES
    distance:
      value: 10.5
      units: km
  - name: NO NAPLES
    distance:
      value: 13.78
      units: km
  - name: BONITA SPG
    distance:
      value: 18.21
      units: km
- country: US
  region: FL
  name: Golden Glades
  lat: '25.9129'
  long: "-80.2013"
  nearby_rate_centers:
  - name: NORTH DADE
    distance:
      value: 4.44
      units: km
  - name: HOLLYWOOD
    distance:
      value: 11.82
      units: km
  - name: MIAMI
    distance:
      value: 15.42
      units: km
- country: US
  region: FL
  name: Goldenrod
  lat: '28.6114'
  long: "-81.2916"
  nearby_rate_centers:
  - name: WINTERPARK
    distance:
      value: 6.07
      units: km
  - name: OVIEDO
    distance:
      value: 10.99
      units: km
  - name: ORLANDO
    distance:
      value: 11.17
      units: km
- country: US
  region: FL
  name: Golf
  lat: '26.5043'
  long: "-80.1091"
  nearby_rate_centers:
  - name: BOYNTONBCH
    distance:
      value: 5.67
      units: km
  - name: DELRAY BCH
    distance:
      value: 6.75
      units: km
  - name: BOCA RATON
    distance:
      value: 17.32
      units: km
- country: US
  region: FL
  name: Gonzalez
  lat: '30.5822'
  long: "-87.2906"
  nearby_rate_centers:
  - name: CANTONMENT
    distance:
      value: 4.19
      units: km
  - name: PACE
    distance:
      value: 13.85
      units: km
  - name: MOLINO
    distance:
      value: 16.16
      units: km
- country: US
  region: FL
  name: Goodland
  lat: '25.9252'
  long: "-81.6480"
  nearby_rate_centers:
  - name: MARCO IS
    distance:
      value: 7.81
      units: km
  - name: EVERGLADES
    distance:
      value: 27.36
      units: km
  - name: NAPLES
    distance:
      value: 28.44
      units: km
- country: US
  region: FL
  name: Gotha
  lat: '28.5306'
  long: "-81.5191"
  nearby_rate_centers:
  - name: WINDERMERE
    distance:
      value: 3.86
      units: km
  - name: WINTERGRDN
    distance:
      value: 7.64
      units: km
  - name: ORLANDO
    distance:
      value: 14.32
      units: km
- country: US
  region: FL
  name: Goulding
  lat: '30.4396'
  long: "-87.2300"
  nearby_rate_centers:
  - name: PENSACOLA
    distance:
      value: 2.82
      units: km
  - name: GULFBREEZE
    distance:
      value: 12.01
      units: km
  - name: PACE
    distance:
      value: 19.56
      units: km
- country: US
  region: FL
  name: Goulds
  lat: '25.5614'
  long: "-80.3880"
  nearby_rate_centers:
  - name: PERRINE
    distance:
      value: 5.87
      units: km
  - name: HOMESTEAD
    distance:
      value: 14.19
      units: km
  - name: NOKEYLARGO
    distance:
      value: 29.03
      units: km
- country: US
  region: FL
  name: Graceville
  lat: '30.9609'
  long: "-85.5123"
  nearby_rate_centers:
  - name: GRACEVILLE
    distance:
      value: 0.49
      units: km
  - name: CHIPLEY
    distance:
      value: 19.86
      units: km
  - name: COTTONDALE
    distance:
      value: 21.56
      units: km
- country: US
  region: FL
  name: Grand Ridge
  lat: '30.7083'
  long: "-85.0207"
  nearby_rate_centers:
  - name: GRANDRIDGE
    distance:
      value: 1.27
      units: km
  - name: SNEADS
    distance:
      value: 8.9
      units: km
  - name: CHATAHOCHE
    distance:
      value: 17.34
      units: km
- country: US
  region: FL
  name: Grant-Valkaria
  lat: '27.9322'
  long: "-80.5655"
  nearby_rate_centers:
  - name: SEBASTIAN
    distance:
      value: 16.0
      units: km
  - name: MELBOURNE
    distance:
      value: 17.18
      units: km
  - name: EAU GALLIE
    distance:
      value: 22.25
      units: km
- country: US
  region: FL
  name: Green Cove Springs
  lat: '29.9904'
  long: "-81.6807"
  nearby_rate_centers:
  - name: GREENCVSPG
    distance:
      value: 0.28
      units: km
  - name: JULINGTON
    distance:
      value: 15.04
      units: km
  - name: ORANGEPARK
    distance:
      value: 19.62
      units: km
- country: US
  region: FL
  name: Greenacres
  lat: '26.6270'
  long: "-80.1371"
  nearby_rate_centers:
  - name: WPALMBEACH
    distance:
      value: 10.58
      units: km
  - name: BOYNTONBCH
    distance:
      value: 13.97
      units: km
  - name: DELRAY BCH
    distance:
      value: 20.06
      units: km
- country: US
  region: FL
  name: Greenbriar
  lat: '28.0111'
  long: "-82.7523"
  nearby_rate_centers:
  - name: CLEARWATER
    distance:
      value: 6.77
      units: km
  - name: TARPON SPG
    distance:
      value: 14.71
      units: km
  - name: TAMPAWST
    distance:
      value: 18.75
      units: km
- country: US
  region: FL
  name: Greensboro
  lat: '30.5705'
  long: "-84.7324"
  nearby_rate_centers:
  - name: GREENSBORO
    distance:
      value: 1.59
      units: km
  - name: GRETNA
    distance:
      value: 8.55
      units: km
  - name: QUINCY
    distance:
      value: 14.45
      units: km
- country: US
  region: FL
  name: Greenville
  lat: '30.4667'
  long: "-83.6352"
  nearby_rate_centers:
  - name: GREENVILLE
    distance:
      value: 0.98
      units: km
  - name: MADISON
    distance:
      value: 21.83
      units: km
  - name: CHERRYLAKE
    distance:
      value: 23.4
      units: km
- country: US
  region: FL
  name: Greenwood
  lat: '30.8727'
  long: "-85.1612"
  nearby_rate_centers:
  - name: GREENWOOD
    distance:
      value: 0.85
      units: km
  - name: MALONE
    distance:
      value: 10.21
      units: km
  - name: MARIANNA
    distance:
      value: 12.77
      units: km
- country: US
  region: FL
  name: Grenelefe
  lat: '28.0579'
  long: "-81.5538"
  nearby_rate_centers:
  - name: HAINESCITY
    distance:
      value: 8.46
      units: km
  - name: POINCIANA
    distance:
      value: 8.46
      units: km
  - name: WINTER HVN
    distance:
      value: 17.07
      units: km
  - name: LAKE WALES
    distance:
      value: 17.14
      units: km
- country: US
  region: FL
  name: Gretna
  lat: '30.5929'
  long: "-84.6876"
  nearby_rate_centers:
  - name: GRETNA
    distance:
      value: 3.63
      units: km
  - name: GREENSBORO
    distance:
      value: 6.47
      units: km
  - name: QUINCY
    distance:
      value: 10.17
      units: km
- country: US
  region: FL
  name: Grove City
  lat: '26.9071'
  long: "-82.3259"
  nearby_rate_centers:
  - name: ENGLEWOOD
    distance:
      value: 6.34
      units: km
  - name: CAPE HAZE
    distance:
      value: 6.52
      units: km
  - name: NORTH PORT
    distance:
      value: 17.81
      units: km
- country: US
  region: FL
  name: Groveland
  lat: '28.6098'
  long: "-81.8246"
  nearby_rate_centers:
  - name: GROVELAND
    distance:
      value: 6.62
      units: km
  - name: CLERMONT
    distance:
      value: 8.09
      units: km
  - name: HOWEYINHLS
    distance:
      value: 11.77
      units: km
- country: US
  region: FL
  name: Gulf Breeze
  lat: '30.3684'
  long: "-87.1737"
  nearby_rate_centers:
  - name: GULFBREEZE
    distance:
      value: 2.64
      units: km
  - name: PENSACOLA
    distance:
      value: 6.77
      units: km
  - name: PACE
    distance:
      value: 25.93
      units: km
- country: US
  region: FL
  name: Gulf Stream
  lat: '26.4894'
  long: "-80.0573"
  nearby_rate_centers:
  - name: DELRAY BCH
    distance:
      value: 3.48
      units: km
  - name: BOYNTONBCH
    distance:
      value: 3.86
      units: km
  - name: BOCA RATON
    distance:
      value: 15.87
      units: km
- country: US
  region: FL
  name: Gulfport
  lat: '27.7463'
  long: "-82.7099"
  nearby_rate_centers:
  - name: STPETERSBG
    distance:
      value: 7.27
      units: km
  - name: CLEARWATER
    distance:
      value: 26.04
      units: km
  - name: PALMETTO
    distance:
      value: 29.23
      units: km
- country: US
  region: FL
  name: Gun Club Estates
  lat: '26.6753'
  long: "-80.1080"
  nearby_rate_centers:
  - name: WPALMBEACH
    distance:
      value: 5.23
      units: km
  - name: BOYNTONBCH
    distance:
      value: 17.58
      units: km
  - name: DELRAY BCH
    distance:
      value: 24.47
      units: km
- country: US
  region: FL
  name: Haines City
  lat: '28.1102'
  long: "-81.6157"
  nearby_rate_centers:
  - name: POINCIANA
    distance:
      value: 0.06
      units: km
  - name: HAINESCITY
    distance:
      value: 0.06
      units: km
  - name: WINTER HVN
    distance:
      value: 13.64
      units: km
  - name: POLK CITY
    distance:
      value: 22.3
      units: km
- country: US
  region: FL
  name: Hallandale Beach
  lat: '25.9854'
  long: "-80.1423"
  nearby_rate_centers:
  - name: HOLLYWOOD
    distance:
      value: 2.62
      units: km
  - name: NORTH DADE
    distance:
      value: 7.18
      units: km
  - name: FTLAUDERDL
    distance:
      value: 14.62
      units: km
- country: US
  region: FL
  name: Hampton
  lat: '29.8643'
  long: "-82.1380"
  nearby_rate_centers:
  - name: WALDO
    distance:
      value: 8.65
      units: km
  - name: STARKE
    distance:
      value: 9.05
      units: km
  - name: KEYSTN HTS
    distance:
      value: 13.6
      units: km
- country: US
  region: FL
  name: Harbor Bluffs
  lat: '27.9081'
  long: "-82.8270"
  nearby_rate_centers:
  - name: CLEARWATER
    distance:
      value: 7.05
      units: km
  - name: STPETERSBG
    distance:
      value: 23.46
      units: km
  - name: TARPON SPG
    distance:
      value: 27.19
      units: km
- country: US
  region: FL
  name: Harbour Heights
  lat: '26.9928'
  long: "-82.0072"
  nearby_rate_centers:
  - name: PUNTAGORDA
    distance:
      value: 8.07
      units: km
  - name: PTCHARLOTT
    distance:
      value: 11.14
      units: km
  - name: NORTH PORT
    distance:
      value: 23.91
      units: km
- country: US
  region: FL
  name: Harlem
  lat: '26.7324'
  long: "-80.9519"
  nearby_rate_centers:
  - name: CLEWISTON
    distance:
      value: 4.29
      units: km
  - name: MOOREHAVEN
    distance:
      value: 17.8
      units: km
  - name: BELLEGLADE
    distance:
      value: 28.28
      units: km
- country: US
  region: FL
  name: Harlem Heights
  lat: '26.5160'
  long: "-81.9293"
  nearby_rate_centers:
  - name: CAPE CORAL
    distance:
      value: 4.48
      units: km
  - name: FTMYERSBCH
    distance:
      value: 7.87
      units: km
  - name: SNCPVISNDS
    distance:
      value: 12.0
      units: km
- country: US
  region: FL
  name: Harold
  lat: '30.6772'
  long: "-86.8310"
  nearby_rate_centers:
  - name: BAKER
    distance:
      value: 19.5
      units: km
  - name: MUNSON
    distance:
      value: 19.84
      units: km
  - name: MILTON
    distance:
      value: 19.97
      units: km
- country: US
  region: FL
  name: Hastings
  lat: '29.7145'
  long: "-81.4990"
  nearby_rate_centers:
  - name: HASTINGS
    distance:
      value: 0.85
      units: km
  - name: PALATKA
    distance:
      value: 15.88
      units: km
  - name: POMONAPARK
    distance:
      value: 26.43
      units: km
- country: US
  region: FL
  name: Havana
  lat: '30.6298'
  long: "-84.4135"
  nearby_rate_centers:
  - name: HAVANA
    distance:
      value: 1.53
      units: km
  - name: QUINCY
    distance:
      value: 16.99
      units: km
  - name: GRETNA
    distance:
      value: 23.54
      units: km
- country: US
  region: FL
  name: Haverhill
  lat: '26.6910'
  long: "-80.1217"
  nearby_rate_centers:
  - name: WPALMBEACH
    distance:
      value: 6.28
      units: km
  - name: BOYNTONBCH
    distance:
      value: 19.66
      units: km
  - name: DELRAY BCH
    distance:
      value: 26.45
      units: km
- country: US
  region: FL
  name: Hawthorne
  lat: '29.5938'
  long: "-82.0944"
  nearby_rate_centers:
  - name: HAWTHORNE
    distance:
      value: 1.31
      units: km
  - name: MELROSE
    distance:
