---
cities:
  US:
    FL:
    - name: Acacia Villas
      region: FL
      lat: '26.6457'
      long: "-80.1104"
      closest_rate_centers:
      - name: West Palm Beach
        distance:
          value: 7.22
          units: km
      - name: Boynton Beach
        distance:
          value: 14.54
          units: km
      - name: Delray Beach
        distance:
          value: 21.29
          units: km
    - name: Alachua
      region: FL
      lat: '29.7779'
      long: "-82.4832"
      closest_rate_centers:
      - name: Alachua
        distance:
          value: 1.76
          units: km
      - name: High Springs
        distance:
          value: 12.1
          units: km
      - name: Newberry
        distance:
          value: 18.54
          units: km
    - name: Alafaya
      region: FL
      lat: '28.5280'
      long: "-81.1868"
      closest_rate_centers:
      - name: Oviedo
        distance:
          value: 15.41
          units: km
      - name: East Orange
        distance:
          value: 17.41
          units: km
      - name: Winter Park
        distance:
          value: 17.98
          units: km
    - name: Alford
      region: FL
      lat: '30.6967'
      long: "-85.3953"
      closest_rate_centers:
      - name: Alford
        distance:
          value: 0.64
          units: km
      - name: Cottondale
        distance:
          value: 11.64
          units: km
      - name: Chipley
        distance:
          value: 16.47
          units: km
    - name: Allentown
      region: FL
      lat: '30.7745'
      long: "-87.0822"
      closest_rate_centers:
      - name: Milton
        distance:
          value: 17.32
          units: km
      - name: Pace
        distance:
          value: 20.33
          units: km
      - name: Jay
        distance:
          value: 21.19
          units: km
    - name: Altamonte Springs
      region: FL
      lat: '28.6615'
      long: "-81.3953"
      closest_rate_centers:
      - name: Winter Park
        distance:
          value: 8.12
          units: km
      - name: Apopka
        distance:
          value: 10.65
          units: km
      - name: Orlando
        distance:
          value: 13.6
          units: km
    - name: Altha
      region: FL
      lat: '30.5721'
      long: "-85.1263"
      closest_rate_centers:
      - name: Altha
        distance:
          value: 0.53
          units: km
      - name: Blountstown
        distance:
          value: 16.5
          units: km
      - name: Grand Ridge
        distance:
          value: 19.41
          units: km
    - name: Altoona
      region: FL
      lat: '28.9681'
      long: "-81.6482"
      closest_rate_centers:
      - name: Umatilla
        distance:
          value: 4.43
          units: km
      - name: Eustis
        distance:
          value: 12.68
          units: km
      - name: Mount Dora
        distance:
          value: 17.95
          units: km
    - name: Alturas
      region: FL
      lat: '27.8417'
      long: "-81.6952"
      closest_rate_centers:
      - name: Lake Wales
        distance:
          value: 13.16
          units: km
      - name: Fort Meade
        distance:
          value: 13.87
          units: km
      - name: Bartow
        distance:
          value: 14.58
          units: km
    - name: Alva
      region: FL
      lat: '26.7188'
      long: "-81.6269"
      closest_rate_centers:
      - name: Lehigh Acres
        distance:
          value: 12.56
          units: km
      - name: LaBelle
        distance:
          value: 18.9
          units: km
      - name: Fort Myers
        distance:
          value: 24.32
          units: km
    - name: Andrews
      region: FL
      lat: '29.5496'
      long: "-82.8883"
      closest_rate_centers:
      - name: Chiefland
        distance:
          value: 8.11
          units: km
      - name: Trenton
        distance:
          value: 9.96
          units: km
      - name: Old Town
        distance:
          value: 10.15
          units: km
    - name: Anna Maria
      region: FL
      lat: '27.5297'
      long: "-82.7339"
      closest_rate_centers:
      - name: Palmetto
        distance:
          value: 16.12
          units: km
      - name: Bradenton
        distance:
          value: 16.9
          units: km
      - name: St Petersburg
        distance:
          value: 28.59
          units: km
    - name: Apalachicola
      region: FL
      lat: '29.7283'
      long: "-84.9940"
      closest_rate_centers:
      - name: Apalachicola
        distance:
          value: 1.35
          units: km
      - name: Eastpoint
        distance:
          value: 10.49
          units: km
      - name: Port St Joe
        distance:
          value: 30.69
          units: km
    - name: Apollo Beach
      region: FL
      lat: '27.7618'
      long: "-82.4003"
      closest_rate_centers:
      - name: Tampa South
        distance:
          value: 8.28
          units: km
      - name: Tampa Central
        distance:
          value: 21.55
          units: km
      - name: St Petersburg
        distance:
          value: 23.9
          units: km
    - name: Apopka
      region: FL
      lat: '28.7015'
      long: "-81.5316"
      closest_rate_centers:
      - name: Apopka
        distance:
          value: 3.53
          units: km
      - name: Mount Dora
        distance:
          value: 14.92
          units: km
      - name: Winter Garden
        distance:
          value: 15.72
          units: km
    - name: Arcadia
      region: FL
      lat: '27.2215'
      long: "-81.8585"
      closest_rate_centers:
      - name: Arcadia
        distance:
          value: 0.47
          units: km
      - name: Zolfo Springs
        distance:
          value: 31.8
          units: km
      - name: Myakka
        distance:
          value: 33.5
          units: km
    - name: Archer
      region: FL
      lat: '29.5400'
      long: "-82.5186"
      closest_rate_centers:
      - name: Archer
        distance:
          value: 1.81
          units: km
      - name: Bronson
        distance:
          value: 14.74
          units: km
      - name: Newberry
        distance:
          value: 15.09
          units: km
    - name: Aripeka
      region: FL
      lat: '28.4308'
      long: "-82.6668"
      closest_rate_centers:
      - name: Hudson
        distance:
          value: 7.64
          units: km
      - name: Weekiwachee Springs
        distance:
          value: 14.03
          units: km
      - name: New Port Richey
        distance:
          value: 21.37
          units: km
      - name: Seven Springs
        distance:
          value: 21.37
          units: km
    - name: Asbury Lake
      region: FL
      lat: '30.0472'
      long: "-81.7853"
      closest_rate_centers:
      - name: Middleburg
        distance:
          value: 8.07
          units: km
      - name: Green Cove Springs
        distance:
          value: 11.61
          units: km
      - name: Orange Park
        distance:
          value: 15.55
          units: km
    - name: Astatula
      region: FL
      lat: '28.7065'
      long: "-81.7346"
      closest_rate_centers:
      - name: Howey-in-the-Hills
        distance:
          value: 4.11
          units: km
      - name: Tavares
        distance:
          value: 11.4
          units: km
      - name: Montverde
        distance:
          value: 13.12
          units: km
    - name: Astor
      region: FL
      lat: '29.1635'
      long: "-81.5349"
      closest_rate_centers:
      - name: Astor
        distance:
          value: 1.32
          units: km
      - name: Pierson
        distance:
          value: 10.01
          units: km
      - name: DeLeon Springs
        distance:
          value: 17.99
          units: km
    - name: Atlantic Beach
      region: FL
      lat: '30.3375'
      long: "-81.4127"
      closest_rate_centers:
      - name: Jacksonville Beach
        distance:
          value: 6.41
          units: km
      - name: Ponte Vedra Beach
        distance:
          value: 12.2
          units: km
      - name: Jacksonville
        distance:
          value: 24.36
          units: km
    - name: Atlantis
      region: FL
      lat: '26.5962'
      long: "-80.1031"
      closest_rate_centers:
      - name: Boynton Beach
        distance:
          value: 9.26
          units: km
      - name: West Palm Beach
        distance:
          value: 11.45
          units: km
      - name: Delray Beach
        distance:
          value: 15.76
          units: km
    - name: Auburndale
      region: FL
      lat: '28.0963'
      long: "-81.8012"
      closest_rate_centers:
      - name: Polk City
        distance:
          value: 9.74
          units: km
      - name: Winter Haven
        distance:
          value: 10.03
          units: km
      - name: Lakeland
        distance:
          value: 16.28
          units: km
    - name: Aucilla
      region: FL
      lat: '30.4770'
      long: "-83.7604"
      closest_rate_centers:
      - name: Monticello
        distance:
          value: 12.33
          units: km
      - name: Greenville
        distance:
          value: 12.97
          units: km
      - name: Cherry Lake
        distance:
          value: 33.82
          units: km
    - name: Avalon
      region: FL
      lat: '30.5366'
      long: "-87.1010"
      closest_rate_centers:
      - name: Pace
        distance:
          value: 8.38
          units: km
      - name: Milton
        distance:
          value: 11.92
          units: km
      - name: Pensacola
        distance:
          value: 17.13
          units: km
    - name: Ave Maria
      region: FL
      lat: '26.3218'
      long: "-81.4397"
      closest_rate_centers:
      - name: Immokalee
        distance:
          value: 10.71
          units: km
      - name: Bonita Springs
        distance:
          value: 34.24
          units: km
      - name: North Naples
        distance:
          value: 37.23
          units: km
    - name: Aventura
      region: FL
      lat: '25.9566'
      long: "-80.1371"
      closest_rate_centers:
      - name: North Dade
        distance:
          value: 4.34
          units: km
      - name: Hollywood
        distance:
          value: 5.86
          units: km
      - name: Fort Lauderdale
        distance:
          value: 17.84
          units: km
    - name: Avon Park
      region: FL
      lat: '27.5898'
      long: "-81.5068"
      closest_rate_centers:
      - name: Avon Park
        distance:
          value: 2.68
          units: km
      - name: Sebring
        distance:
          value: 12.09
          units: km
      - name: Frostproof
        distance:
          value: 17.12
          units: km
    - name: Azalea Park
      region: FL
      lat: '28.5473'
      long: "-81.2956"
      closest_rate_centers:
      - name: Orlando
        distance:
          value: 7.59
          units: km
      - name: Winter Park
        distance:
          value: 7.98
          units: km
      - name: Oviedo
        distance:
          value: 16.31
          units: km
    - name: Babson Park
      region: FL
      lat: '27.8342'
      long: "-81.5281"
      closest_rate_centers:
      - name: Lake Wales
        distance:
          value: 9.61
          units: km
      - name: Frostproof
        distance:
          value: 10.3
          units: km
      - name: Indian Lake
        distance:
          value: 19.3
          units: km
    - name: Bagdad
      region: FL
      lat: '30.5824'
      long: "-87.0447"
      closest_rate_centers:
      - name: Milton
        distance:
          value: 4.94
          units: km
      - name: Pace
        distance:
          value: 10.04
          units: km
      - name: Holley-Navarre
        distance:
          value: 20.02
          units: km
    - name: Bal Harbour
      region: FL
      lat: '25.8935'
      long: "-80.1258"
      closest_rate_centers:
      - name: North Dade
        distance:
          value: 4.56
          units: km
      - name: Hollywood
        distance:
          value: 12.97
          units: km
      - name: Miami
        distance:
          value: 14.71
          units: km
    - name: Baldwin
      region: FL
      lat: '30.3052'
      long: "-81.9744"
      closest_rate_centers:
      - name: Baldwin
        distance:
          value: 0.81
          units: km
      - name: Maxville
        distance:
          value: 12.26
          units: km
      - name: Macclenny
        distance:
          value: 14.14
          units: km
    - name: Balm
      region: FL
      lat: '27.7542'
      long: "-82.2882"
      closest_rate_centers:
      - name: Tampa South
        distance:
          value: 6.47
          units: km
      - name: Tampa East
        distance:
          value: 23.59
          units: km
      - name: Tampa Central
        distance:
          value: 27.37
          units: km
    - name: Bardmoor
      region: FL
      lat: '27.8574'
      long: "-82.7534"
      closest_rate_centers:
      - name: Clearwater
        distance:
          value: 12.97
          units: km
      - name: St Petersburg
        distance:
          value: 14.3
          units: km
      - name: Tampa Central
        distance:
          value: 30.65
          units: km
    - name: Bartow
      region: FL
      lat: '27.8868'
      long: "-81.8214"
      closest_rate_centers:
      - name: Bartow
        distance:
          value: 1.2
          units: km
      - name: Mulberry
        distance:
          value: 14.08
          units: km
      - name: Bradley
        distance:
          value: 14.08
          units: km
      - name: Fort Meade
        distance:
          value: 15.36
          units: km
    - name: Bascom
      region: FL
      lat: '30.9278'
      long: "-85.1181"
      closest_rate_centers:
      - name: Malone
        distance:
          value: 6.13
          units: km
      - name: Greenwood
        distance:
          value: 7.97
          units: km
      - name: Marianna
        distance:
          value: 20.15
          units: km
    - name: Bay Harbor Islands
      region: FL
      lat: '25.8877'
      long: "-80.1334"
      closest_rate_centers:
      - name: North Dade
        distance:
          value: 4.59
          units: km
      - name: Hollywood
        distance:
          value: 13.49
          units: km
      - name: Miami
        distance:
          value: 13.8
          units: km
    - name: Bay Hill
      region: FL
      lat: '28.4559'
      long: "-81.5122"
      closest_rate_centers:
      - name: Windermere
        distance:
          value: 5.2
          units: km
      - name: Lake Buena Vista
        distance:
          value: 7.48
          units: km
      - name: West Kissimmee
        distance:
          value: 12.31
          units: km
    - name: Bay Lake
      region: FL
      lat: '28.3870'
      long: "-81.5751"
      closest_rate_centers:
      - name: Lake Buena Vista
        distance:
          value: 4.15
          units: km
      - name: Reedy Creek
        distance:
          value: 5.63
          units: km
      - name: Celebration
        distance:
          value: 6.48
          units: km
    - name: Bay Pines
      region: FL
      lat: '27.8139'
      long: "-82.7748"
      closest_rate_centers:
      - name: St Petersburg
        distance:
          value: 13.72
          units: km
      - name: Clearwater
        distance:
          value: 17.16
          units: km
      - name: Tampa Central
        distance:
          value: 34.45
          units: km
    - name: Bayonet Point
      region: FL
      lat: '28.3254'
      long: "-82.6834"
      closest_rate_centers:
      - name: Hudson
        distance:
          value: 4.36
          units: km
      - name: New Port Richey
        distance:
          value: 9.56
          units: km
      - name: Seven Springs
        distance:
          value: 9.56
          units: km
      - name: Tarpon Springs
        distance:
          value: 21.32
          units: km
    - name: Bayport
      region: FL
      lat: '28.5468'
      long: "-82.6456"
      closest_rate_centers:
      - name: Weekiwachee Springs
        distance:
          value: 6.23
          units: km
      - name: Hudson
        distance:
          value: 20.68
          units: km
      - name: Brooksville
        distance:
          value: 25.73
          units: km
    - name: Bayshore Gardens
      region: FL
      lat: '27.4345'
      long: "-82.5793"
      closest_rate_centers:
      - name: Bradenton
        distance:
          value: 6.37
          units: km
      - name: Palmetto
        distance:
          value: 8.86
          units: km
      - name: Sarasota
        distance:
          value: 11.39
          units: km
    - name: Beacon Square
      region: FL
      lat: '28.2118'
      long: "-82.7504"
      closest_rate_centers:
      - name: New Port Richey
        distance:
          value: 5.45
          units: km
      - name: Seven Springs
        distance:
          value: 5.45
          units: km
      - name: Tarpon Springs
        distance:
          value: 7.61
          units: km
      - name: Hudson
        distance:
          value: 18.07
          units: km
    - name: Bear Creek
      region: FL
      lat: '27.7542'
      long: "-82.7285"
      closest_rate_centers:
      - name: St Petersburg
        distance:
          value: 8.71
          units: km
      - name: Clearwater
        distance:
          value: 24.63
          units: km
      - name: Palmetto
        distance:
          value: 30.89
          units: km
    - name: Bee Ridge
      region: FL
      lat: '27.2855'
      long: "-82.4731"
      closest_rate_centers:
      - name: Sarasota
        distance:
          value: 8.55
          units: km
      - name: Venice
        distance:
          value: 20.65
          units: km
      - name: Bradenton
        distance:
          value: 24.7
          units: km
    - name: Bell
      region: FL
      lat: '29.7568'
      long: "-82.8620"
      closest_rate_centers:
      - name: Trenton
        distance:
          value: 16.16
          units: km
      - name: Old Town
        distance:
          value: 20.55
          units: km
      - name: Fort White
        distance:
          value: 23.63
          units: km
    - name: Bellair-Meadowbrook Terrace
      region: FL
      lat: '30.1796'
      long: "-81.7375"
      closest_rate_centers:
      - name: Orange Park
        distance:
          value: 3.9
          units: km
      - name: Julington
        distance:
          value: 12.55
          units: km
      - name: Jacksonville
        distance:
          value: 17.52
          units: km
    - name: Belle Glade
      region: FL
      lat: '26.6916'
      long: "-80.6656"
      closest_rate_centers:
      - name: Belle Glade
        distance:
          value: 1.22
          units: km
      - name: Pahokee
        distance:
          value: 14.08
          units: km
      - name: Clewiston
        distance:
          value: 25.5
          units: km
    - name: Belle Isle
      region: FL
      lat: '28.4723'
      long: "-81.3491"
      closest_rate_centers:
      - name: Orlando
        distance:
          value: 7.96
          units: km
      - name: Winter Park
        distance:
          value: 14.1
          units: km
      - name: Windermere
        distance:
          value: 18.32
          units: km
    - name: Belleair
      region: FL
      lat: '27.9365'
      long: "-82.8114"
      closest_rate_centers:
      - name: Clearwater
        distance:
          value: 3.55
          units: km
      - name: Tarpon Springs
        distance:
          value: 23.74
          units: km
      - name: St Petersburg
        distance:
          value: 24.52
          units: km
    - name: Belleair Beach
      region: FL
      lat: '27.9242'
      long: "-82.8359"
      closest_rate_centers:
      - name: Clearwater
        distance:
          value: 5.93
          units: km
      - name: St Petersburg
        distance:
          value: 25.29
          units: km
      - name: Tarpon Springs
        distance:
          value: 25.73
          units: km
    - name: Belleair Bluffs
      region: FL
      lat: '27.9198'
      long: "-82.8191"
      closest_rate_centers:
      - name: Clearwater
        distance:
          value: 5.56
          units: km
      - name: St Petersburg
        distance:
          value: 23.74
          units: km
      - name: Tarpon Springs
        distance:
          value: 25.73
          units: km
    - name: Belleair Shore
      region: FL
      lat: '27.9173'
      long: "-82.8455"
      closest_rate_centers:
      - name: Clearwater
        distance:
          value: 7.11
          units: km
      - name: St Petersburg
        distance:
          value: 25.52
          units: km
      - name: Tarpon Springs
        distance:
          value: 26.77
          units: km
    - name: Belleview
      region: FL
      lat: '29.0608'
      long: "-82.0565"
      closest_rate_centers:
      - name: Belleview
        distance:
          value: 0.56
          units: km
      - name: Silver Springs Shores
        distance:
          value: 6.18
          units: km
      - name: Ocklawaha
        distance:
          value: 12.53
          units: km
    - name: Bellview
      region: FL
      lat: '30.4620'
      long: "-87.3120"
      closest_rate_centers:
      - name: Pensacola
        distance:
          value: 10.53
          units: km
      - name: Cantonment
        distance:
          value: 16.25
          units: km
      - name: Gulf Breeze
        distance:
          value: 19.47
          units: km
    - name: Berkshire Lakes
      region: FL
      lat: '26.1602'
      long: "-81.7274"
      closest_rate_centers:
      - name: Naples
        distance:
          value: 7.27
          units: km
      - name: North Naples
        distance:
          value: 14.16
          units: km
      - name: Bonita Springs
        distance:
          value: 19.85
          units: km
    - name: Berrydale
      region: FL
      lat: '30.8982'
      long: "-87.0350"
      closest_rate_centers:
      - name: Jay
        distance:
          value: 12.7
          units: km
      - name: Munson
        distance:
          value: 16.03
          units: km
      - name: Century
        distance:
          value: 23.12
          units: km
    - name: Beverly Beach
      region: FL
      lat: '29.5166'
      long: "-81.1476"
      closest_rate_centers:
      - name: Flagler Beach
        distance:
          value: 4.88
          units: km
      - name: Palm Coast
        distance:
          value: 8.53
          units: km
      - name: Bunnell
        distance:
          value: 12.66
          units: km
    - name: Beverly Hills
      region: FL
      lat: '28.9176'
      long: "-82.4542"
      closest_rate_centers:
      - name: Beverly Hills
        distance:
          value: 1.16
          units: km
      - name: Crystal River
        distance:
          value: 12.9
          units: km
      - name: Dunnellon
        distance:
          value: 14.51
          units: km
    - name: Big Coppitt Key
      region: FL
      lat: '24.5914'
      long: "-81.6574"
      closest_rate_centers:
      - name: Sugarloaf Key
        distance:
          value: 11.05
          units: km
      - name: Key West
        distance:
          value: 14.12
          units: km
      - name: Big Pine
        distance:
          value: 32.37
          units: km
    - name: Big Pine Key
      region: FL
      lat: '24.6893'
      long: "-81.3676"
      closest_rate_centers:
      - name: Big Pine
        distance:
          value: 2.54
          units: km
      - name: Sugarloaf Key
        distance:
          value: 20.76
          units: km
      - name: Marathon
        distance:
          value: 28.71
          units: km
      - name: Keys
        distance:
          value: 28.71
          units: km
    - name: Biscayne Park
      region: FL
      lat: '25.8818'
      long: "-80.1814"
      closest_rate_centers:
      - name: North Dade
        distance:
          value: 5.08
          units: km
      - name: Miami
        distance:
          value: 11.95
          units: km
      - name: Hollywood
        distance:
          value: 14.43
          units: km
    - name: Bithlo
      region: FL
      lat: '28.5644'
      long: "-81.1073"
      closest_rate_centers:
      - name: East Orange
        distance:
          value: 10.25
          units: km
      - name: Oviedo
        distance:
          value: 14.38
          units: km
      - name: Geneva
        distance:
          value: 19.08
          units: km
    - name: Black Diamond
      region: FL
      lat: '28.9067'
      long: "-82.4946"
      closest_rate_centers:
      - name: Beverly Hills
        distance:
          value: 4.69
          units: km
      - name: Crystal River
        distance:
          value: 8.86
          units: km
      - name: Homosassa Springs
        distance:
          value: 14.74
          units: km
    - name: Black Hammock
      region: FL
      lat: '28.7107'
      long: "-81.1801"
      closest_rate_centers:
      - name: Oviedo
        distance:
          value: 5.24
          units: km
      - name: Geneva
        distance:
          value: 7.52
          units: km
      - name: Sanford
        distance:
          value: 13.52
          units: km
    - name: Bloomingdale
      region: FL
      lat: '27.8784'
      long: "-82.2624"
      closest_rate_centers:
      - name: Tampa East
        distance:
          value: 9.72
          units: km
      - name: Tampa South
        distance:
          value: 19.65
          units: km
      - name: Plant City
        distance:
          value: 20.5
          units: km
    - name: Blountstown
      region: FL
      lat: '30.4430'
      long: "-85.0455"
      closest_rate_centers:
      - name: Blountstown
        distance:
          value: 0.46
          units: km
      - name: Bristol
        distance:
          value: 5.9
          units: km
      - name: Altha
        distance:
          value: 16.74
          units: km
    - name: Boca Raton
      region: FL
      lat: '26.3752'
      long: "-80.1080"
      closest_rate_centers:
      - name: Boca Raton
        distance:
          value: 3.41
          units: km
      - name: Deerfield Beach
        distance:
          value: 7.03
          units: km
      - name: Delray Beach
        distance:
          value: 10.26
          units: km
    - name: Bokeelia
      region: FL
      lat: '26.6800'
      long: "-82.1409"
      closest_rate_centers:
      - name: Pine Island
        distance:
          value: 7.75
          units: km
      - name: Boca Grande
        distance:
          value: 13.55
          units: km
      - name: North Cape Coral
        distance:
          value: 20.3
          units: km
    - name: Bonifay
      region: FL
      lat: '30.7786'
      long: "-85.6862"
      closest_rate_centers:
      - name: Bonifay
        distance:
          value: 1.36
          units: km
      - name: Chipley
        distance:
          value: 14.45
          units: km
      - name: Westville
        distance:
          value: 15.55
          units: km
    - name: Bonita Springs
      region: FL
      lat: '26.3558'
      long: "-81.7859"
      closest_rate_centers:
      - name: Bonita Springs
        distance:
          value: 2.71
          units: km
      - name: North Naples
        distance:
          value: 10.31
          units: km
      - name: Fort Myers Beach
        distance:
          value: 19.32
          units: km
    - name: Boulevard Gardens
      region: FL
      lat: '26.1253'
      long: "-80.1804"
      closest_rate_centers:
      - name: Fort Lauderdale
        distance:
          value: 3.9
          units: km
      - name: Pompano Beach
        distance:
          value: 13.39
          units: km
      - name: Hollywood
        distance:
          value: 13.39
          units: km
    - name: Bowling Green
      region: FL
      lat: '27.6380'
      long: "-81.8244"
      closest_rate_centers:
      - name: Bowling Green
        distance:
          value: 1.09
          units: km
      - name: Wauchula
        distance:
          value: 9.68
          units: km
      - name: Fort Meade
        distance:
          value: 12.97
          units: km
    - name: Boynton Beach
      region: FL
      lat: '26.5281'
      long: "-80.0811"
      closest_rate_centers:
      - name: Boynton Beach
        distance:
          value: 2.48
          units: km
      - name: Delray Beach
        distance:
          value: 7.89
          units: km
      - name: West Palm Beach
        distance:
          value: 18.27
          units: km
    - name: Bradenton
      region: FL
      lat: '27.4901'
      long: "-82.5757"
      closest_rate_centers:
      - name: Bradenton
        distance:
          value: 0.75
          units: km
      - name: Palmetto
        distance:
          value: 2.67
          units: km
      - name: Sarasota
        distance:
          value: 17.16
          units: km
    - name: Bradenton Beach
      region: FL
      lat: '27.4651'
      long: "-82.6958"
      closest_rate_centers:
      - name: Bradenton
        distance:
          value: 12.91
          units: km
      - name: Palmetto
        distance:
          value: 13.42
          units: km
      - name: Sarasota
        distance:
          value: 21.17
          units: km
    - name: Bradfordville
      region: FL
      lat: '30.5735'
      long: "-84.2055"
      closest_rate_centers:
      - name: Tallahassee
        distance:
          value: 16.04
          units: km
      - name: Havana
        distance:
          value: 20.54
          units: km
      - name: Monticello
        distance:
          value: 32.76
          units: km
    - name: Bradley Junction
      region: FL
      lat: '27.7942'
      long: "-81.9784"
      closest_rate_centers:
      - name: Mulberry
        distance:
          value: 11.92
          units: km
      - name: Bradley
        distance:
          value: 11.92
          units: km
      - name: Bartow
        distance:
          value: 17.82
          units: km
      - name: Fort Meade
        distance:
          value: 18.94
          units: km
    - name: Brandon
      region: FL
      lat: '27.9367'
      long: "-82.3000"
      closest_rate_centers:
      - name: Tampa East
        distance:
          value: 4.45
          units: km
      - name: Tampa Central
        distance:
          value: 15.68
          units: km
      - name: Plant City
        distance:
          value: 19.3
          units: km
    - name: Branford
      region: FL
      lat: '29.9623'
      long: "-82.9243"
      closest_rate_centers:
      - name: Branford
        distance:
          value: 0.51
          units: km
      - name: Fort White
        distance:
          value: 22.14
          units: km
      - name: Mayo
        distance:
          value: 25.91
          units: km
    - name: Brent
      region: FL
      lat: '30.4727'
      long: "-87.2495"
      closest_rate_centers:
      - name: Pensacola
        distance:
          value: 6.94
          units: km
      - name: Gulf Breeze
        distance:
          value: 16.06
          units: km
      - name: Cantonment
        distance:
          value: 16.58
          units: km
    - name: Briny Breezes
      region: FL
      lat: '26.5090'
      long: "-80.0542"
      closest_rate_centers:
      - name: Boynton Beach
        distance:
          value: 1.69
          units: km
      - name: Delray Beach
        distance:
          value: 5.67
          units: km
      - name: Boca Raton
        distance:
          value: 18.07
          units: km
    - name: Bristol
      region: FL
      lat: '30.4255'
      long: "-84.9773"
      closest_rate_centers:
      - name: Bristol
        distance:
          value: 1.29
          units: km
      - name: Blountstown
        distance:
          value: 7.0
          units: km
      - name: Hosford
        distance:
          value: 17.79
          units: km
    - name: Broadview Park
      region: FL
      lat: '26.0978'
      long: "-80.2090"
      closest_rate_centers:
      - name: Fort Lauderdale
        distance:
          value: 6.98
          units: km
      - name: Hollywood
        distance:
          value: 11.63
          units: km
      - name: Pompano Beach
        distance:
          value: 17.45
          units: km
    - name: Bronson
      region: FL
      lat: '29.4501'
      long: "-82.6391"
      closest_rate_centers:
      - name: Bronson
        distance:
          value: 0.79
          units: km
      - name: Archer
        distance:
          value: 14.49
          units: km
      - name: Williston
        distance:
          value: 19.39
          units: km
    - name: Brooker
      region: FL
      lat: '29.8877'
      long: "-82.3327"
      closest_rate_centers:
      - name: Brooker
        distance:
          value: 0.49
          units: km
      - name: Lake Butler
        distance:
          value: 14.12
          units: km
      - name: Alachua
        distance:
          value: 18.5
          units: km
    - name: Brookridge
      region: FL
      lat: '28.5483'
      long: "-82.4897"
      closest_rate_centers:
      - name: Weekiwachee Springs
        distance:
          value: 9.32
          units: km
      - name: Brooksville
        distance:
          value: 10.51
          units: km
      - name: Hudson
        distance:
          value: 28.12
          units: km
    - name: Brooksville
      region: FL
      lat: '28.5404'
      long: "-82.3903"
      closest_rate_centers:
      - name: Brooksville
        distance:
          value: 1.94
          units: km
      - name: Weekiwachee Springs
        distance:
          value: 18.9
          units: km
      - name: Trillacoochee
        distance:
          value: 21.86
          units: km
    - name: Brownsdale
      region: FL
      lat: '30.8859'
      long: "-87.2218"
      closest_rate_centers:
      - name: Century
        distance:
          value: 9.81
          units: km
      - name: Jay
        distance:
          value: 10.38
          units: km
      - name: Molino
        distance:
          value: 20.07
          units: km
    - name: Brownsville
      region: FL
      lat: '25.8216'
      long: "-80.2417"
      closest_rate_centers:
      - name: Miami
        distance:
          value: 7.33
          units: km
      - name: North Dade
        distance:
          value: 13.99
          units: km
      - name: Hollywood
        distance:
          value: 22.73
          units: km
    - name: Buckhead Ridge
      region: FL
      lat: '27.1331'
      long: "-80.8868"
      closest_rate_centers:
      - name: Okeechobee
        distance:
          value: 13.49
          units: km
      - name: Moore Haven
        distance:
          value: 39.22
          units: km
      - name: Pahokee
        distance:
          value: 41.25
          units: km
    - name: Buckingham
      region: FL
      lat: '26.6613'
      long: "-81.7402"
      closest_rate_centers:
      - name: Lehigh Acres
        distance:
          value: 11.5
          units: km
      - name: Fort Myers
        distance:
          value: 11.71
          units: km
      - name: North Fort Myers
        distance:
          value: 14.07
          units: km
    - name: Buenaventura Lakes
      region: FL
      lat: '28.3349'
      long: "-81.3539"
      closest_rate_centers:
      - name: Kissimmee
        distance:
          value: 6.05
          units: km
      - name: St Cloud
        distance:
          value: 11.65
          units: km
      - name: West Kissimmee
        distance:
          value: 13.38
          units: km
    - name: Bunnell
      region: FL
      lat: '29.4193'
      long: "-81.3231"
      closest_rate_centers:
      - name: Bunnell
        distance:
          value: 7.5
          units: km
      - name: Crescent City
        distance:
          value: 18.03
          units: km
      - name: Flagler Beach
        distance:
          value: 20.27
          units: km
    - name: Burnt Store Marina
      region: FL
      lat: '26.7645'
      long: "-82.0507"
      closest_rate_centers:
      - name: Pine Island
        distance:
          value: 17.38
          units: km
      - name: North Cape Coral
        distance:
          value: 17.94
          units: km
      - name: Punta Gorda
        distance:
          value: 18.47
          units: km
    - name: Bushnell
      region: FL
      lat: '28.6860'
      long: "-82.1165"
      closest_rate_centers:
      - name: Bushnell
        distance:
          value: 2.4
          units: km
      - name: Wildwood
        distance:
          value: 21.86
          units: km
      - name: Trillacoochee
        distance:
          value: 25.61
          units: km
    - name: Butler Beach
      region: FL
      lat: '29.7980'
      long: "-81.2653"
      closest_rate_centers:
      - name: St Augustine
        distance:
          value: 12.3
          units: km
      - name: Hastings
        distance:
          value: 25.0
          units: km
      - name: Palm Coast
        distance:
          value: 25.54
          units: km
    - name: Cabana Colony
      region: FL
      lat: '26.8555'
      long: "-80.0864"
      closest_rate_centers:
      - name: Jupiter
        distance:
          value: 9.51
          units: km
      - name: West Palm Beach
        distance:
          value: 18.48
          units: km
      - name: Hobe Sound
        distance:
          value: 23.26
          units: km
    - name: Callahan
      region: FL
      lat: '30.5655'
      long: "-81.8319"
      closest_rate_centers:
      - name: Callahan
        distance:
          value: 1.01
          units: km
      - name: Hilliard
        distance:
          value: 16.08
          units: km
      - name: Yulee
        distance:
          value: 23.2
          units: km
    - name: Callaway
      region: FL
      lat: '30.1349'
      long: "-85.5568"
      closest_rate_centers:
      - name: Tyndall AFB
        distance:
          value: 8.03
          units: km
      - name: Panama City
        distance:
          value: 10.06
          units: km
      - name: Lynn Haven
        distance:
          value: 15.62
          units: km
    - name: Campbell
      region: FL
      lat: '28.2603'
      long: "-81.4525"
      closest_rate_centers:
      - name: Kissimmee
        distance:
          value: 6.68
          units: km
      - name: West Kissimmee
        distance:
          value: 10.31
          units: km
      - name: Celebration
        distance:
          value: 12.35
          units: km
    - name: Campbellton
      region: FL
      lat: '30.9505'
      long: "-85.4025"
      closest_rate_centers:
      - name: Graceville
        distance:
          value: 10.9
          units: km
      - name: Cottondale
        distance:
          value: 16.72
          units: km
      - name: Chipley
        distance:
          value: 22.48
          units: km
    - name: Canal Point
      region: FL
      lat: '26.8626'
      long: "-80.6222"
      closest_rate_centers:
      - name: Pahokee
        distance:
          value: 6.62
          units: km
      - name: Belle Glade
        distance:
          value: 20.63
          units: km
      - name: Indiantown
        distance:
          value: 22.6
          units: km
    - name: Cape Canaveral
      region: FL
      lat: '28.3933'
      long: "-80.6049"
      closest_rate_centers:
      - name: Cocoa Beach
        distance:
          value: 8.54
          units: km
      - name: Cocoa
        distance:
          value: 12.92
          units: km
      - name: Eau Gallie
        distance:
          value: 29.78
          units: km
    - name: Cape Coral
      region: FL
      lat: '26.6443'
      long: "-81.9957"
      closest_rate_centers:
      - name: North Cape Coral
        distance:
          value: 5.35
          units: km
      - name: Cape Coral
        distance:
          value: 11.55
          units: km
      - name: Pine Island
        distance:
          value: 11.57
          units: km
    - name: Capitola
      region: FL
      lat: '30.4449'
      long: "-84.0799"
      closest_rate_centers:
      - name: Tallahassee
        distance:
          value: 18.81
          units: km
      - name: Monticello
        distance:
          value: 23.16
          units: km
      - name: St Marks
        distance:
          value: 34.04
          units: km
    - name: Captiva
      region: FL
      lat: '26.5205'
      long: "-82.1910"
      closest_rate_centers:
      - name: Pine Island
        distance:
          value: 13.52
          units: km
      - name: Sanibel-Captiva Islands
        distance:
          value: 18.24
          units: km
      - name: Fort Myers Beach
        distance:
          value: 25.27
          units: km
    - name: Carrabelle
      region: FL
      lat: '29.8555'
      long: "-84.6685"
      closest_rate_centers:
      - name: Carrabelle
        distance:
          value: 0.81
          units: km
      - name: Eastpoint
        distance:
          value: 25.19
          units: km
      - name: Sopchoppy
        distance:
          value: 28.63
          units: km
    - name: Carrollwood
      region: FL
      lat: '28.0577'
      long: "-82.5148"
      closest_rate_centers:
      - name: Tampa West
        distance:
          value: 10.2
          units: km
      - name: Tampa Central
        distance:
          value: 13.32
          units: km
      - name: Tarpon Springs
        distance:
          value: 25.12
          units: km
    - name: Caryville
      region: FL
      lat: '30.7753'
      long: "-85.8120"
      closest_rate_centers:
      - name: Westville
        distance:
          value: 3.68
          units: km
      - name: Bonifay
        distance:
          value: 12.51
          units: km
      - name: Ponce de Leon
        distance:
          value: 13.44
          units: km
    - name: Casselberry
      region: FL
      lat: '28.6624'
      long: "-81.3217"
      closest_rate_centers:
      - name: Winter Park
        distance:
          value: 7.64
          units: km
      - name: Oviedo
        distance:
          value: 12.08
          units: km
      - name: Orlando
        distance:
          value: 14.42
          units: km
    - name: Cedar Grove
      region: FL
      lat: '30.1812'
      long: "-85.6268"
      closest_rate_centers:
      - name: Panama City
        distance:
          value: 3.8
          units: km
      - name: Lynn Haven
        distance:
          value: 7.98
          units: km
      - name: Tyndall AFB
        distance:
          value: 13.45
          units: km
    - name: Cedar Key
      region: FL
      lat: '29.1460'
      long: "-83.0388"
      closest_rate_centers:
      - name: Cedar Key
        distance:
          value: 1.74
          units: km
      - name: Yankeetown
        distance:
          value: 33.73
          units: km
      - name: Chiefland
        distance:
          value: 41.74
          units: km
    - name: Celebration
      region: FL
      lat: '28.3102'
      long: "-81.5510"
      closest_rate_centers:
      - name: Celebration
        distance:
          value: 2.73
          units: km
      - name: Reedy Creek
        distance:
          value: 7.12
          units: km
      - name: West Kissimmee
        distance:
          value: 7.24
          units: km
    - name: Center Hill
      region: FL
      lat: '28.6334'
      long: "-81.9986"
      closest_rate_centers:
      - name: Bushnell
        distance:
          value: 11.06
          units: km
      - name: Groveland
        distance:
          value: 16.16
          units: km
      - name: Leesburg
        distance:
          value: 22.74
          units: km
    - name: Century
      region: FL
      lat: '30.9767'
      long: "-87.2629"
      closest_rate_centers:
      - name: Century
        distance:
          value: 1.15
          units: km
      - name: Jay
        distance:
          value: 11.02
          units: km
      - name: Walnut Hill
        distance:
          value: 25.06
          units: km
    - name: Chaires
      region: FL
      lat: '30.4421'
      long: "-84.1269"
      closest_rate_centers:
      - name: Tallahassee
        distance:
          value: 14.31
          units: km
      - name: Monticello
        distance:
          value: 27.36
          units: km
      - name: St Marks
        distance:
          value: 32.5
          units: km
    - name: Charleston Park
      region: FL
      lat: '26.7055'
      long: "-81.5807"
      closest_rate_centers:
      - name: Lehigh Acres
        distance:
          value: 12.56
          units: km
      - name: LaBelle
        distance:
          value: 15.15
          units: km
      - name: Fort Myers
        distance:
          value: 28.26
          units: km
    - name: Charlotte Harbor
      region: FL
      lat: '26.9629'
      long: "-82.0571"
      closest_rate_centers:
      - name: Punta Gorda
        distance:
          value: 3.67
          units: km
      - name: Port Charlotte
        distance:
          value: 5.79
          units: km
      - name: North Port
        distance:
          value: 20.49
          units: km
    - name: Charlotte Park
      region: FL
      lat: '26.9032'
      long: "-82.0487"
      closest_rate_centers:
      - name: Punta Gorda
        distance:
          value: 3.05
          units: km
      - name: Port Charlotte
        distance:
          value: 9.61
          units: km
      - name: Cape Haze
        distance:
          value: 24.59
          units: km
    - name: Chattahoochee
      region: FL
      lat: '30.6977'
      long: "-84.8341"
      closest_rate_centers:
      - name: Chattahoochee
        distance:
          value: 0.9
          units: km
      - name: Sneads
        distance:
          value: 9.0
          units: km
      - name: Greensboro
        distance:
          value: 16.54
          units: km
    - name: Cheval
      region: FL
      lat: '28.1459'
      long: "-82.5184"
      closest_rate_centers:
      - name: Tampa West
        distance:
          value: 8.76
          units: km
      - name: Tampa North
        distance:
          value: 17.12
          units: km
      - name: Seven Springs
        distance:
          value: 21.29
          units: km
      - name: New Port Richey
        distance:
          value: 21.29
          units: km
    - name: Chiefland
      region: FL
      lat: '29.4923'
      long: "-82.8682"
      closest_rate_centers:
      - name: Chiefland
        distance:
          value: 1.86
          units: km
      - name: Trenton
        distance:
          value: 14.57
          units: km
      - name: Old Town
        distance:
          value: 15.89
          units: km
    - name: Chipley
      region: FL
      lat: '30.7752'
      long: "-85.5406"
      closest_rate_centers:
      - name: Chipley
        distance:
          value: 1.05
          units: km
      - name: Bonifay
        distance:
          value: 13.63
          units: km
      - name: Cottondale
        distance:
          value: 15.17
          units: km
    - name: Chokoloskee
      region: FL
      lat: '25.8143'
      long: "-81.3603"
      closest_rate_centers:
      - name: Everglades
        distance:
          value: 5.7
          units: km
      - name: Marco Island
        distance:
          value: 39.11
          units: km
      - name: Naples
        distance:
          value: 56.97
          units: km
    - name: Christmas
      region: FL
      lat: '28.5605'
      long: "-81.0201"
      closest_rate_centers:
      - name: East Orange
        distance:
          value: 3.28
          units: km
      - name: Oviedo
        distance:
          value: 20.97
          units: km
      - name: Geneva
        distance:
          value: 21.34
          units: km
    - name: Chuluota
      region: FL
      lat: '28.6380'
      long: "-81.1159"
      closest_rate_centers:
      - name: Oviedo
        distance:
          value: 8.6
          units: km
      - name: Geneva
        distance:
          value: 10.92
          units: km
      - name: East Orange
        distance:
          value: 15.7
          units: km
    - name: Chumuckla
      region: FL
      lat: '30.7826'
      long: "-87.2309"
      closest_rate_centers:
      - name: Molino
        distance:
          value: 10.49
          units: km
      - name: Century
        distance:
          value: 20.68
          units: km
      - name: Jay
        distance:
          value: 20.78
          units: km
    - name: Cinco Bayou
      region: FL
      lat: '30.4222'
      long: "-86.6096"
      closest_rate_centers:
      - name: Fort Walton Beach
        distance:
          value: 1.41
          units: km
      - name: Shalimar
        distance:
          value: 2.92
          units: km
      - name: Destin
        distance:
          value: 10.54
          units: km
    - name: Citrus Hills
      region: FL
      lat: '28.8870'
      long: "-82.4312"
      closest_rate_centers:
      - name: Beverly Hills
        distance:
          value: 5.03
          units: km
      - name: Inverness
        distance:
          value: 10.71
          units: km
      - name: Crystal River
        distance:
          value: 15.09
          units: km
    - name: Citrus Park
      region: FL
      lat: '28.0730'
      long: "-82.5628"
      closest_rate_centers:
      - name: Tampa West
        distance:
          value: 5.57
          units: km
      - name: Tampa Central
        distance:
          value: 17.18
          units: km
      - name: Tarpon Springs
        distance:
          value: 20.12
          units: km
    - name: Citrus Springs
      region: FL
      lat: '28.9931'
      long: "-82.4594"
      closest_rate_centers:
      - name: Dunnellon
        distance:
          value: 6.11
          units: km
      - name: Beverly Hills
        distance:
          value: 7.26
          units: km
      - name: Crystal River
        distance:
          value: 15.98
          units: km
    - name: Clarcona
      region: FL
      lat: '28.6268'
      long: "-81.4979"
      closest_rate_centers:
      - name: Apopka
        distance:
          value: 6.36
          units: km
      - name: Winter Garden
        distance:
          value: 10.7
          units: km
      - name: Winter Park
        distance:
          value: 14.56
          units: km
    - name: Clearwater
      region: FL
      lat: '27.9790'
      long: "-82.7623"
      closest_rate_centers:
      - name: Clearwater
        distance:
          value: 3.9
          units: km
      - name: Tarpon Springs
        distance:
          value: 18.31
          units: km
      - name: Tampa West
        distance:
          value: 21.79
          units: km
    - name: Clermont
      region: FL
      lat: '28.5325'
      long: "-81.7208"
      closest_rate_centers:
      - name: Clermont
        distance:
          value: 5.29
          units: km
      - name: Montverde
        distance:
          value: 9.24
          units: km
      - name: Groveland
        distance:
          value: 13.63
          units: km
    - name: Cleveland
      region: FL
      lat: '26.9529'
      long: "-81.9925"
      closest_rate_centers:
      - name: Punta Gorda
        distance:
          value: 6.14
          units: km
      - name: Port Charlotte
        distance:
          value: 12.27
          units: km
      - name: North Port
        distance:
          value: 26.75
          units: km
    - name: Clewiston
      region: FL
      lat: '26.7529'
      long: "-80.9399"
      closest_rate_centers:
      - name: Clewiston
        distance:
          value: 2.61
          units: km
      - name: Moore Haven
        distance:
          value: 17.5
          units: km
      - name: Belle Glade
        distance:
          value: 27.67
          units: km
    - name: Cloud Lake
      region: FL
      lat: '26.6743'
      long: "-80.0731"
      closest_rate_centers:
      - name: West Palm Beach
        distance:
          value: 2.37
          units: km
      - name: Boynton Beach
        distance:
          value: 16.78
          units: km
      - name: Delray Beach
        distance:
          value: 23.98
          units: km
    - name: Cobbtown
      region: FL
      lat: '30.8823'
      long: "-87.1212"
      closest_rate_centers:
      - name: Jay
        distance:
          value: 8.64
          units: km
      - name: Century
        distance:
          value: 16.52
          units: km
      - name: Munson
        distance:
          value: 23.64
          units: km
    - name: Cocoa
      region: FL
      lat: '28.3820'
      long: "-80.7675"
      closest_rate_centers:
      - name: Cocoa
        distance:
          value: 5.47
          units: km
      - name: Cocoa Beach
        distance:
          value: 17.16
          units: km
      - name: Titusville
        distance:
          value: 26.34
          units: km
    - name: Cocoa Beach
      region: FL
      lat: '28.3327'
      long: "-80.6274"
      closest_rate_centers:
      - name: Cocoa Beach
        distance:
          value: 2.56
          units: km
      - name: Cocoa
        distance:
          value: 9.87
          units: km
      - name: Eau Gallie
        distance:
          value: 23.0
          units: km
    - name: Cocoa West
      region: FL
      lat: '28.3591'
      long: "-80.7713"
      closest_rate_centers:
      - name: Cocoa
        distance:
          value: 4.53
          units: km
      - name: Cocoa Beach
        distance:
          value: 16.6
          units: km
      - name: Titusville
        distance:
          value: 28.81
          units: km
    - name: Coconut Creek
      region: FL
      lat: '26.2803'
      long: "-80.1842"
      closest_rate_centers:
      - name: Coral Springs
        distance:
          value: 7.15
          units: km
      - name: Deerfield Beach
        distance:
          value: 8.35
          units: km
      - name: Pompano Beach
        distance:
          value: 8.37
          units: km
    - name: Coleman
      region: FL
      lat: '28.8028'
      long: "-82.0707"
      closest_rate_centers:
      - name: Wildwood
        distance:
          value: 8.17
          units: km
      - name: Bushnell
        distance:
          value: 15.49
          units: km
      - name: Leesburg
        distance:
          value: 19.15
          units: km
    - name: Combee Settlement
      region: FL
      lat: '28.0597'
      long: "-81.9051"
      closest_rate_centers:
      - name: Lakeland
        distance:
          value: 5.41
          units: km
      - name: Polk City
        distance:
          value: 15.37
          units: km
      - name: Winter Haven
        distance:
          value: 17.8
          units: km
    - name: Connerton
      region: FL
      lat: '28.3022'
      long: "-82.4624"
      closest_rate_centers:
      - name: Tampa North
        distance:
          value: 5.04
          units: km
      - name: San Antonio
        distance:
          value: 18.74
          units: km
      - name: Hudson
        distance:
          value: 23.06
          units: km
    - name: Conway
      region: FL
      lat: '28.4968'
      long: "-81.3316"
      closest_rate_centers:
      - name: Orlando
        distance:
          value: 6.34
          units: km
      - name: Winter Park
        distance:
          value: 11.55
          units: km
      - name: Windermere
        distance:
          value: 19.8
          units: km
    - name: Cooper City
      region: FL
      lat: '26.0463'
      long: "-80.2862"
      closest_rate_centers:
      - name: Hollywood
        distance:
          value: 14.35
          units: km
      - name: Fort Lauderdale
        distance:
          value: 16.37
          units: km
      - name: North Dade
        distance:
          value: 18.8
          units: km
    - name: Coral Gables
      region: FL
      lat: '25.7037'
      long: "-80.2715"
      closest_rate_centers:
      - name: Miami
        distance:
          value: 11.33
          units: km
      - name: Perrine
        distance:
          value: 13.81
          units: km
      - name: North Dade
        distance:
          value: 26.84
          units: km
    - name: Coral Springs
      region: FL
      lat: '26.2702'
      long: "-80.2591"
      closest_rate_centers:
      - name: Coral Springs
        distance:
          value: 1.59
          units: km
      - name: Pompano Beach
        distance:
          value: 14.55
          units: km
      - name: Deerfield Beach
        distance:
          value: 15.74
          units: km
    - name: Coral Terrace
      region: FL
      lat: '25.7464'
      long: "-80.3049"
      closest_rate_centers:
      - name: Miami
        distance:
          value: 11.9
          units: km
      - name: Perrine
        distance:
          value: 16.69
          units: km
      - name: North Dade
        distance:
          value: 24.47
          units: km
    - name: Cortez
      region: FL
      lat: '27.4668'
      long: "-82.6688"
      closest_rate_centers:
      - name: Bradenton
        distance:
          value: 10.28
          units: km
      - name: Palmetto
        distance:
          value: 10.94
          units: km
      - name: Sarasota
        distance:
          value: 19.38
          units: km
    - name: Cottondale
      region: FL
      lat: '30.7891'
      long: "-85.3644"
      closest_rate_centers:
      - name: Cottondale
        distance:
          value: 2.34
          units: km
      - name: Alford
        distance:
          value: 10.41
          units: km
      - name: Marianna
        distance:
          value: 12.83
          units: km
    - name: Country Club
      region: FL
      lat: '25.9407'
      long: "-80.3102"
      closest_rate_centers:
      - name: North Dade
        distance:
          value: 15.34
          units: km
      - name: Hollywood
        distance:
          value: 17.78
          units: km
      - name: Miami
        distance:
          value: 22.02
          units: km
    - name: Country Walk
      region: FL
      lat: '25.6330'
      long: "-80.4353"
      closest_rate_centers:
      - name: Perrine
        distance:
          value: 9.16
          units: km
      - name: Homestead
        distance:
          value: 18.96
          units: km
      - name: Miami
        distance:
          value: 29.16
          units: km
    - name: Crawfordville
      region: FL
      lat: '30.1996'
      long: "-84.3634"
      closest_rate_centers:
      - name: Crawfordville
        distance:
          value: 2.98
          units: km
      - name: St Marks
        distance:
          value: 16.55
          units: km
      - name: Panacea
        distance:
          value: 18.69
          units: km
    - name: Crescent Beach
      region: FL
      lat: '29.7355'
      long: "-81.2413"
      closest_rate_centers:
      - name: Palm Coast
        distance:
          value: 18.26
          units: km
      - name: St Augustine
        distance:
          value: 19.61
          units: km
      - name: Hastings
        distance:
          value: 25.74
          units: km
    - name: Crescent City
      region: FL
      lat: '29.4374'
      long: "-81.5173"
      closest_rate_centers:
      - name: Crescent City
        distance:
          value: 0.9
          units: km
      - name: Pomona Park
        distance:
          value: 9.93
          units: km
      - name: Welaka
        distance:
          value: 15.26
          units: km
    - name: Crestview
      region: FL
      lat: '30.7477'
      long: "-86.5785"
      closest_rate_centers:
      - name: Crestview
        distance:
          value: 1.36
          units: km
      - name: Baker
        distance:
          value: 11.68
          units: km
      - name: Laurelhill
        distance:
          value: 26.38
          units: km
    - name: Crooked Lake Park
      region: FL
      lat: '27.8293'
      long: "-81.5897"
      closest_rate_centers:
      - name: Lake Wales
        distance:
          value: 8.55
          units: km
      - name: Frostproof
        distance:
          value: 11.14
          units: km
      - name: Fort Meade
        distance:
          value: 21.73
          units: km
    - name: Cross City
      region: FL
      lat: '29.6386'
      long: "-83.1248"
      closest_rate_centers:
      - name: Cross City
        distance:
          value: 0.57
          units: km
      - name: Old Town
        distance:
          value: 15.04
          units: km
      - name: Trenton
        distance:
          value: 29.62
          units: km
    - name: Crystal Lake
      region: FL
      lat: '28.0371'
      long: "-81.9064"
      closest_rate_centers:
      - name: Lakeland
        distance:
          value: 4.34
          units: km
      - name: Mulberry
        distance:
          value: 16.19
          units: km
      - name: Bradley
        distance:
          value: 16.19
          units: km
      - name: Polk City
        distance:
          value: 17.67
          units: km
    - name: Crystal River
      region: FL
      lat: '28.8964'
      long: "-82.5991"
      closest_rate_centers:
      - name: Crystal River
        distance:
          value: 1.43
          units: km
      - name: Homosassa Springs
        distance:
          value: 11.14
          units: km
      - name: Beverly Hills
        distance:
          value: 14.64
          units: km
    - name: Crystal Springs
      region: FL
      lat: '28.1830'
      long: "-82.1539"
      closest_rate_centers:
      - name: Zephyrhills
        distance:
          value: 6.44
          units: km
      - name: Plant City
        distance:
          value: 18.49
          units: km
      - name: Dade City
        distance:
          value: 20.84
          units: km
    - name: Cudjoe Key
      region: FL
      lat: '24.6745'
      long: "-81.4986"
      closest_rate_centers:
      - name: Sugarloaf Key
        distance:
          value: 7.59
          units: km
      - name: Big Pine
        distance:
          value: 15.02
          units: km
      - name: Key West
        distance:
          value: 32.37
          units: km
    - name: Cutler Bay
      region: FL
      lat: '25.5765'
      long: "-80.3356"
      closest_rate_centers:
      - name: Perrine
        distance:
          value: 3.21
          units: km
      - name: Homestead
        distance:
          value: 19.2
          units: km
      - name: Miami
        distance:
          value: 26.41
          units: km
    - name: Cypress Gardens
      region: FL
      lat: '28.0036'
      long: "-81.6857"
      closest_rate_centers:
      - name: Winter Haven
        distance:
          value: 5.29
          units: km
      - name: Haines City
        distance:
          value: 13.68
          units: km
      - name: Poinciana
        distance:
          value: 13.68
          units: km
      - name: Lake Wales
        distance:
          value: 14.84
          units: km
    - name: Cypress Lake
      region: FL
      lat: '26.5392'
      long: "-81.8999"
      closest_rate_centers:
      - name: Cape Coral
        distance:
          value: 3.91
          units: km
      - name: Fort Myers Beach
        distance:
          value: 11.34
          units: km
      - name: North Cape Coral
        distance:
          value: 11.48
          units: km
    - name: Cypress Quarters
      region: FL
      lat: '27.2479'
      long: "-80.8115"
      closest_rate_centers:
      - name: Okeechobee
        distance:
          value: 1.44
          units: km
      - name: Indiantown
        distance:
          value: 42.03
          units: km
      - name: Pahokee
        distance:
          value: 49.89
          units: km
    - name: Dade City
      region: FL
      lat: '28.3565'
      long: "-82.1942"
      closest_rate_centers:
      - name: Dade City
        distance:
          value: 1.19
          units: km
      - name: San Antonio
        distance:
          value: 8.26
          units: km
      - name: Trillacoochee
        distance:
          value: 11.94
          units: km
    - name: Dade City North
      region: FL
      lat: '28.3839'
      long: "-82.1943"
      closest_rate_centers:
      - name: Dade City
        distance:
          value: 1.86
          units: km
      - name: Trillacoochee
        distance:
          value: 8.91
          units: km
      - name: San Antonio
        distance:
          value: 9.12
          units: km
    - name: Dania Beach
      region: FL
      lat: '26.0593'
      long: "-80.1637"
      closest_rate_centers:
      - name: Hollywood
        distance:
          value: 5.87
          units: km
      - name: Fort Lauderdale
        distance:
          value: 6.75
          units: km
      - name: North Dade
        distance:
          value: 15.23
          units: km
    - name: Davenport
      region: FL
      lat: '28.1587'
      long: "-81.6083"
      closest_rate_centers:
      - name: Haines City
        distance:
          value: 5.44
          units: km
      - name: Poinciana
        distance:
          value: 5.44
          units: km
      - name: Winter Haven
        distance:
          value: 17.92
          units: km
      - name: Celebration
        distance:
          value: 20.45
          units: km
    - name: Davie
      region: FL
      lat: '26.0789'
      long: "-80.2870"
      closest_rate_centers:
      - name: Fort Lauderdale
        distance:
          value: 15.04
          units: km
      - name: Hollywood
        distance:
          value: 15.87
          units: km
      - name: Coral Springs
        distance:
          value: 20.2
          units: km
    - name: Day
      region: FL
      lat: '30.1950'
      long: "-83.2909"
      closest_rate_centers:
      - name: Dowling Park
        distance:
          value: 8.29
          units: km
      - name: Luraville
        distance:
          value: 16.04
          units: km
      - name: Mayo
        distance:
          value: 19.61
          units: km
    - name: Daytona Beach
      region: FL
      lat: '29.1995'
      long: "-81.0982"
      closest_rate_centers:
      - name: Daytona Beach
        distance:
          value: 7.09
          units: km
      - name: New Smyrna Beach
        distance:
          value: 25.74
          units: km
      - name: DeLand
        distance:
          value: 26.51
          units: km
    - name: Daytona Beach Shores
      region: FL
      lat: '29.1696'
      long: "-80.9796"
      closest_rate_centers:
      - name: Daytona Beach
        distance:
          value: 8.75
          units: km
      - name: New Smyrna Beach
        distance:
          value: 17.06
          units: km
      - name: DeLand
        distance:
          value: 34.02
          units: km
    - name: De Leon Springs
      region: FL
      lat: '29.1172'
      long: "-81.3517"
      closest_rate_centers:
      - name: DeLeon Springs
        distance:
          value: 0.67
          units: km
      - name: DeLand
        distance:
          value: 11.1
          units: km
      - name: Pierson
        distance:
          value: 17.07
          units: km
    - name: DeBary
      region: FL
      lat: '28.8815'
      long: "-81.3240"
      closest_rate_centers:
      - name: DeBary
        distance:
          value: 2.41
          units: km
      - name: Orange City
        distance:
          value: 8.39
          units: km
      - name: Sanford
        distance:
          value: 10.11
          units: km
    - name: DeFuniak Springs
      region: FL
      lat: '30.7123'
      long: "-86.1208"
      closest_rate_centers:
      - name: DeFuniak Springs
        distance:
          value: 0.76
          units: km
      - name: Glendale
        distance:
          value: 16.35
          units: km
      - name: Ponce de Leon
        distance:
          value: 17.84
          units: km
    - name: DeLand
      region: FL
      lat: '29.0225'
      long: "-81.2875"
      closest_rate_centers:
      - name: DeLand
        distance:
          value: 1.15
          units: km
      - name: Orange City
        distance:
          value: 7.91
          units: km
      - name: DeLeon Springs
        distance:
          value: 12.37
          units: km
    - name: DeLand Southwest
      region: FL
      lat: '29.0078'
      long: "-81.3113"
      closest_rate_centers:
      - name: DeLand
        distance:
          value: 3.25
          units: km
      - name: Orange City
        distance:
          value: 6.55
          units: km
      - name: DeLeon Springs
        distance:
          value: 12.76
          units: km
    - name: Deerfield Beach
      region: FL
      lat: '26.3050'
      long: "-80.1277"
      closest_rate_centers:
      - name: Deerfield Beach
        distance:
          value: 2.08
          units: km
      - name: Boca Raton
        distance:
          value: 6.26
          units: km
      - name: Pompano Beach
        distance:
          value: 8.1
          units: km
    - name: Delray Beach
      region: FL
      lat: '26.4550'
      long: "-80.0905"
      closest_rate_centers:
      - name: Delray Beach
        distance:
          value: 2.64
          units: km
      - name: Boynton Beach
        distance:
          value: 8.39
          units: km
      - name: Boca Raton
        distance:
          value: 11.73
          units: km
    - name: Deltona
      region: FL
      lat: '28.9050'
      long: "-81.2137"
      closest_rate_centers:
      - name: DeBary
        distance:
          value: 9.02
          units: km
      - name: Orange City
        distance:
          value: 9.19
          units: km
      - name: Sanford
        distance:
          value: 11.34
          units: km
    - name: Desoto Acres
      region: FL
      lat: '27.3823'
      long: "-82.5167"
      closest_rate_centers:
      - name: Sarasota
        distance:
          value: 4.96
          units: km
      - name: Bradenton
        distance:
          value: 13.11
          units: km
      - name: Palmetto
        distance:
          value: 15.59
          units: km
    - name: Desoto Lakes
      region: FL
      lat: '27.3781'
      long: "-82.4951"
      closest_rate_centers:
      - name: Sarasota
        distance:
          value: 5.68
          units: km
      - name: Bradenton
        distance:
          value: 14.47
          units: km
      - name: Palmetto
        distance:
          value: 16.86
          units: km
    - name: Destin
      region: FL
      lat: '30.3950'
      long: "-86.4701"
      closest_rate_centers:
      - name: Destin
        distance:
          value: 3.4
          units: km
      - name: Valparaiso
        distance:
          value: 12.46
          units: km
      - name: Shalimar
        distance:
          value: 12.59
          units: km
    - name: Dickerson City
      region: FL
      lat: '30.4827'
      long: "-87.0651"
      closest_rate_centers:
      - name: Pace
        distance:
          value: 15.29
          units: km
      - name: Holley-Navarre
        distance:
          value: 16.04
          units: km
      - name: Pensacola
        distance:
          value: 16.06
          units: km
    - name: Dixonville
      region: FL
      lat: '30.9865'
      long: "-87.0416"
      closest_rate_centers:
      - name: Jay
        distance:
          value: 10.87
          units: km
      - name: Century
        distance:
          value: 21.32
          units: km
      - name: Munson
        distance:
          value: 21.79
          units: km
    - name: Doctor Phillips
      region: FL
      lat: '28.4474'
      long: "-81.4914"
      closest_rate_centers:
      - name: Windermere
        distance:
          value: 7.06
          units: km
      - name: Lake Buena Vista
        distance:
          value: 7.45
          units: km
      - name: West Kissimmee
        distance:
          value: 11.17
          units: km
    - name: Doral
      region: FL
      lat: '25.8152'
      long: "-80.3565"
      closest_rate_centers:
      - name: Miami
        distance:
          value: 17.24
          units: km
      - name: North Dade
        distance:
          value: 23.15
          units: km
      - name: Perrine
        distance:
          value: 23.71
          units: km
    - name: Dover
      region: FL
      lat: '27.9927'
      long: "-82.2198"
      closest_rate_centers:
      - name: Tampa East
        distance:
          value: 5.67
          units: km
      - name: Plant City
        distance:
          value: 9.58
          units: km
      - name: Tampa Central
        distance:
          value: 24.01
          units: km
    - name: Duck Key
      region: FL
      lat: '24.7710'
      long: "-80.9132"
      closest_rate_centers:
      - name: Marathon
        distance:
          value: 18.64
          units: km
      - name: Keys
        distance:
          value: 18.64
          units: km
      - name: Islamorada
        distance:
          value: 31.05
          units: km
      - name: Big Pine
        distance:
          value: 45.44
          units: km
    - name: Dundee
      region: FL
      lat: '28.0115'
      long: "-81.5995"
      closest_rate_centers:
      - name: Haines City
        distance:
          value: 11.11
          units: km
      - name: Poinciana
        distance:
          value: 11.11
          units: km
      - name: Lake Wales
        distance:
          value: 11.86
          units: km
      - name: Winter Haven
        distance:
          value: 12.68
          units: km
    - name: Dunedin
      region: FL
      lat: '28.0329'
      long: "-82.7862"
      closest_rate_centers:
      - name: Clearwater
        distance:
          value: 7.48
          units: km
      - name: Tarpon Springs
        distance:
          value: 12.74
          units: km
      - name: Tampa West
        distance:
          value: 20.36
          units: km
    - name: Dunnellon
      region: FL
      lat: '29.0572'
      long: "-82.4289"
      closest_rate_centers:
      - name: Dunnellon
        distance:
          value: 3.1
          units: km
      - name: Beverly Hills
        distance:
          value: 14.56
          units: km
      - name: Crystal River
        distance:
          value: 23.1
          units: km
    - name: Eagle Lake
      region: FL
      lat: '27.9760'
      long: "-81.7573"
      closest_rate_centers:
      - name: Winter Haven
        distance:
          value: 7.29
          units: km
      - name: Bartow
        distance:
          value: 12.13
          units: km
      - name: Lake Wales
        distance:
          value: 18.83
          units: km
    - name: East Bronson
      region: FL
      lat: '29.4593'
      long: "-82.5905"
      closest_rate_centers:
      - name: Bronson
        distance:
          value: 4.04
          units: km
      - name: Archer
        distance:
          value: 10.2
          units: km
      - name: Williston
        distance:
          value: 15.47
          units: km
    - name: East Lake
      region: FL
      lat: '28.1206'
      long: "-82.6868"
      closest_rate_centers:
      - name: Tarpon Springs
        distance:
          value: 6.86
          units: km
      - name: Tampa West
        distance:
          value: 8.68
          units: km
      - name: New Port Richey
        distance:
          value: 13.62
          units: km
      - name: Seven Springs
        distance:
          value: 13.62
          units: km
    - name: East Lake-Orient Park
      region: FL
      lat: '27.9970'
      long: "-82.3653"
      closest_rate_centers:
      - name: Tampa East
        distance:
          value: 10.11
          units: km
      - name: Tampa Central
        distance:
          value: 10.67
          units: km
      - name: Plant City
        distance:
          value: 23.55
          units: km
    - name: East Milton
      region: FL
      lat: '30.6175'
      long: "-86.9636"
      closest_rate_centers:
      - name: Milton
        distance:
          value: 6.48
          units: km
      - name: Pace
        distance:
          value: 17.69
          units: km
      - name: Holley-Navarre
        distance:
          value: 19.44
          units: km
    - name: East Palatka
      region: FL
      lat: '29.6502'
      long: "-81.5997"
      closest_rate_centers:
      - name: Palatka
        distance:
          value: 4.16
          units: km
      - name: Hastings
        distance:
          value: 11.66
          units: km
      - name: Pomona Park
        distance:
          value: 17.5
          units: km
    - name: East Williston
      region: FL
      lat: '29.3883'
      long: "-82.4165"
      closest_rate_centers:
      - name: Williston
        distance:
          value: 3.26
          units: km
      - name: Archer
        distance:
          value: 17.87
          units: km
      - name: Micanopy
        distance:
          value: 18.73
          units: km
    - name: Eastpoint
      region: FL
      lat: '29.7543'
      long: "-84.8695"
      closest_rate_centers:
      - name: Eastpoint
        distance:
          value: 3.17
          units: km
      - name: Apalachicola
        distance:
          value: 12.29
          units: km
      - name: Carrabelle
        distance:
          value: 22.24
          units: km
    - name: Eatonville
      region: FL
      lat: '28.6167'
      long: "-81.3906"
      closest_rate_centers:
      - name: Winter Park
        distance:
          value: 4.23
          units: km
      - name: Orlando
        distance:
          value: 8.62
          units: km
      - name: Apopka
        distance:
          value: 13.15
          units: km
    - name: Ebro
      region: FL
      lat: '30.4369'
      long: "-85.8791"
      closest_rate_centers:
      - name: Freeport
        distance:
          value: 25.36
          units: km
      - name: Vernon
        distance:
          value: 25.43
          units: km
      - name: Seagrove Beach
        distance:
          value: 26.73
          units: km
    - name: Edgewater
      region: FL
      lat: '28.9594'
      long: "-80.9406"
      closest_rate_centers:
      - name: New Smyrna Beach
        distance:
          value: 7.25
          units: km
      - name: Oak Hill
        distance:
          value: 15.17
          units: km
      - name: Geneva
        distance:
          value: 29.74
          units: km
    - name: Edgewood
      region: FL
      lat: '28.4879'
      long: "-81.3771"
      closest_rate_centers:
      - name: Orlando
        distance:
          value: 5.89
          units: km
      - name: Winter Park
        distance:
          value: 12.6
          units: km
      - name: Windermere
        distance:
          value: 15.39
          units: km
    - name: Eglin AFB
      region: FL
      lat: '30.4592'
      long: "-86.5499"
      closest_rate_centers:
      - name: Shalimar
        distance:
          value: 4.26
          units: km
      - name: Destin
        distance:
          value: 7.17
          units: km
      - name: Fort Walton Beach
        distance:
          value: 7.32
          units: km
    - name: Egypt Lake-Leto
      region: FL
      lat: '28.0177'
      long: "-82.5062"
      closest_rate_centers:
      - name: Tampa Central
        distance:
          value: 8.98
          units: km
      - name: Tampa West
        distance:
          value: 13.85
          units: km
      - name: Tampa East
        distance:
          value: 24.03
          units: km
    - name: El Portal
      region: FL
      lat: '25.8556'
      long: "-80.1954"
      closest_rate_centers:
      - name: North Dade
        distance:
          value: 8.31
          units: km
      - name: Miami
        distance:
          value: 9.02
          units: km
      - name: Hollywood
        distance:
          value: 17.6
          units: km
    - name: Elfers
      region: FL
      lat: '28.2140'
      long: "-82.7230"
      closest_rate_centers:
      - name: New Port Richey
        distance:
          value: 3.5
          units: km
      - name: Seven Springs
        distance:
          value: 3.5
          units: km
      - name: Tarpon Springs
        distance:
          value: 8.34
          units: km
      - name: Tampa West
        distance:
          value: 16.66
          units: km
    - name: Ellenton
      region: FL
      lat: '27.5269'
      long: "-82.5258"
      closest_rate_centers:
      - name: Palmetto
        distance:
          value: 4.72
          units: km
      - name: Bradenton
        distance:
          value: 5.78
          units: km
      - name: Sarasota
        distance:
          value: 20.76
          units: km
    - name: Englewood
      region: FL
      lat: '26.9717'
      long: "-82.3524"
      closest_rate_centers:
      - name: Englewood
        distance:
          value: 1.81
          units: km
      - name: North Port
        distance:
          value: 13.96
          units: km
      - name: Cape Haze
        distance:
          value: 14.09
          units: km
    - name: Ensley
      region: FL
      lat: '30.5259'
      long: "-87.2733"
      closest_rate_centers:
      - name: Cantonment
        distance:
          value: 10.27
          units: km
      - name: Pensacola
        distance:
          value: 13.26
          units: km
      - name: Pace
        distance:
          value: 14.63
          units: km
    - name: Estero
      region: FL
      lat: '26.4276'
      long: "-81.7951"
      closest_rate_centers:
      - name: Bonita Springs
        distance:
          value: 10.74
          units: km
      - name: Fort Myers Beach
        distance:
          value: 15.63
          units: km
      - name: North Naples
        distance:
          value: 18.1
          units: km
    - name: Esto
      region: FL
      lat: '30.9819'
      long: "-85.6429"
      closest_rate_centers:
      - name: Graceville
        distance:
          value: 12.34
          units: km
      - name: Bonifay
        distance:
          value: 21.63
          units: km
      - name: Chipley
        distance:
          value: 24.35
          units: km
    - name: Eustis
      region: FL
      lat: '28.8563'
      long: "-81.6771"
      closest_rate_centers:
      - name: Eustis
        distance:
          value: 0.07
          units: km
      - name: Tavares
        distance:
          value: 7.19
          units: km
      - name: Mount Dora
        distance:
          value: 7.41
          units: km
    - name: Everglades
      region: FL
      lat: '25.8580'
      long: "-81.3862"
      closest_rate_centers:
      - name: Everglades
        distance:
          value: 0.39
          units: km
      - name: Marco Island
        distance:
          value: 35.04
          units: km
      - name: Naples
        distance:
          value: 51.9
          units: km
    - name: Fairview Shores
      region: FL
      lat: '28.6021'
      long: "-81.3958"
      closest_rate_centers:
      - name: Winter Park
        distance:
          value: 4.27
          units: km
      - name: Orlando
        distance:
          value: 7.18
          units: km
      - name: Apopka
        distance:
          value: 13.75
          units: km
    - name: Fanning Springs
      region: FL
      lat: '29.5873'
      long: "-82.9245"
      closest_rate_centers:
      - name: Old Town
        distance:
          value: 5.14
          units: km
      - name: Trenton
        distance:
          value: 10.66
          units: km
      - name: Chiefland
        distance:
          value: 13.48
          units: km
    - name: Feather Sound
      region: FL
      lat: '27.9061'
      long: "-82.6813"
      closest_rate_centers:
      - name: Clearwater
        distance:
          value: 13.42
          units: km
      - name: St Petersburg
        distance:
          value: 15.18
          units: km
      - name: Tampa Central
        distance:
          value: 22.34
          units: km
    - name: Fellsmere
      region: FL
      lat: '27.7241'
      long: "-80.5974"
      closest_rate_centers:
      - name: Sebastian
        distance:
          value: 16.37
          units: km
      - name: Vero Beach
        distance:
          value: 21.54
          units: km
      - name: Melbourne
        distance:
          value: 39.77
          units: km
    - name: Fern Park
      region: FL
      lat: '28.6485'
      long: "-81.3458"
      closest_rate_centers:
      - name: Winter Park
        distance:
          value: 5.53
          units: km
      - name: Orlando
        distance:
          value: 12.27
          units: km
      - name: Oviedo
        distance:
          value: 14.56
          units: km
    - name: Fernandina Beach
      region: FL
      lat: '30.6571'
      long: "-81.4511"
      closest_rate_centers:
      - name: Fernandina Beach
        distance:
          value: 1.04
          units: km
      - name: Yulee
        distance:
          value: 14.75
          units: km
      - name: Callahan
        distance:
          value: 38.38
          units: km
    - name: Ferndale
      region: FL
      lat: '28.6220'
      long: "-81.7014"
      closest_rate_centers:
      - name: Montverde
        distance:
          value: 3.7
          units: km
      - name: Clermont
        distance:
          value: 9.57
          units: km
      - name: Howey-in-the-Hills
        distance:
          value: 11.97
          units: km
    - name: Ferry Pass
      region: FL
      lat: '30.5205'
      long: "-87.1899"
      closest_rate_centers:
      - name: Pace
        distance:
          value: 9.78
          units: km
      - name: Pensacola
        distance:
          value: 11.66
          units: km
      - name: Cantonment
        distance:
          value: 16.0
          units: km
    - name: Fidelis
      region: FL
      lat: '30.9343'
      long: "-87.0245"
      closest_rate_centers:
      - name: Jay
        distance:
          value: 12.2
          units: km
      - name: Munson
        distance:
          value: 16.9
          units: km
      - name: Century
        distance:
          value: 23.11
          units: km
    - name: Fish Hawk
      region: FL
      lat: '27.8511'
      long: "-82.2164"
      closest_rate_centers:
      - name: Tampa East
        distance:
          value: 13.73
          units: km
      - name: Tampa South
        distance:
          value: 19.24
          units: km
      - name: Plant City
        distance:
          value: 20.59
          units: km
    - name: Fisher Island
      region: FL
      lat: '25.7607'
      long: "-80.1416"
      closest_rate_centers:
      - name: Miami
        distance:
          value: 5.12
          units: km
      - name: North Dade
        distance:
          value: 18.06
          units: km
      - name: Perrine
        distance:
          value: 27.38
          units: km
    - name: Five Points
      region: FL
      lat: '30.2225'
      long: "-82.6465"
      closest_rate_centers:
      - name: Lake City
        distance:
          value: 3.66
          units: km
      - name: Wellborn
        distance:
          value: 16.35
          units: km
      - name: White Springs
        distance:
          value: 16.56
          units: km
    - name: Flagler Beach
      region: FL
      lat: '29.4716'
      long: "-81.1303"
      closest_rate_centers:
      - name: Flagler Beach
        distance:
          value: 0.85
          units: km
      - name: Bunnell
        distance:
          value: 12.65
          units: km
      - name: Palm Coast
        distance:
          value: 13.55
          units: km
    - name: Flagler Estates
      region: FL
      lat: '29.6441'
      long: "-81.4571"
      closest_rate_centers:
      - name: Hastings
        distance:
          value: 9.48
          units: km
      - name: Palatka
        distance:
          value: 17.9
          units: km
      - name: Pomona Park
        distance:
          value: 21.63
          units: km
    - name: Fleming Island
      region: FL
      lat: '30.0988'
      long: "-81.7124"
      closest_rate_centers:
      - name: Orange Park
        distance:
          value: 7.57
          units: km
      - name: Julington
        distance:
          value: 8.36
          units: km
      - name: Green Cove Springs
        distance:
          value: 12.24
          units: km
    - name: Floral City
      region: FL
      lat: '28.7065'
      long: "-82.3090"
      closest_rate_centers:
      - name: Inverness
        distance:
          value: 14.33
          units: km
      - name: Brooksville
        distance:
          value: 18.16
          units: km
      - name: Bushnell
        distance:
          value: 20.35
          units: km
    - name: Florida City
      region: FL
      lat: '25.4418'
      long: "-80.4685"
      closest_rate_centers:
      - name: Homestead
        distance:
          value: 3.38
          units: km
      - name: Perrine
        distance:
          value: 21.39
          units: km
      - name: North Key Largo
        distance:
          value: 23.2
          units: km
    - name: Florida Gulf Coast University
      region: FL
      lat: '26.4613'
      long: "-81.7686"
      closest_rate_centers:
      - name: Bonita Springs
        distance:
          value: 14.49
          units: km
      - name: Fort Myers Beach
        distance:
          value: 18.16
          units: km
      - name: Cape Coral
        distance:
          value: 19.57
          units: km
    - name: Florida Ridge
      region: FL
      lat: '27.5805'
      long: "-80.3848"
      closest_rate_centers:
      - name: Vero Beach
        distance:
          value: 6.82
          units: km
      - name: Fort Pierce
        distance:
          value: 16.06
          units: km
      - name: Sebastian
        distance:
          value: 27.54
          units: km
    - name: Floridatown
      region: FL
      lat: '30.5828'
      long: "-87.1613"
      closest_rate_centers:
      - name: Pace
        distance:
          value: 2.38
          units: km
      - name: Milton
        distance:
          value: 13.35
          units: km
      - name: Cantonment
        distance:
          value: 15.7
          units: km
    - name: Forest City
      region: FL
      lat: '28.6619'
      long: "-81.4444"
      closest_rate_centers:
      - name: Apopka
        distance:
          value: 6.08
          units: km
      - name: Winter Park
        distance:
          value: 11.4
          units: km
      - name: Orlando
        distance:
          value: 15.17
          units: km
    - name: Fort Braden
      region: FL
      lat: '30.4308'
      long: "-84.5346"
      closest_rate_centers:
      - name: Quincy
        distance:
          value: 17.42
          units: km
      - name: Havana
        distance:
          value: 23.6
          units: km
      - name: Gretna
        distance:
          value: 23.61
          units: km
    - name: Fort Denaud
      region: FL
      lat: '26.7404'
      long: "-81.5241"
      closest_rate_centers:
      - name: LaBelle
        distance:
          value: 8.45
          units: km
      - name: Lehigh Acres
        distance:
          value: 18.93
          units: km
      - name: Fort Myers
        distance:
          value: 34.75
          units: km
    - name: Fort Green
      region: FL
      lat: '27.6255'
      long: "-81.9397"
      closest_rate_centers:
      - name: Bowling Green
        distance:
          value: 12.14
          units: km
      - name: Wauchula
        distance:
          value: 15.31
          units: km
      - name: Zolfo Springs
        distance:
          value: 19.94
          units: km
    - name: Fort Green Springs
      region: FL
      lat: '27.5876'
      long: "-81.9402"
      closest_rate_centers:
      - name: Bowling Green
        distance:
          value: 13.1
          units: km
      - name: Wauchula
        distance:
          value: 13.59
          units: km
      - name: Zolfo Springs
        distance:
          value: 17.35
          units: km
    - name: Fort Lauderdale
      region: FL
      lat: '26.1412'
      long: "-80.1464"
      closest_rate_centers:
      - name: Fort Lauderdale
        distance:
          value: 2.73
          units: km
      - name: Pompano Beach
        distance:
          value: 10.5
          units: km
      - name: Hollywood
        distance:
          value: 14.79
          units: km
    - name: Fort Meade
      region: FL
      lat: '27.7645'
      long: "-81.8058"
      closest_rate_centers:
      - name: Fort Meade
        distance:
          value: 2.01
          units: km
      - name: Bartow
        distance:
          value: 14.2
          units: km
      - name: Bowling Green
        distance:
          value: 14.88
          units: km
    - name: Fort Myers
      region: FL
      lat: '26.6194'
      long: "-81.8302"
      closest_rate_centers:
      - name: Fort Myers
        distance:
          value: 3.56
          units: km
      - name: North Fort Myers
        distance:
          value: 7.29
          units: km
      - name: North Cape Coral
        distance:
          value: 11.34
          units: km
    - name: Fort Myers Beach
      region: FL
      lat: '26.4308'
      long: "-81.9146"
      closest_rate_centers:
      - name: Fort Myers Beach
        distance:
          value: 4.04
          units: km
      - name: Sanibel-Captiva Islands
        distance:
          value: 11.23
          units: km
      - name: Cape Coral
        distance:
          value: 14.07
          units: km
    - name: Fort Myers Shores
      region: FL
      lat: '26.7135'
      long: "-81.7384"
      closest_rate_centers:
      - name: Fort Myers
        distance:
          value: 14.15
          units: km
      - name: North Fort Myers
        distance:
          value: 15.18
          units: km
      - name: Lehigh Acres
        distance:
          value: 15.26
          units: km
    - name: Fort Pierce
      region: FL
      lat: '27.4255'
      long: "-80.3431"
      closest_rate_centers:
      - name: Fort Pierce
        distance:
          value: 2.18
          units: km
      - name: Port St Lucie
        distance:
          value: 18.63
          units: km
      - name: Jensen Beach
        distance:
          value: 23.13
          units: km
    - name: Fort Pierce North
      region: FL
      lat: '27.4736'
      long: "-80.3595"
      closest_rate_centers:
      - name: Fort Pierce
        distance:
          value: 4.21
          units: km
      - name: Vero Beach
        distance:
          value: 18.97
          units: km
      - name: Port St Lucie
        distance:
          value: 24.22
          units: km
    - name: Fort Pierce South
      region: FL
      lat: '27.4098'
      long: "-80.3539"
      closest_rate_centers:
      - name: Fort Pierce
        distance:
          value: 4.22
          units: km
      - name: Port St Lucie
        distance:
          value: 17.38
          units: km
      - name: Jensen Beach
        distance:
          value: 22.22
          units: km
    - name: Fort Walton Beach
      region: FL
      lat: '30.4255'
      long: "-86.6222"
      closest_rate_centers:
      - name: Fort Walton Beach
        distance:
          value: 2.49
          units: km
      - name: Shalimar
        distance:
          value: 3.62
          units: km
      - name: Destin
        distance:
          value: 11.79
          units: km
    - name: Fort White
      region: FL
      lat: '29.9224'
      long: "-82.7135"
      closest_rate_centers:
      - name: Fort White
        distance:
          value: 1.39
          units: km
      - name: High Springs
        distance:
          value: 15.39
          units: km
      - name: Branford
        distance:
          value: 20.84
          units: km
    - name: Fountainebleau
      region: FL
      lat: '25.7723'
      long: "-80.3460"
      closest_rate_centers:
      - name: Miami
        distance:
          value: 15.59
          units: km
      - name: Perrine
        distance:
          value: 18.94
          units: km
      - name: North Dade
        distance:
          value: 25.14
          units: km
    - name: Franklin Park
      region: FL
      lat: '26.1327'
      long: "-80.1763"
      closest_rate_centers:
      - name: Fort Lauderdale
        distance:
          value: 3.81
          units: km
      - name: Pompano Beach
        distance:
          value: 12.47
          units: km
      - name: Hollywood
        distance:
          value: 14.11
          units: km
    - name: Freeport
      region: FL
      lat: '30.5039'
      long: "-86.1391"
      closest_rate_centers:
      - name: Freeport
        distance:
          value: 0.68
          units: km
      - name: Santa Rosa Beach
        distance:
          value: 16.57
          units: km
      - name: Seagrove Beach
        distance:
          value: 20.96
          units: km
    - name: Frostproof
      region: FL
      lat: '27.7494'
      long: "-81.5252"
      closest_rate_centers:
      - name: Frostproof
        distance:
          value: 1.27
          units: km
      - name: Avon Park
        distance:
          value: 15.2
          units: km
      - name: Lake Wales
        distance:
          value: 18.3
          units: km
    - name: Fruit Cove
      region: FL
      lat: '30.0972'
      long: "-81.6175"
      closest_rate_centers:
      - name: Julington
        distance:
          value: 2.51
          units: km
      - name: Orange Park
        distance:
          value: 11.03
          units: km
      - name: Green Cove Springs
        distance:
          value: 13.33
          units: km
    - name: Fruitland Park
      region: FL
      lat: '28.8599'
      long: "-81.9177"
      closest_rate_centers:
      - name: Lady Lake
        distance:
          value: 7.05
          units: km
      - name: Leesburg
        distance:
          value: 7.31
          units: km
      - name: Wildwood
        distance:
          value: 11.25
          units: km
    - name: Fruitville
      region: FL
      lat: '27.3328'
      long: "-82.4616"
      closest_rate_centers:
      - name: Sarasota
        distance:
          value: 7.18
          units: km
      - name: Bradenton
        distance:
          value: 20.49
          units: km
      - name: Palmetto
        distance:
          value: 22.86
          units: km
    - name: Fuller Heights
      region: FL
      lat: '27.9227'
      long: "-81.9978"
      closest_rate_centers:
      - name: Bradley
        distance:
          value: 4.14
          units: km
      - name: Mulberry
        distance:
          value: 4.14
          units: km
      - name: Lakeland
        distance:
          value: 13.0
          units: km
      - name: Plant City
        distance:
          value: 16.54
          units: km
    - name: Fussels Corner
      region: FL
      lat: '28.0574'
      long: "-81.8610"
      closest_rate_centers:
      - name: Lakeland
        distance:
          value: 9.2
          units: km
      - name: Winter Haven
        distance:
          value: 13.49
          units: km
      - name: Polk City
        distance:
          value: 14.04
          units: km
    - name: Gainesville
      region: FL
      lat: '29.6804'
      long: "-82.3459"
      closest_rate_centers:
