---
cities:
  us:
    FL:
    - name: Acacia Villas
      region: FL
      lat: '26.6457'
      long: "-80.1104"
    - name: Alachua
      region: FL
      lat: '29.7779'
      long: "-82.4832"
    - name: Alafaya
      region: FL
      lat: '28.5280'
      long: "-81.1868"
    - name: Alford
      region: FL
      lat: '30.6967'
      long: "-85.3953"
    - name: Allentown
      region: FL
      lat: '30.7745'
      long: "-87.0822"
    - name: Altamonte Springs
      region: FL
      lat: '28.6615'
      long: "-81.3953"
    - name: Altha
      region: FL
      lat: '30.5721'
      long: "-85.1263"
    - name: Altoona
      region: FL
      lat: '28.9681'
      long: "-81.6482"
    - name: Alturas
      region: FL
      lat: '27.8417'
      long: "-81.6952"
    - name: Alva
      region: FL
      lat: '26.7188'
      long: "-81.6269"
    - name: Andrews
      region: FL
      lat: '29.5496'
      long: "-82.8883"
    - name: Anna Maria
      region: FL
      lat: '27.5297'
      long: "-82.7339"
    - name: Apalachicola
      region: FL
      lat: '29.7283'
      long: "-84.9940"
    - name: Apollo Beach
      region: FL
      lat: '27.7618'
      long: "-82.4003"
    - name: Apopka
      region: FL
      lat: '28.7015'
      long: "-81.5316"
    - name: Arcadia
      region: FL
      lat: '27.2215'
      long: "-81.8585"
    - name: Archer
      region: FL
      lat: '29.5400'
      long: "-82.5186"
    - name: Aripeka
      region: FL
      lat: '28.4308'
      long: "-82.6668"
    - name: Asbury Lake
      region: FL
      lat: '30.0472'
      long: "-81.7853"
    - name: Astatula
      region: FL
      lat: '28.7065'
      long: "-81.7346"
    - name: Astor
      region: FL
      lat: '29.1635'
      long: "-81.5349"
    - name: Atlantic Beach
      region: FL
      lat: '30.3375'
      long: "-81.4127"
    - name: Atlantis
      region: FL
      lat: '26.5962'
      long: "-80.1031"
    - name: Auburndale
      region: FL
      lat: '28.0963'
      long: "-81.8012"
    - name: Aucilla
      region: FL
      lat: '30.4770'
      long: "-83.7604"
    - name: Avalon
      region: FL
      lat: '30.5366'
      long: "-87.1010"
    - name: Ave Maria
      region: FL
      lat: '26.3218'
      long: "-81.4397"
    - name: Aventura
      region: FL
      lat: '25.9566'
      long: "-80.1371"
    - name: Avon Park
      region: FL
      lat: '27.5898'
      long: "-81.5068"
    - name: Azalea Park
      region: FL
      lat: '28.5473'
      long: "-81.2956"
    - name: Babson Park
      region: FL
      lat: '27.8342'
      long: "-81.5281"
    - name: Bagdad
      region: FL
      lat: '30.5824'
      long: "-87.0447"
    - name: Bal Harbour
      region: FL
      lat: '25.8935'
      long: "-80.1258"
    - name: Baldwin
      region: FL
      lat: '30.3052'
      long: "-81.9744"
    - name: Balm
      region: FL
      lat: '27.7542'
      long: "-82.2882"
    - name: Bardmoor
      region: FL
      lat: '27.8574'
      long: "-82.7534"
    - name: Bartow
      region: FL
      lat: '27.8868'
      long: "-81.8214"
    - name: Bascom
      region: FL
      lat: '30.9278'
      long: "-85.1181"
    - name: Bay Harbor Islands
      region: FL
      lat: '25.8877'
      long: "-80.1334"
    - name: Bay Hill
      region: FL
      lat: '28.4559'
      long: "-81.5122"
    - name: Bay Lake
      region: FL
      lat: '28.3870'
      long: "-81.5751"
    - name: Bay Pines
      region: FL
      lat: '27.8139'
      long: "-82.7748"
    - name: Bayonet Point
      region: FL
      lat: '28.3254'
      long: "-82.6834"
    - name: Bayport
      region: FL
      lat: '28.5468'
      long: "-82.6456"
    - name: Bayshore Gardens
      region: FL
      lat: '27.4345'
      long: "-82.5793"
    - name: Beacon Square
      region: FL
      lat: '28.2118'
      long: "-82.7504"
    - name: Bear Creek
      region: FL
      lat: '27.7542'
      long: "-82.7285"
    - name: Bee Ridge
      region: FL
      lat: '27.2855'
      long: "-82.4731"
    - name: Bell
      region: FL
      lat: '29.7568'
      long: "-82.8620"
    - name: Bellair-Meadowbrook Terrace
      region: FL
      lat: '30.1796'
      long: "-81.7375"
    - name: Belle Glade
      region: FL
      lat: '26.6916'
      long: "-80.6656"
    - name: Belle Isle
      region: FL
      lat: '28.4723'
      long: "-81.3491"
    - name: Belleair
      region: FL
      lat: '27.9365'
      long: "-82.8114"
    - name: Belleair Beach
      region: FL
      lat: '27.9242'
      long: "-82.8359"
    - name: Belleair Bluffs
      region: FL
      lat: '27.9198'
      long: "-82.8191"
    - name: Belleair Shore
      region: FL
      lat: '27.9173'
      long: "-82.8455"
    - name: Belleview
      region: FL
      lat: '29.0608'
      long: "-82.0565"
    - name: Bellview
      region: FL
      lat: '30.4620'
      long: "-87.3120"
    - name: Berkshire Lakes
      region: FL
      lat: '26.1602'
      long: "-81.7274"
    - name: Berrydale
      region: FL
      lat: '30.8982'
      long: "-87.0350"
    - name: Beverly Beach
      region: FL
      lat: '29.5166'
      long: "-81.1476"
    - name: Beverly Hills
      region: FL
      lat: '28.9176'
      long: "-82.4542"
    - name: Big Coppitt Key
      region: FL
      lat: '24.5914'
      long: "-81.6574"
    - name: Big Pine Key
      region: FL
      lat: '24.6893'
      long: "-81.3676"
    - name: Biscayne Park
      region: FL
      lat: '25.8818'
      long: "-80.1814"
    - name: Bithlo
      region: FL
      lat: '28.5644'
      long: "-81.1073"
    - name: Black Diamond
      region: FL
      lat: '28.9067'
      long: "-82.4946"
    - name: Black Hammock
      region: FL
      lat: '28.7107'
      long: "-81.1801"
    - name: Bloomingdale
      region: FL
      lat: '27.8784'
      long: "-82.2624"
    - name: Blountstown
      region: FL
      lat: '30.4430'
      long: "-85.0455"
    - name: Boca Raton
      region: FL
      lat: '26.3752'
      long: "-80.1080"
    - name: Bokeelia
      region: FL
      lat: '26.6800'
      long: "-82.1409"
    - name: Bonifay
      region: FL
      lat: '30.7786'
      long: "-85.6862"
    - name: Bonita Springs
      region: FL
      lat: '26.3558'
      long: "-81.7859"
    - name: Boulevard Gardens
      region: FL
      lat: '26.1253'
      long: "-80.1804"
    - name: Bowling Green
      region: FL
      lat: '27.6380'
      long: "-81.8244"
    - name: Boynton Beach
      region: FL
      lat: '26.5281'
      long: "-80.0811"
    - name: Bradenton
      region: FL
      lat: '27.4901'
      long: "-82.5757"
    - name: Bradenton Beach
      region: FL
      lat: '27.4651'
      long: "-82.6958"
    - name: Bradfordville
      region: FL
      lat: '30.5735'
      long: "-84.2055"
    - name: Bradley Junction
      region: FL
      lat: '27.7942'
      long: "-81.9784"
    - name: Brandon
      region: FL
      lat: '27.9367'
      long: "-82.3000"
    - name: Branford
      region: FL
      lat: '29.9623'
      long: "-82.9243"
    - name: Brent
      region: FL
      lat: '30.4727'
      long: "-87.2495"
    - name: Briny Breezes
      region: FL
      lat: '26.5090'
      long: "-80.0542"
    - name: Bristol
      region: FL
      lat: '30.4255'
      long: "-84.9773"
    - name: Broadview Park
      region: FL
      lat: '26.0978'
      long: "-80.2090"
    - name: Bronson
      region: FL
      lat: '29.4501'
      long: "-82.6391"
    - name: Brooker
      region: FL
      lat: '29.8877'
      long: "-82.3327"
    - name: Brookridge
      region: FL
      lat: '28.5483'
      long: "-82.4897"
    - name: Brooksville
      region: FL
      lat: '28.5404'
      long: "-82.3903"
    - name: Brownsdale
      region: FL
      lat: '30.8859'
      long: "-87.2218"
    - name: Brownsville
      region: FL
      lat: '25.8216'
      long: "-80.2417"
    - name: Buckhead Ridge
      region: FL
      lat: '27.1331'
      long: "-80.8868"
    - name: Buckingham
      region: FL
      lat: '26.6613'
      long: "-81.7402"
    - name: Buenaventura Lakes
      region: FL
      lat: '28.3349'
      long: "-81.3539"
    - name: Bunnell
      region: FL
      lat: '29.4193'
      long: "-81.3231"
    - name: Burnt Store Marina
      region: FL
      lat: '26.7645'
      long: "-82.0507"
    - name: Bushnell
      region: FL
      lat: '28.6860'
      long: "-82.1165"
    - name: Butler Beach
      region: FL
      lat: '29.7980'
      long: "-81.2653"
    - name: Cabana Colony
      region: FL
      lat: '26.8555'
      long: "-80.0864"
    - name: Callahan
      region: FL
      lat: '30.5655'
      long: "-81.8319"
    - name: Callaway
      region: FL
      lat: '30.1349'
      long: "-85.5568"
    - name: Campbell
      region: FL
      lat: '28.2603'
      long: "-81.4525"
    - name: Campbellton
      region: FL
      lat: '30.9505'
      long: "-85.4025"
    - name: Canal Point
      region: FL
      lat: '26.8626'
      long: "-80.6222"
    - name: Cape Canaveral
      region: FL
      lat: '28.3933'
      long: "-80.6049"
    - name: Cape Coral
      region: FL
      lat: '26.6443'
      long: "-81.9957"
    - name: Capitola
      region: FL
      lat: '30.4449'
      long: "-84.0799"
    - name: Captiva
      region: FL
      lat: '26.5205'
      long: "-82.1910"
    - name: Carrabelle
      region: FL
      lat: '29.8555'
      long: "-84.6685"
    - name: Carrollwood
      region: FL
      lat: '28.0577'
      long: "-82.5148"
    - name: Caryville
      region: FL
      lat: '30.7753'
      long: "-85.8120"
    - name: Casselberry
      region: FL
      lat: '28.6624'
      long: "-81.3217"
    - name: Cedar Grove
      region: FL
      lat: '30.1812'
      long: "-85.6268"
    - name: Cedar Key
      region: FL
      lat: '29.1460'
      long: "-83.0388"
    - name: Celebration
      region: FL
      lat: '28.3102'
      long: "-81.5510"
    - name: Center Hill
      region: FL
      lat: '28.6334'
      long: "-81.9986"
    - name: Century
      region: FL
      lat: '30.9767'
      long: "-87.2629"
    - name: Chaires
      region: FL
      lat: '30.4421'
      long: "-84.1269"
    - name: Charleston Park
      region: FL
      lat: '26.7055'
      long: "-81.5807"
    - name: Charlotte Harbor
      region: FL
      lat: '26.9629'
      long: "-82.0571"
    - name: Charlotte Park
      region: FL
      lat: '26.9032'
      long: "-82.0487"
    - name: Chattahoochee
      region: FL
      lat: '30.6977'
      long: "-84.8341"
    - name: Cheval
      region: FL
      lat: '28.1459'
      long: "-82.5184"
    - name: Chiefland
      region: FL
      lat: '29.4923'
      long: "-82.8682"
    - name: Chipley
      region: FL
      lat: '30.7752'
      long: "-85.5406"
    - name: Chokoloskee
      region: FL
      lat: '25.8143'
      long: "-81.3603"
    - name: Christmas
      region: FL
      lat: '28.5605'
      long: "-81.0201"
    - name: Chuluota
      region: FL
      lat: '28.6380'
      long: "-81.1159"
    - name: Chumuckla
      region: FL
      lat: '30.7826'
      long: "-87.2309"
    - name: Cinco Bayou
      region: FL
      lat: '30.4222'
      long: "-86.6096"
    - name: Citrus Hills
      region: FL
      lat: '28.8870'
      long: "-82.4312"
    - name: Citrus Park
      region: FL
      lat: '28.0730'
      long: "-82.5628"
    - name: Citrus Springs
      region: FL
      lat: '28.9931'
      long: "-82.4594"
    - name: Clarcona
      region: FL
      lat: '28.6268'
      long: "-81.4979"
    - name: Clearwater
      region: FL
      lat: '27.9790'
      long: "-82.7623"
    - name: Clermont
      region: FL
      lat: '28.5325'
      long: "-81.7208"
    - name: Cleveland
      region: FL
      lat: '26.9529'
      long: "-81.9925"
    - name: Clewiston
      region: FL
      lat: '26.7529'
      long: "-80.9399"
    - name: Cloud Lake
      region: FL
      lat: '26.6743'
      long: "-80.0731"
    - name: Cobbtown
      region: FL
      lat: '30.8823'
      long: "-87.1212"
    - name: Cocoa
      region: FL
      lat: '28.3820'
      long: "-80.7675"
    - name: Cocoa Beach
      region: FL
      lat: '28.3327'
      long: "-80.6274"
    - name: Cocoa West
      region: FL
      lat: '28.3591'
      long: "-80.7713"
    - name: Coconut Creek
      region: FL
      lat: '26.2803'
      long: "-80.1842"
    - name: Coleman
      region: FL
      lat: '28.8028'
      long: "-82.0707"
    - name: Combee Settlement
      region: FL
      lat: '28.0597'
      long: "-81.9051"
    - name: Connerton
      region: FL
      lat: '28.3022'
      long: "-82.4624"
    - name: Conway
      region: FL
      lat: '28.4968'
      long: "-81.3316"
    - name: Cooper City
      region: FL
      lat: '26.0463'
      long: "-80.2862"
    - name: Coral Gables
      region: FL
      lat: '25.7037'
      long: "-80.2715"
    - name: Coral Springs
      region: FL
      lat: '26.2702'
      long: "-80.2591"
    - name: Coral Terrace
      region: FL
      lat: '25.7464'
      long: "-80.3049"
    - name: Cortez
      region: FL
      lat: '27.4668'
      long: "-82.6688"
    - name: Cottondale
      region: FL
      lat: '30.7891'
      long: "-85.3644"
    - name: Country Club
      region: FL
      lat: '25.9407'
      long: "-80.3102"
    - name: Country Walk
      region: FL
      lat: '25.6330'
      long: "-80.4353"
    - name: Crawfordville
      region: FL
      lat: '30.1996'
      long: "-84.3634"
    - name: Crescent Beach
      region: FL
      lat: '29.7355'
      long: "-81.2413"
    - name: Crescent City
      region: FL
      lat: '29.4374'
      long: "-81.5173"
    - name: Crestview
      region: FL
      lat: '30.7477'
      long: "-86.5785"
    - name: Crooked Lake Park
      region: FL
      lat: '27.8293'
      long: "-81.5897"
    - name: Cross City
      region: FL
      lat: '29.6386'
      long: "-83.1248"
    - name: Crystal Lake
      region: FL
      lat: '28.0371'
      long: "-81.9064"
    - name: Crystal River
      region: FL
      lat: '28.8964'
      long: "-82.5991"
    - name: Crystal Springs
      region: FL
      lat: '28.1830'
      long: "-82.1539"
    - name: Cudjoe Key
      region: FL
      lat: '24.6745'
      long: "-81.4986"
    - name: Cutler Bay
      region: FL
      lat: '25.5765'
      long: "-80.3356"
    - name: Cypress Gardens
      region: FL
      lat: '28.0036'
      long: "-81.6857"
    - name: Cypress Lake
      region: FL
      lat: '26.5392'
      long: "-81.8999"
    - name: Cypress Quarters
      region: FL
      lat: '27.2479'
      long: "-80.8115"
    - name: Dade City
      region: FL
      lat: '28.3565'
      long: "-82.1942"
    - name: Dade City North
      region: FL
      lat: '28.3839'
      long: "-82.1943"
    - name: Dania Beach
      region: FL
      lat: '26.0593'
      long: "-80.1637"
    - name: Davenport
      region: FL
      lat: '28.1587'
      long: "-81.6083"
    - name: Davie
      region: FL
      lat: '26.0789'
      long: "-80.2870"
    - name: Day
      region: FL
      lat: '30.1950'
      long: "-83.2909"
    - name: Daytona Beach
      region: FL
      lat: '29.1995'
      long: "-81.0982"
    - name: Daytona Beach Shores
      region: FL
      lat: '29.1696'
      long: "-80.9796"
    - name: De Leon Springs
      region: FL
      lat: '29.1172'
      long: "-81.3517"
    - name: DeBary
      region: FL
      lat: '28.8815'
      long: "-81.3240"
    - name: DeFuniak Springs
      region: FL
      lat: '30.7123'
      long: "-86.1208"
    - name: DeLand
      region: FL
      lat: '29.0225'
      long: "-81.2875"
    - name: DeLand Southwest
      region: FL
      lat: '29.0078'
      long: "-81.3113"
    - name: Deerfield Beach
      region: FL
      lat: '26.3050'
      long: "-80.1277"
    - name: Delray Beach
      region: FL
      lat: '26.4550'
      long: "-80.0905"
    - name: Deltona
      region: FL
      lat: '28.9050'
      long: "-81.2137"
    - name: Desoto Acres
      region: FL
      lat: '27.3823'
      long: "-82.5167"
    - name: Desoto Lakes
      region: FL
      lat: '27.3781'
      long: "-82.4951"
    - name: Destin
      region: FL
      lat: '30.3950'
      long: "-86.4701"
    - name: Dickerson City
      region: FL
      lat: '30.4827'
      long: "-87.0651"
    - name: Dixonville
      region: FL
      lat: '30.9865'
      long: "-87.0416"
    - name: Doctor Phillips
      region: FL
      lat: '28.4474'
      long: "-81.4914"
    - name: Doral
      region: FL
      lat: '25.8152'
      long: "-80.3565"
    - name: Dover
      region: FL
      lat: '27.9927'
      long: "-82.2198"
    - name: Duck Key
      region: FL
      lat: '24.7710'
      long: "-80.9132"
    - name: Dundee
      region: FL
      lat: '28.0115'
      long: "-81.5995"
    - name: Dunedin
      region: FL
      lat: '28.0329'
      long: "-82.7862"
    - name: Dunnellon
      region: FL
      lat: '29.0572'
      long: "-82.4289"
    - name: Eagle Lake
      region: FL
      lat: '27.9760'
      long: "-81.7573"
    - name: East Bronson
      region: FL
      lat: '29.4593'
      long: "-82.5905"
    - name: East Lake
      region: FL
      lat: '28.1206'
      long: "-82.6868"
    - name: East Lake-Orient Park
      region: FL
      lat: '27.9970'
      long: "-82.3653"
    - name: East Milton
      region: FL
      lat: '30.6175'
      long: "-86.9636"
    - name: East Palatka
      region: FL
      lat: '29.6502'
      long: "-81.5997"
    - name: East Williston
      region: FL
      lat: '29.3883'
      long: "-82.4165"
    - name: Eastpoint
      region: FL
      lat: '29.7543'
      long: "-84.8695"
    - name: Eatonville
      region: FL
      lat: '28.6167'
      long: "-81.3906"
    - name: Ebro
      region: FL
      lat: '30.4369'
      long: "-85.8791"
    - name: Edgewater
      region: FL
      lat: '28.9594'
      long: "-80.9406"
    - name: Edgewood
      region: FL
      lat: '28.4879'
      long: "-81.3771"
    - name: Eglin AFB
      region: FL
      lat: '30.4592'
      long: "-86.5499"
    - name: Egypt Lake-Leto
      region: FL
      lat: '28.0177'
      long: "-82.5062"
    - name: El Portal
      region: FL
      lat: '25.8556'
      long: "-80.1954"
    - name: Elfers
      region: FL
      lat: '28.2140'
      long: "-82.7230"
    - name: Ellenton
      region: FL
      lat: '27.5269'
      long: "-82.5258"
    - name: Englewood
      region: FL
      lat: '26.9717'
      long: "-82.3524"
    - name: Ensley
      region: FL
      lat: '30.5259'
      long: "-87.2733"
    - name: Estero
      region: FL
      lat: '26.4276'
      long: "-81.7951"
    - name: Esto
      region: FL
      lat: '30.9819'
      long: "-85.6429"
    - name: Eustis
      region: FL
      lat: '28.8563'
      long: "-81.6771"
    - name: Everglades
      region: FL
      lat: '25.8580'
      long: "-81.3862"
    - name: Fairview Shores
      region: FL
      lat: '28.6021'
      long: "-81.3958"
    - name: Fanning Springs
      region: FL
      lat: '29.5873'
      long: "-82.9245"
    - name: Feather Sound
      region: FL
      lat: '27.9061'
      long: "-82.6813"
    - name: Fellsmere
      region: FL
      lat: '27.7241'
      long: "-80.5974"
    - name: Fern Park
      region: FL
      lat: '28.6485'
      long: "-81.3458"
    - name: Fernandina Beach
      region: FL
      lat: '30.6571'
      long: "-81.4511"
    - name: Ferndale
      region: FL
      lat: '28.6220'
      long: "-81.7014"
    - name: Ferry Pass
      region: FL
      lat: '30.5205'
      long: "-87.1899"
    - name: Fidelis
      region: FL
      lat: '30.9343'
      long: "-87.0245"
    - name: Fish Hawk
      region: FL
      lat: '27.8511'
      long: "-82.2164"
    - name: Fisher Island
      region: FL
      lat: '25.7607'
      long: "-80.1416"
    - name: Five Points
      region: FL
      lat: '30.2225'
      long: "-82.6465"
    - name: Flagler Beach
      region: FL
      lat: '29.4716'
      long: "-81.1303"
    - name: Flagler Estates
      region: FL
      lat: '29.6441'
      long: "-81.4571"
    - name: Fleming Island
      region: FL
      lat: '30.0988'
      long: "-81.7124"
    - name: Floral City
      region: FL
      lat: '28.7065'
      long: "-82.3090"
    - name: Florida City
      region: FL
      lat: '25.4418'
      long: "-80.4685"
    - name: Florida Gulf Coast University
      region: FL
      lat: '26.4613'
      long: "-81.7686"
    - name: Florida Ridge
      region: FL
      lat: '27.5805'
      long: "-80.3848"
    - name: Floridatown
      region: FL
      lat: '30.5828'
      long: "-87.1613"
    - name: Forest City
      region: FL
      lat: '28.6619'
      long: "-81.4444"
    - name: Fort Braden
      region: FL
      lat: '30.4308'
      long: "-84.5346"
    - name: Fort Denaud
      region: FL
      lat: '26.7404'
      long: "-81.5241"
    - name: Fort Green
      region: FL
      lat: '27.6255'
      long: "-81.9397"
    - name: Fort Green Springs
      region: FL
      lat: '27.5876'
      long: "-81.9402"
    - name: Fort Lauderdale
      region: FL
      lat: '26.1412'
      long: "-80.1464"
    - name: Fort Meade
      region: FL
      lat: '27.7645'
      long: "-81.8058"
    - name: Fort Myers
      region: FL
      lat: '26.6194'
      long: "-81.8302"
    - name: Fort Myers Beach
      region: FL
      lat: '26.4308'
      long: "-81.9146"
    - name: Fort Myers Shores
      region: FL
      lat: '26.7135'
      long: "-81.7384"
    - name: Fort Pierce
      region: FL
      lat: '27.4255'
      long: "-80.3431"
    - name: Fort Pierce North
      region: FL
      lat: '27.4736'
      long: "-80.3595"
    - name: Fort Pierce South
      region: FL
      lat: '27.4098'
      long: "-80.3539"
    - name: Fort Walton Beach
      region: FL
      lat: '30.4255'
      long: "-86.6222"
    - name: Fort White
      region: FL
      lat: '29.9224'
      long: "-82.7135"
    - name: Fountainebleau
      region: FL
      lat: '25.7723'
      long: "-80.3460"
    - name: Franklin Park
      region: FL
      lat: '26.1327'
      long: "-80.1763"
    - name: Freeport
      region: FL
      lat: '30.5039'
      long: "-86.1391"
    - name: Frostproof
      region: FL
      lat: '27.7494'
      long: "-81.5252"
    - name: Fruit Cove
      region: FL
      lat: '30.0972'
      long: "-81.6175"
    - name: Fruitland Park
      region: FL
      lat: '28.8599'
      long: "-81.9177"
    - name: Fruitville
      region: FL
      lat: '27.3328'
      long: "-82.4616"
    - name: Fuller Heights
      region: FL
      lat: '27.9227'
      long: "-81.9978"
    - name: Fussels Corner
      region: FL
      lat: '28.0574'
      long: "-81.8610"
    - name: Gainesville
      region: FL
      lat: '29.6804'
      long: "-82.3459"
    - name: Garcon Point
      region: FL
      lat: '30.4758'
      long: "-87.0900"
    - name: Garden Grove
      region: FL
      lat: '28.4716'
      long: "-82.4349"
    - name: Gardner
      region: FL
      lat: '27.3537'
      long: "-81.7895"
    - name: Gateway
      region: FL
      lat: '26.5793'
      long: "-81.7446"
    - name: Geneva
      region: FL
      lat: '28.7377'
      long: "-81.1143"
    - name: Gibsonton
      region: FL
      lat: '27.8260'
      long: "-82.3761"
    - name: Gifford
      region: FL
      lat: '27.6756'
      long: "-80.4252"
    - name: Gladeview
      region: FL
      lat: '25.8395'
      long: "-80.2368"
    - name: Glen Ridge
      region: FL
      lat: '26.6714'
      long: "-80.0751"
    - name: Glen St. Mary
      region: FL
      lat: '30.2752'
      long: "-82.1604"
    - name: Glencoe
      region: FL
      lat: '29.0005'
      long: "-80.9604"
    - name: Glenvar Heights
      region: FL
      lat: '25.7090'
      long: "-80.3155"
    - name: Golden Beach
      region: FL
      lat: '25.9660'
      long: "-80.1210"
    - name: Golden Gate
      region: FL
      lat: '26.1844'
      long: "-81.7031"
    - name: Golden Glades
      region: FL
      lat: '25.9129'
      long: "-80.2013"
    - name: Goldenrod
      region: FL
      lat: '28.6114'
      long: "-81.2916"
    - name: Golf
      region: FL
      lat: '26.5043'
      long: "-80.1091"
    - name: Gonzalez
      region: FL
      lat: '30.5822'
      long: "-87.2906"
    - name: Goodland
      region: FL
      lat: '25.9252'
      long: "-81.6480"
    - name: Gotha
      region: FL
      lat: '28.5306'
      long: "-81.5191"
    - name: Goulding
      region: FL
      lat: '30.4396'
      long: "-87.2300"
    - name: Goulds
      region: FL
      lat: '25.5614'
      long: "-80.3880"
    - name: Graceville
      region: FL
      lat: '30.9609'
      long: "-85.5123"
    - name: Grand Ridge
      region: FL
      lat: '30.7083'
      long: "-85.0207"
    - name: Grant-Valkaria
      region: FL
      lat: '27.9322'
      long: "-80.5655"
    - name: Green Cove Springs
      region: FL
      lat: '29.9904'
      long: "-81.6807"
    - name: Greenacres
      region: FL
      lat: '26.6270'
      long: "-80.1371"
    - name: Greenbriar
      region: FL
      lat: '28.0111'
      long: "-82.7523"
    - name: Greensboro
      region: FL
      lat: '30.5705'
      long: "-84.7324"
    - name: Greenville
      region: FL
      lat: '30.4667'
      long: "-83.6352"
    - name: Greenwood
      region: FL
      lat: '30.8727'
      long: "-85.1612"
    - name: Grenelefe
      region: FL
      lat: '28.0579'
      long: "-81.5538"
    - name: Gretna
      region: FL
      lat: '30.5929'
      long: "-84.6876"
    - name: Grove City
      region: FL
      lat: '26.9071'
      long: "-82.3259"
    - name: Groveland
      region: FL
      lat: '28.6098'
      long: "-81.8246"
    - name: Gulf Breeze
      region: FL
      lat: '30.3684'
      long: "-87.1737"
    - name: Gulf Stream
      region: FL
      lat: '26.4894'
      long: "-80.0573"
    - name: Gulfport
      region: FL
      lat: '27.7463'
      long: "-82.7099"
    - name: Gun Club Estates
      region: FL
      lat: '26.6753'
      long: "-80.1080"
    - name: Haines City
      region: FL
      lat: '28.1102'
      long: "-81.6157"
    - name: Hallandale Beach
      region: FL
      lat: '25.9854'
      long: "-80.1423"
    - name: Hampton
      region: FL
      lat: '29.8643'
      long: "-82.1380"
    - name: Harbor Bluffs
      region: FL
      lat: '27.9081'
      long: "-82.8270"
    - name: Harbour Heights
      region: FL
      lat: '26.9928'
      long: "-82.0072"
    - name: Harlem
      region: FL
      lat: '26.7324'
      long: "-80.9519"
    - name: Harlem Heights
      region: FL
      lat: '26.5160'
      long: "-81.9293"
    - name: Harold
      region: FL
      lat: '30.6772'
      long: "-86.8310"
    - name: Hastings
      region: FL
      lat: '29.7145'
      long: "-81.4990"
    - name: Havana
      region: FL
      lat: '30.6298'
      long: "-84.4135"
    - name: Haverhill
      region: FL
      lat: '26.6910'
      long: "-80.1217"
    - name: Hawthorne
      region: FL
      lat: '29.5938'
      long: "-82.0944"
    - name: Heathrow
      region: FL
      lat: '28.7754'
      long: "-81.3721"
    - name: Heritage Bay
      region: FL
      lat: '26.2837'
      long: "-81.6629"
    - name: Heritage Pines
      region: FL
      lat: '28.4267'
      long: "-82.6254"
    - name: Hernando
      region: FL
      lat: '28.9451'
      long: "-82.3781"
    - name: Hernando Beach
      region: FL
      lat: '28.4753'
      long: "-82.6612"
    - name: Hialeah
      region: FL
      lat: '25.8696'
      long: "-80.3045"
    - name: Hialeah Gardens
      region: FL
      lat: '25.8878'
      long: "-80.3569"
    - name: High Point
      region: FL
      lat: '28.5475'
      long: "-82.5206"
    - name: High Springs
      region: FL
      lat: '29.8070'
      long: "-82.5955"
    - name: Highland Beach
      region: FL
      lat: '26.4087'
      long: "-80.0661"
    - name: Highland City
      region: FL
      lat: '27.9633'
      long: "-81.8781"
    - name: Highland Park
      region: FL
      lat: '27.8615'
      long: "-81.5619"
    - name: Hill 'n Dale
      region: FL
      lat: '28.5190'
      long: "-82.2918"
    - name: Hillcrest Heights
      region: FL
      lat: '27.8083'
      long: "-81.5695"
    - name: Hilliard
      region: FL
      lat: '30.6866'
      long: "-81.9212"
    - name: Hillsboro Beach
      region: FL
      lat: '26.2837'
      long: "-80.0796"
    - name: Hillsboro Pines
      region: FL
      lat: '26.3253'
      long: "-80.1947"
    - name: Hobe Sound
      region: FL
      lat: '27.0729'
      long: "-80.1425"
    - name: Holden Heights
      region: FL
      lat: '28.5013'
      long: "-81.3878"
    - name: Holden Lakes
      region: FL
      lat: '28.5013'
      long: "-81.3878"
    - name: Holiday
      region: FL
      lat: '28.1864'
      long: "-82.7429"
    - name: Holley
      region: FL
      lat: '30.4540'
      long: "-86.9036"
    - name: Holly Hill
      region: FL
      lat: '29.2442'
      long: "-81.0465"
    - name: Hollywood
      region: FL
      lat: '26.0293'
      long: "-80.1679"
    - name: Holmes Beach
      region: FL
      lat: '27.5108'
      long: "-82.7152"
    - name: Homeland
      region: FL
      lat: '27.8181'
      long: "-81.8268"
    - name: Homestead
      region: FL
      lat: '25.4665'
      long: "-80.4472"
    - name: Homestead Base
      region: FL
      lat: '25.4936'
      long: "-80.3910"
    - name: Homosassa
      region: FL
      lat: '28.7849'
      long: "-82.6079"
    - name: Homosassa Springs
      region: FL
      lat: '28.8119'
      long: "-82.5392"
    - name: Horizon West
      region: FL
      lat: '28.4417'
      long: "-81.6146"
    - name: Horseshoe Beach
      region: FL
      lat: '29.4495'
      long: "-83.2821"
    - name: Hosford
      region: FL
      lat: '30.3944'
      long: "-84.8034"
    - name: Howey-in-the-Hills
      region: FL
      lat: '28.7098'
      long: "-81.7798"
    - name: Hudson
      region: FL
      lat: '28.3595'
      long: "-82.6894"
    - name: Hunters Creek
      region: FL
      lat: '28.3610'
      long: "-81.4358"
    - name: Hurlburt Field
      region: FL
      lat: '30.4289'
      long: "-86.6989"
    - name: Hutchinson Island South
      region: FL
      lat: '27.3243'
      long: "-80.2425"
    - name: Hypoluxo
      region: FL
      lat: '26.5634'
      long: "-80.0531"
    - name: Immokalee
      region: FL
      lat: '26.4253'
      long: "-81.4251"
    - name: Indialantic
      region: FL
      lat: '28.0871'
      long: "-80.5700"
    - name: Indian Creek
      region: FL
      lat: '25.8783'
      long: "-80.1371"
    - name: Indian Harbour Beach
      region: FL
      lat: '28.1529'
      long: "-80.5976"
    - name: Indian Lake Estates
      region: FL
      lat: '27.7988'
      long: "-81.3563"
    - name: Indian River Estates
      region: FL
      lat: '27.3564'
      long: "-80.2983"
    - name: Indian River Shores
      region: FL
      lat: '27.7084'
      long: "-80.3851"
    - name: Indian Rocks Beach
      region: FL
      lat: '27.8961'
      long: "-82.8444"
    - name: Indian Shores
      region: FL
      lat: '27.8536'
      long: "-82.8438"
    - name: Indiantown
      region: FL
      lat: '27.0376'
      long: "-80.4910"
    - name: Inglis
      region: FL
      lat: '29.0323'
      long: "-82.6603"
    - name: Interlachen
      region: FL
      lat: '29.6203'
      long: "-81.8963"
    - name: Inverness
      region: FL
      lat: '28.8416'
      long: "-82.3418"
    - name: Inverness Highlands North
      region: FL
      lat: '28.8637'
      long: "-82.3766"
    - name: Inverness Highlands South
      region: FL
      lat: '28.8007'
      long: "-82.3371"
    - name: Inwood
      region: FL
      lat: '28.0391'
      long: "-81.7677"
    - name: Iona
      region: FL
      lat: '26.5160'
      long: "-81.9601"
    - name: Islamorada, Village of Islands
      region: FL
      lat: '24.9407'
      long: "-80.6098"
    - name: Island Walk
      region: FL
      lat: '26.2510'
      long: "-81.7110"
    - name: Istachatta
      region: FL
      lat: '28.6634'
      long: "-82.2726"
    - name: Ives Estates
      region: FL
      lat: '25.9632'
      long: "-80.1830"
    - name: Jacksonville
      region: FL
      lat: '30.3322'
      long: "-81.6749"
    - name: Jacksonville Beach
      region: FL
      lat: '30.2782'
      long: "-81.4045"
    - name: Jacob City
      region: FL
      lat: '30.8925'
      long: "-85.4108"
    - name: Jan Phyl Village
      region: FL
      lat: '28.0201'
      long: "-81.7933"
    - name: Jasmine Estates
      region: FL
      lat: '28.2930'
      long: "-82.6907"
    - name: Jasper
      region: FL
      lat: '30.5061'
      long: "-82.9540"
    - name: Jay
      region: FL
      lat: '30.9504'
      long: "-87.1523"
    - name: Jennings
      region: FL
      lat: '30.5968'
      long: "-83.1070"
    - name: Jensen Beach
      region: FL
      lat: '27.2437'
      long: "-80.2423"
    - name: June Park
      region: FL
      lat: '28.0720'
      long: "-80.6876"
    - name: Juno Beach
      region: FL
      lat: '26.8754'
      long: "-80.0589"
    - name: Juno Ridge
      region: FL
      lat: '26.8491'
      long: "-80.0632"
    - name: Jupiter
      region: FL
      lat: '26.9200'
      long: "-80.1128"
    - name: Jupiter Farms
      region: FL
      lat: '26.9222'
      long: "-80.2189"
    - name: Jupiter Inlet Colony
      region: FL
      lat: '26.9480'
      long: "-80.0755"
    - name: Jupiter Island
      region: FL
      lat: '27.0451'
      long: "-80.1101"
    - name: Kathleen
      region: FL
      lat: '28.1224'
      long: "-82.0387"
    - name: Kendale Lakes
      region: FL
      lat: '25.7081'
      long: "-80.4078"
    - name: Kendall
      region: FL
      lat: '25.6697'
      long: "-80.3556"
    - name: Kendall West
      region: FL
      lat: '25.7065'
      long: "-80.4388"
    - name: Kenneth City
      region: FL
      lat: '27.8156'
      long: "-82.7162"
    - name: Kensington Park
      region: FL
      lat: '27.3578'
      long: "-82.4942"
    - name: Kenwood Estates
      region: FL
      lat: '26.6276'
      long: "-80.1153"
    - name: Key Biscayne
      region: FL
      lat: '25.6908'
      long: "-80.1653"
    - name: Key Colony Beach
      region: FL
      lat: '24.7233'
      long: "-81.0216"
    - name: Key Largo
      region: FL
      lat: '25.1224'
      long: "-80.4120"
    - name: Key Vista
      region: FL
      lat: '28.1946'
      long: "-82.7703"
    - name: Key West
      region: FL
      lat: '24.5642'
      long: "-81.7775"
    - name: Keystone
      region: FL
      lat: '28.1312'
      long: "-82.5999"
    - name: Keystone Heights
      region: FL
      lat: '29.7812'
      long: "-82.0340"
    - name: Kissimmee
      region: FL
      lat: '28.3041'
      long: "-81.4169"
    - name: La Crosse
      region: FL
      lat: '29.8395'
      long: "-82.3784"
    - name: LaBelle
      region: FL
      lat: '26.7219'
      long: "-81.4506"
    - name: Lacoochee
      region: FL
      lat: '28.4655'
      long: "-82.1698"
    - name: Lady Lake
      region: FL
      lat: '28.9241'
      long: "-81.9299"
    - name: Laguna Beach
      region: FL
      lat: '30.2549'
      long: "-85.9512"
    - name: Lake Alfred
      region: FL
      lat: '28.1041'
      long: "-81.7264"
    - name: Lake Belvedere Estates
      region: FL
      lat: '26.6888'
      long: "-80.1326"
    - name: Lake Buena Vista
      region: FL
      lat: '28.3790'
      long: "-81.5262"
    - name: Lake Butler
      region: FL
      lat: '28.4862'
      long: "-81.5460"
    - name: Lake City
      region: FL
      lat: '30.1901'
      long: "-82.6471"
    - name: Lake Clarke Shores
      region: FL
      lat: '26.6461'
      long: "-80.0752"
    - name: Lake Hamilton
      region: FL
      lat: '28.0478'
      long: "-81.6270"
    - name: Lake Harbor
      region: FL
      lat: '26.6885'
      long: "-80.8079"
    - name: Lake Hart
      region: FL
      lat: '28.3851'
      long: "-81.2322"
    - name: Lake Helen
      region: FL
      lat: '28.9830'
      long: "-81.2309"
    - name: Lake Kathryn
      region: FL
      lat: '29.0072'
      long: "-81.4906"
    - name: Lake Kerr
      region: FL
      lat: '29.3575'
      long: "-81.7746"
    - name: Lake Lindsey
      region: FL
      lat: '28.6322'
      long: "-82.3617"
    - name: Lake Lorraine
      region: FL
      lat: '30.4407'
      long: "-86.5657"
    - name: Lake Mack-Forest Hills
      region: FL
      lat: '29.0007'
      long: "-81.4240"
    - name: Lake Magdalene
      region: FL
      lat: '28.0875'
      long: "-82.4791"
    - name: Lake Mary
      region: FL
      lat: '28.7592'
      long: "-81.3360"
    - name: Lake Mary Jane
      region: FL
      lat: '28.3854'
      long: "-81.1709"
    - name: Lake Mystic
      region: FL
      lat: '30.3906'
      long: "-84.9857"
    - name: Lake Panasoffkee
      region: FL
      lat: '28.7850'
      long: "-82.1258"
    - name: Lake Park
      region: FL
      lat: '26.7998'
      long: "-80.0681"
    - name: Lake Placid
      region: FL
      lat: '27.3037'
      long: "-81.3710"
    - name: Lake Sarasota
      region: FL
      lat: '27.2948'
      long: "-82.4323"
    - name: Lake Wales
      region: FL
      lat: '27.9195'
      long: "-81.5961"
    - name: Lakeland
      region: FL
      lat: '28.0557'
      long: "-81.9545"
    - name: Lakeland Highlands
      region: FL
      lat: '27.9572'
      long: "-81.9496"
    - name: Lakeside
      region: FL
      lat: '30.1356'
      long: "-81.7674"
    - name: Lakewood Park
      region: FL
      lat: '27.5390'
      long: "-80.3865"
    - name: Lakewood Ranch
      region: FL
      lat: '27.4185'
      long: "-82.3948"
    - name: Lamont
      region: FL
      lat: '30.3796'
      long: "-83.8135"
    - name: Land O' Lakes
      region: FL
      lat: '28.2075'
      long: "-82.4476"
    - name: Lantana
      region: FL
      lat: '26.5834'
      long: "-80.0564"
    - name: Largo
      region: FL
      lat: '27.9088'
      long: "-82.7712"
    - name: Lauderdale Lakes
      region: FL
      lat: '26.1682'
      long: "-80.2017"
    - name: Lauderdale-by-the-Sea
      region: FL
      lat: '26.1991'
      long: "-80.0971"
    - name: Lauderhill
      region: FL
      lat: '26.1605'
      long: "-80.2241"
    - name: Laurel
      region: FL
      lat: '27.1507'
      long: "-82.4534"
    - name: Laurel Hill
      region: FL
      lat: '30.9623'
      long: "-86.4586"
    - name: Lawtey
      region: FL
      lat: '30.0484'
      long: "-82.0725"
    - name: Layton
      region: FL
      lat: '24.8247'
      long: "-80.8128"
    - name: Lazy Lake
      region: FL
      lat: '26.1563'
      long: "-80.1452"
    - name: Lealman
      region: FL
      lat: '27.8197'
      long: "-82.6847"
    - name: Lecanto
      region: FL
      lat: '28.8359'
      long: "-82.4880"
    - name: Lee
      region: FL
      lat: '30.4114'
      long: "-83.3003"
    - name: Leesburg
      region: FL
      lat: '28.7672'
      long: "-81.8962"
    - name: Lehigh Acres
      region: FL
      lat: '26.6120'
      long: "-81.6388"
    - name: Leisure City
      region: FL
      lat: '25.4935'
      long: "-80.4363"
    - name: Lely
      region: FL
      lat: '26.1032'
      long: "-81.7297"
    - name: Lely Resort
      region: FL
      lat: '26.0889'
      long: "-81.7031"
    - name: Lemon Grove
      region: FL
      lat: '27.5765'
      long: "-81.6360"
    - name: Liberty Triangle
      region: FL
      lat: '29.0760'
      long: "-82.2191"
    - name: Lighthouse Point
      region: FL
      lat: '26.2785'
      long: "-80.0891"
    - name: Limestone
      region: FL
      lat: '27.3673'
      long: "-81.9048"
    - name: Limestone Creek
      region: FL
      lat: '26.9432'
      long: "-80.1407"
    - name: Lisbon
      region: FL
      lat: '28.8824'
      long: "-81.7812"
    - name: Live Oak
      region: FL
      lat: '30.2957'
      long: "-82.9847"
    - name: Lloyd
      region: FL
      lat: '30.4822'
      long: "-84.0244"
    - name: Lochmoor Waterway Estates
      region: FL
      lat: '26.6447'
      long: "-81.9098"
    - name: Lockhart
      region: FL
      lat: '28.6270'
      long: "-81.4354"
    - name: Longboat Key
      region: FL
      lat: '27.3926'
      long: "-82.6341"
    - name: Longwood
      region: FL
      lat: '28.7014'
      long: "-81.3487"
    - name: Loughman
      region: FL
      lat: '28.2380'
      long: "-81.5686"
    - name: Lower Grand Lagoon
      region: FL
      lat: '30.1444'
      long: "-85.7526"
    - name: Loxahatchee Groves
      region: FL
      lat: '26.7106'
      long: "-80.2763"
    - name: Lutz
      region: FL
      lat: '28.1396'
      long: "-82.4467"
    - name: Lynn Haven
      region: FL
      lat: '30.2337'
      long: "-85.6370"
    - name: Macclenny
      region: FL
      lat: '30.2809'
      long: "-82.1253"
    - name: Madeira Beach
      region: FL
      lat: '27.7985'
      long: "-82.7887"
    - name: Madison
      region: FL
      lat: '30.4716'
      long: "-83.4130"
    - name: Maitland
      region: FL
      lat: '28.6295'
      long: "-81.3718"
    - name: Malabar
      region: FL
      lat: '27.9884'
      long: "-80.5781"
    - name: Malone
      region: FL
      lat: '30.9589'
      long: "-85.1622"
    - name: Manalapan
      region: FL
      lat: '26.5620'
      long: "-80.0439"
    - name: Manasota Key
      region: FL
      lat: '26.9226'
      long: "-82.3537"
    - name: Manatee Road
      region: FL
      lat: '29.5145'
      long: "-82.9192"
    - name: Mango
      region: FL
      lat: '27.9914'
      long: "-82.3070"
    - name: Mangonia Park
      region: FL
      lat: '26.7586'
      long: "-80.0761"
    - name: Marathon
      region: FL
      lat: '24.7263'
      long: "-81.0374"
    - name: Marco Island
      region: FL
      lat: '25.9330'
      long: "-81.6993"
    - name: Marco Shores-Hammock Bay
      region: FL
      lat: '25.9964'
      long: "-81.6889"
    - name: Margate
      region: FL
      lat: '26.2466'
      long: "-80.2119"
    - name: Marianna
      region: FL
      lat: '30.7943'
      long: "-85.2259"
    - name: Marineland
      region: FL
      lat: '29.6657'
      long: "-81.2138"
    - name: Marion Oaks
      region: FL
      lat: '29.0011'
      long: "-82.1953"
    - name: Mary Esther
      region: FL
      lat: '30.4127'
      long: "-86.6588"
    - name: Masaryktown
      region: FL
      lat: '28.4417'
      long: "-82.4610"
    - name: Mascotte
      region: FL
      lat: '28.6110'
      long: "-81.9106"
    - name: Matlacha
      region: FL
      lat: '26.6303'
      long: "-82.0718"
    - name: Matlacha Isles-Matlacha Shores
      region: FL
      lat: '26.6341'
      long: "-82.0590"
    - name: Mayo
      region: FL
      lat: '30.0511'
      long: "-83.1768"
    - name: McGregor
      region: FL
      lat: '26.5611'
      long: "-81.9134"
    - name: McIntosh
      region: FL
      lat: '29.4494'
      long: "-82.2211"
    - name: Meadow Oaks
      region: FL
      lat: '28.3465'
      long: "-82.6025"
    - name: Meadow Woods
      region: FL
      lat: '28.3698'
      long: "-81.3467"
    - name: Medley
      region: FL
      lat: '25.8647'
      long: "-80.3516"
    - name: Medulla
      region: FL
      lat: '27.9570'
      long: "-81.9866"
    - name: Melbourne
      region: FL
      lat: '28.1086'
      long: "-80.6627"
    - name: Melbourne Beach
      region: FL
      lat: '28.0668'
      long: "-80.5610"
    - name: Melbourne Village
      region: FL
      lat: '28.0880'
      long: "-80.6652"
    - name: Memphis
      region: FL
      lat: '27.5435'
      long: "-82.5608"
    - name: Merritt Island
      region: FL
      lat: '28.3139'
      long: "-80.6708"
    - name: Mexico Beach
      region: FL
      lat: '29.9480'
      long: "-85.4156"
    - name: Miami
      region: FL
      lat: '25.7840'
      long: "-80.2101"
    - name: Miami Beach
      region: FL
      lat: '25.8171'
      long: "-80.1396"
    - name: Miami Gardens
      region: FL
      lat: '25.9433'
      long: "-80.2426"
    - name: Miami Lakes
      region: FL
      lat: '25.9125'
      long: "-80.3214"
    - name: Miami Shores
      region: FL
      lat: '25.8670'
      long: "-80.1779"
    - name: Miami Springs
      region: FL
      lat: '25.8195'
      long: "-80.2894"
    - name: Micanopy
      region: FL
      lat: '29.5060'
      long: "-82.2806"
    - name: Micco
      region: FL
      lat: '27.8683'
      long: "-80.5100"
    - name: Miccosukee
      region: FL
      lat: '30.5931'
      long: "-84.0470"
    - name: Middleburg
      region: FL
      lat: '30.0502'
      long: "-81.9011"
    - name: Midway
      region: FL
      lat: '30.4995'
      long: "-84.4582"
    - name: Midway
      region: FL
      lat: '30.4169'
      long: "-87.0229"
    - name: Midway
      region: FL
      lat: '28.7924'
      long: "-81.2314"
    - name: Milton
      region: FL
      lat: '30.6286'
      long: "-87.0522"
    - name: Mims
      region: FL
      lat: '28.6929'
      long: "-80.8468"
    - name: Minneola
      region: FL
      lat: '28.6067'
      long: "-81.7322"
    - name: Miramar
      region: FL
      lat: '25.9773'
      long: "-80.3351"
    - name: Miramar Beach
      region: FL
      lat: '30.3854'
      long: "-86.3442"
    - name: Molino
      region: FL
      lat: '30.7123'
      long: "-87.3240"
    - name: Monticello
      region: FL
      lat: '30.5423'
      long: "-83.8722"
    - name: Montura
      region: FL
      lat: '26.6428'
      long: "-81.0937"
    - name: Montverde
      region: FL
      lat: '28.5971'
      long: "-81.6786"
    - name: Moon Lake
      region: FL
      lat: '28.2993'
      long: "-82.6050"
    - name: Moore Haven
      region: FL
      lat: '26.8338'
      long: "-81.0984"
    - name: Morriston
      region: FL
      lat: '29.2811'
      long: "-82.4400"
    - name: Mount Carmel
      region: FL
      lat: '30.9868'
      long: "-87.1210"
    - name: Mount Dora
      region: FL
      lat: '28.8142'
      long: "-81.6344"
    - name: Mount Plymouth
      region: FL
      lat: '28.8024'
      long: "-81.5351"
    - name: Mulat
      region: FL
      lat: '30.5595'
      long: "-87.1297"
    - name: Mulberry
      region: FL
      lat: '27.9058'
      long: "-81.9873"
    - name: Munson
      region: FL
      lat: '30.8418'
      long: "-86.8870"
    - name: Myrtle Grove
      region: FL
      lat: '30.4158'
      long: "-87.3027"
    - name: Naples
      region: FL
      lat: '26.1504'
      long: "-81.7936"
    - name: Naples Manor
      region: FL
      lat: '26.0892'
      long: "-81.7254"
    - name: Naples Park
      region: FL
      lat: '26.2633'
      long: "-81.8094"
    - name: Naranja
      region: FL
      lat: '25.5164'
      long: "-80.4222"
    - name: Nassau Village-Ratliff
      region: FL
      lat: '30.5108'
      long: "-81.8089"
    - name: Navarre
      region: FL
      lat: '30.4174'
      long: "-86.8907"
    - name: Navarre Beach
      region: FL
      lat: '30.3830'
      long: "-86.8874"
    - name: Neptune Beach
      region: FL
      lat: '30.3165'
      long: "-81.4118"
    - name: New Port Richey
      region: FL
      lat: '28.2468'
      long: "-82.7170"
    - name: New Port Richey East
      region: FL
      lat: '28.2605'
      long: "-82.6931"
    - name: New Smyrna Beach
      region: FL
      lat: '29.0249'
      long: "-80.9652"
    - name: Newberry
      region: FL
      lat: '29.6382'
      long: "-82.6061"
    - name: Niceville
      region: FL
      lat: '30.5290'
      long: "-86.4748"
    - name: Nobleton
      region: FL
      lat: '28.6451'
      long: "-82.2620"
    - name: Nocatee
      region: FL
      lat: '30.0927'
      long: "-81.4095"
    - name: Nokomis
      region: FL
      lat: '27.1241'
      long: "-82.4354"
    - name: Noma
      region: FL
      lat: '30.9802'
      long: "-85.6223"
    - name: North Bay Village
      region: FL
      lat: '25.8487'
      long: "-80.1535"
    - name: North Brooksville
      region: FL
      lat: '28.5731'
      long: "-82.3744"
    - name: North DeLand
      region: FL
      lat: '29.0484'
      long: "-81.2966"
    - name: North Fort Myers
      region: FL
      lat: '26.7244'
      long: "-81.8485"
    - name: North Key Largo
      region: FL
      lat: '25.2574'
      long: "-80.3242"
    - name: North Lauderdale
      region: FL
      lat: '26.2113'
      long: "-80.2209"
    - name: North Merritt Island
      region: FL
      lat: '28.4585'
      long: "-80.7162"
    - name: North Miami
      region: FL
      lat: '25.9008'
      long: "-80.1686"
    - name: North Miami Beach
      region: FL
      lat: '25.9302'
      long: "-80.1659"
    - name: North Palm Beach
      region: FL
      lat: '26.8217'
      long: "-80.0576"
    - name: North Port
      region: FL
      lat: '27.0576'
      long: "-82.1977"
    - name: North Redington Beach
      region: FL
      lat: '27.8213'
      long: "-82.8190"
    - name: North River Shores
      region: FL
      lat: '27.2223'
      long: "-80.2738"
    - name: North Sarasota
      region: FL
      lat: '27.3592'
      long: "-82.5213"
    - name: North Weeki Wachee
      region: FL
      lat: '28.5592'
      long: "-82.5537"
    - name: Northdale
      region: FL
      lat: '28.1058'
      long: "-82.5263"
    - name: Oak Hill
      region: FL
      lat: '28.8780'
      long: "-80.8347"
    - name: Oak Ridge
      region: FL
      lat: '28.4727'
      long: "-81.4169"
    - name: Oakland
      region: FL
      lat: '28.5535'
      long: "-81.6360"
    - name: Oakland Park
      region: FL
      lat: '26.1780'
      long: "-80.1528"
    - name: Oakleaf Plantation
      region: FL
      lat: '30.1689'
      long: "-81.8337"
    - name: Ocala
      region: FL
      lat: '29.1780'
      long: "-82.1511"
    - name: Ocala Estates
      region: FL
      lat: '29.2018'
      long: "-82.3098"
    - name: Ocean Breeze
      region: FL
      lat: '27.2411'
      long: "-80.2262"
    - name: Ocean City
      region: FL
      lat: '30.4398'
      long: "-86.6071"
    - name: Ocean Ridge
      region: FL
      lat: '26.5286'
      long: "-80.0499"
    - name: Ocklawaha
      region: FL
      lat: '29.0442'
      long: "-81.9339"
    - name: Ocoee
      region: FL
      lat: '28.5796'
      long: "-81.5332"
    - name: Odessa
      region: FL
      lat: '28.1821'
      long: "-82.5530"
    - name: Ojus
      region: FL
      lat: '25.9563'
      long: "-80.1606"
    - name: Okahumpka
      region: FL
      lat: '28.7459'
      long: "-81.8962"
    - name: Okeechobee
      region: FL
      lat: '27.2413'
      long: "-80.8298"
    - name: Old Miakka
      region: FL
      lat: '27.3199'
      long: "-82.2777"
    - name: Oldsmar
      region: FL
      lat: '28.0506'
      long: "-82.6698"
    - name: Olga
      region: FL
      lat: '26.7114'
      long: "-81.6950"
    - name: Olympia Heights
      region: FL
      lat: '25.7240'
      long: "-80.3388"
    - name: On Top of the World Designated Place
      region: FL
      lat: '29.1058'
      long: "-82.2866"
    - name: Ona
      region: FL
      lat: '27.4830'
      long: "-81.9097"
    - name: Opa-locka
      region: FL
      lat: '25.8997'
      long: "-80.2551"
    - name: Orange City
      region: FL
      lat: '28.9348'
      long: "-81.2881"
    - name: Orange Park
      region: FL
      lat: '30.1706'
      long: "-81.7041"
    - name: Orangetree
      region: FL
      lat: '26.2929'
      long: "-81.5786"
    - name: Orchid
      region: FL
      lat: '27.7733'
      long: "-80.4181"
    - name: Oriole Beach
      region: FL
      lat: '30.3670'
      long: "-87.0955"
    - name: Orlando
      region: FL
      lat: '28.4773'
      long: "-81.3370"
    - name: Orlovista
      region: FL
      lat: '28.5441'
      long: "-81.4629"
    - name: Ormond Beach
      region: FL
      lat: '29.2985'
      long: "-81.1014"
    - name: Ormond-by-the-Sea
      region: FL
      lat: '29.3437'
      long: "-81.0677"
    - name: Osprey
      region: FL
      lat: '27.1914'
      long: "-82.4800"
    - name: Otter Creek
      region: FL
      lat: '29.3238'
      long: "-82.7734"
    - name: Oviedo
      region: FL
      lat: '28.6580'
      long: "-81.1872"
    - name: Pace
      region: FL
      lat: '30.6188'
      long: "-87.1667"
    - name: Page Park
      region: FL
      lat: '26.5782'
      long: "-81.8614"
    - name: Pahokee
      region: FL
      lat: '26.8202'
      long: "-80.6621"
    - name: Paisley
      region: FL
      lat: '28.9850'
      long: "-81.5404"
    - name: Palatka
      region: FL
      lat: '29.6493'
      long: "-81.6705"
    - name: Palm Bay
      region: FL
      lat: '27.9631'
      long: "-80.6593"
    - name: Palm Beach
      region: FL
      lat: '26.6945'
      long: "-80.0408"
    - name: Palm Beach Gardens
      region: FL
      lat: '26.8466'
      long: "-80.1679"
    - name: Palm Beach Shores
      region: FL
      lat: '26.7775'
      long: "-80.0367"
    - name: Palm City
      region: FL
      lat: '27.1735'
      long: "-80.2862"
    - name: Palm Coast
      region: FL
      lat: '29.5389'
      long: "-81.2457"
    - name: Palm Harbor
      region: FL
      lat: '28.0847'
      long: "-82.7481"
    - name: Palm River-Clair Mel
      region: FL
      lat: '27.9239'
      long: "-82.3791"
    - name: Palm Shores
      region: FL
      lat: '28.1919'
      long: "-80.6594"
    - name: Palm Springs
      region: FL
      lat: '26.6348'
      long: "-80.0969"
    - name: Palm Springs North
      region: FL
      lat: '25.9351'
      long: "-80.3339"
    - name: Palm Valley
      region: FL
      lat: '30.2011'
      long: "-81.3948"
    - name: Palmer Ranch
      region: FL
      lat: '27.2286'
      long: "-82.4672"
    - name: Palmetto
      region: FL
      lat: '27.5251'
      long: "-82.5749"
    - name: Palmetto Bay
      region: FL
      lat: '25.6219'
      long: "-80.3221"
    - name: Palmetto Estates
      region: FL
      lat: '25.6211'
      long: "-80.3616"
    - name: Palmona Park
      region: FL
      lat: '26.6892'
      long: "-81.8945"
    - name: Panacea
      region: FL
      lat: '30.0282'
      long: "-84.3936"
    - name: Panama City
      region: FL
      lat: '30.1995'
      long: "-85.6003"
    - name: Panama City Beach
      region: FL
      lat: '30.2370'
      long: "-85.8776"
    - name: Paradise Heights
      region: FL
      lat: '28.6237'
      long: "-81.5439"
    - name: Parker
      region: FL
      lat: '30.1289'
      long: "-85.6008"
    - name: Parkland
      region: FL
      lat: '26.3219'
      long: "-80.2533"
    - name: Pasadena Hills
      region: FL
      lat: '28.2881'
      long: "-82.2380"
    - name: Patrick AFB
      region: FL
      lat: '28.2346'
      long: "-80.6079"
    - name: Paxton
      region: FL
      lat: '30.9746'
      long: "-86.3099"
    - name: Pea Ridge
      region: FL
      lat: '30.6030'
      long: "-87.1022"
    - name: Pebble Creek
      region: FL
      lat: '28.1583'
      long: "-82.3411"
    - name: Pelican Bay
      region: FL
      lat: '26.2327'
      long: "-81.8108"
    - name: Pelican Marsh
      region: FL
      lat: '26.2545'
      long: "-81.7861"
    - name: Pembroke Park
      region: FL
      lat: '25.9852'
      long: "-80.1777"
    - name: Pembroke Pines
      region: FL
      lat: '26.0128'
      long: "-80.3382"
    - name: Penney Farms
      region: FL
      lat: '29.9807'
      long: "-81.8108"
    - name: Pensacola
      region: FL
      lat: '30.4413'
      long: "-87.1911"
    - name: Pensacola Station
      region: FL
      lat: '30.3541'
      long: "-87.3050"
    - name: Perry
      region: FL
      lat: '30.1090'
      long: "-83.5821"
    - name: Pierson
      region: FL
      lat: '29.2401'
      long: "-81.4559"
    - name: Pine Air
      region: FL
      lat: '26.6586'
      long: "-80.1075"
    - name: Pine Castle
      region: FL
      lat: '28.4651'
      long: "-81.3741"
    - name: Pine Hills
      region: FL
      lat: '28.5818'
      long: "-81.4692"
    - name: Pine Island
      region: FL
      lat: '28.5727'
      long: "-82.6546"
    - name: Pine Island Center
      region: FL
      lat: '26.6351'
      long: "-82.1253"
    - name: Pine Lakes
      region: FL
      lat: '28.9390'
      long: "-81.4308"
    - name: Pine Level
      region: FL
      lat: '30.8887'
      long: "-87.1687"
    - name: Pine Manor
      region: FL
      lat: '26.5730'
      long: "-81.8774"
    - name: Pine Ridge
      region: FL
      lat: '28.9330'
      long: "-82.4761"
    - name: Pinecraft
      region: FL
      lat: '27.3229'
      long: "-82.4999"
    - name: Pinecrest
      region: FL
      lat: '25.6650'
      long: "-80.3042"
    - name: Pineland
      region: FL
      lat: '26.6642'
      long: "-82.1477"
    - name: Pinellas Park
      region: FL
      lat: '27.8589'
      long: "-82.7078"
    - name: Pinewood
      region: FL
      lat: '25.8697'
      long: "-80.2174"
    - name: Pioneer
      region: FL
      lat: '26.7257'
      long: "-81.2190"
    - name: Pittman
      region: FL
      lat: '28.9967'
      long: "-81.6462"
    - name: Plant City
      region: FL
      lat: '28.0140'
      long: "-82.1201"
    - name: Plantation
      region: FL
      lat: '26.1259'
      long: "-80.2617"
    - name: Plantation Island
      region: FL
      lat: '25.8475'
      long: "-81.3757"
    - name: Poinciana
      region: FL
      lat: '28.1217'
      long: "-81.4821"
    - name: Point Baker
      region: FL
      lat: '30.6855'
      long: "-87.0522"
    - name: Polk City
      region: FL
      lat: '28.1805'
      long: "-81.8296"
    - name: Pomona Park
      region: FL
      lat: '29.5015'
      long: "-81.5936"
    - name: Pompano Beach
      region: FL
      lat: '26.2428'
      long: "-80.1312"
    - name: Ponce Inlet
      region: FL
      lat: '29.0927'
      long: "-80.9472"
    - name: Ponce de Leon
      region: FL
      lat: '30.7234'
      long: "-85.9374"
    - name: Port Charlotte
      region: FL
      lat: '26.9918'
      long: "-82.1140"
    - name: Port LaBelle
      region: FL
      lat: '26.7565'
      long: "-81.3827"
    - name: Port Orange
      region: FL
      lat: '29.1085'
      long: "-81.0137"
    - name: Port Richey
      region: FL
      lat: '28.2759'
      long: "-82.7254"
    - name: Port Salerno
      region: FL
      lat: '27.1461'
      long: "-80.1894"
    - name: Port St. Joe
      region: FL
      lat: '29.8274'
      long: "-85.3075"
    - name: Port St. John
      region: FL
      lat: '28.4757'
      long: "-80.8104"
    - name: Port St. Lucie
      region: FL
      lat: '27.2796'
      long: "-80.3884"
    - name: Pretty Bayou
      region: FL
      lat: '30.1976'
      long: "-85.6974"
    - name: Princeton
      region: FL
      lat: '25.5396'
      long: "-80.3971"
    - name: Progress Village
      region: FL
      lat: '27.8831'
      long: "-82.3593"
    - name: Punta Gorda
      region: FL
      lat: '26.8941'
      long: "-82.0513"
    - name: Punta Rassa
      region: FL
      lat: '26.5036'
      long: "-81.9998"
    - name: Quail Ridge
      region: FL
      lat: '28.3451'
      long: "-82.5535"
    - name: Quincy
      region: FL
      lat: '30.5661'
      long: "-84.5858"
    - name: Raiford
      region: FL
      lat: '30.0638'
      long: "-82.2391"
    - name: Rainbow Lakes Estates
      region: FL
      lat: '29.1580'
      long: "-82.5099"
    - name: Rainbow Park
      region: FL
      lat: '29.1654'
      long: "-82.3640"
    - name: Rainbow Springs
      region: FL
      lat: '29.0940'
      long: "-82.4408"
    - name: Raleigh
      region: FL
      lat: '29.4479'
      long: "-82.4680"
    - name: Reddick
      region: FL
      lat: '29.3687'
      long: "-82.1976"
    - name: Redington Beach
      region: FL
      lat: '27.8128'
      long: "-82.8096"
    - name: Redington Shores
      region: FL
      lat: '27.8293'
      long: "-82.8277"
    - name: Richmond Heights
      region: FL
      lat: '25.6347'
      long: "-80.3721"
    - name: Richmond West
      region: FL
      lat: '25.6105'
      long: "-80.4297"
    - name: Ridge Manor
      region: FL
      lat: '28.4988'
      long: "-82.1832"
    - name: Ridge Wood Heights
      region: FL
      lat: '27.2874'
      long: "-82.5137"
    - name: Ridgecrest
      region: FL
      lat: '27.8923'
      long: "-82.8074"
    - name: Rio
      region: FL
      lat: '27.2160'
      long: "-80.2401"
    - name: Rio Pinar
      region: FL
      lat: '28.5271'
      long: "-81.2628"
    - name: River Park
      region: FL
      lat: '27.3214'
      long: "-80.3308"
    - name: River Ridge
      region: FL
      lat: '28.2669'
      long: "-82.6257"
    - name: Riverview
      region: FL
      lat: '27.8227'
      long: "-82.3023"
    - name: Riviera Beach
      region: FL
      lat: '26.7813'
      long: "-80.0741"
    - name: Rockledge
      region: FL
      lat: '28.3203'
      long: "-80.7360"
    - name: Roeville
      region: FL
      lat: '30.6836'
      long: "-86.9927"
    - name: Roosevelt Gardens
      region: FL
      lat: '26.1406'
      long: "-80.1810"
    - name: Roseland
      region: FL
      lat: '27.8360'
      long: "-80.4885"
    - name: Rotonda
      region: FL
      lat: '26.8844'
      long: "-82.2791"
    - name: Royal Palm Beach
      region: FL
      lat: '26.7038'
      long: "-80.2241"
    - name: Royal Palm Estates
      region: FL
      lat: '26.6817'
      long: "-80.1328"
    - name: Ruskin
      region: FL
      lat: '27.7065'
      long: "-82.4209"
    - name: Safety Harbor
      region: FL
      lat: '28.0080'
      long: "-82.6964"
    - name: Samoset
      region: FL
      lat: '27.4764'
      long: "-82.5430"
    - name: Samsula-Spruce Creek
      region: FL
      lat: '29.0484'
      long: "-81.0628"
    - name: San Antonio
      region: FL
      lat: '28.3395'
      long: "-82.2786"
    - name: San Carlos Park
      region: FL
      lat: '26.4765'
      long: "-81.8193"
    - name: San Castle
      region: FL
      lat: '26.5652'
      long: "-80.0611"
    - name: Sanford
      region: FL
      lat: '28.7891'
      long: "-81.2757"
    - name: Sanibel
      region: FL
      lat: '26.4534'
      long: "-82.1023"
    - name: Sarasota
      region: FL
      lat: '27.3387'
      long: "-82.5432"
    - name: Sarasota Springs
      region: FL
      lat: '27.3087'
      long: "-82.4746"
    - name: Satellite Beach
      region: FL
      lat: '28.1782'
      long: "-80.6019"
    - name: Sawgrass
      region: FL
      lat: '30.1900'
      long: "-81.3704"
    - name: Schall Circle
      region: FL
      lat: '26.7153'
      long: "-80.1144"
    - name: Scottsmoor
      region: FL
      lat: '28.7680'
      long: "-80.8710"
    - name: Sea Ranch Lakes
      region: FL
      lat: '26.2007'
      long: "-80.0981"
    - name: Sebastian
      region: FL
      lat: '27.7822'
      long: "-80.4819"
    - name: Sebring
      region: FL
      lat: '27.4770'
      long: "-81.4530"
    - name: Seffner
      region: FL
      lat: '27.9981'
      long: "-82.2735"
    - name: Seminole
      region: FL
      lat: '27.8435'
      long: "-82.7840"
    - name: Seminole Manor
      region: FL
      lat: '26.5836'
      long: "-80.1014"
    - name: Seville
      region: FL
      lat: '29.3364'
      long: "-81.5066"
    - name: Sewall's Point
      region: FL
      lat: '27.1971'
      long: "-80.1982"
    - name: Shady Hills
      region: FL
      lat: '28.4042'
      long: "-82.5468"
    - name: Shalimar
      region: FL
      lat: '30.4435'
      long: "-86.5830"
    - name: Sharpes
      region: FL
      lat: '28.4381'
      long: "-80.7552"
    - name: Siesta Key
      region: FL
      lat: '27.2779'
      long: "-82.5516"
    - name: Silver Lake
      region: FL
      lat: '28.8426'
      long: "-81.8009"
    - name: Silver Springs
      region: FL
      lat: '29.2191'
      long: "-82.0558"
    - name: Silver Springs Shores
      region: FL
      lat: '29.1126'
      long: "-82.0149"
    - name: Silver Springs Shores East
      region: FL
      lat: '29.0496'
      long: "-81.8875"
    - name: Sky Lake
      region: FL
      lat: '28.4611'
      long: "-81.3913"
    - name: Sneads
      region: FL
      lat: '30.7085'
      long: "-84.9249"
    - name: Solana
      region: FL
      lat: '26.9388'
      long: "-82.0277"
    - name: Sopchoppy
      region: FL
      lat: '30.0598'
      long: "-84.4854"
    - name: Sorrento
      region: FL
      lat: '28.8087'
      long: "-81.5632"
    - name: South Apopka
      region: FL
      lat: '28.6570'
      long: "-81.5058"
    - name: South Bay
      region: FL
      lat: '26.6770'
      long: "-80.7265"
    - name: South Beach
      region: FL
      lat: '27.5883'
      long: "-80.3435"
    - name: South Bradenton
      region: FL
      lat: '27.4612'
      long: "-82.5822"
    - name: South Brooksville
      region: FL
      lat: '28.5243'
      long: "-82.4159"
    - name: South Daytona
      region: FL
      lat: '29.1657'
      long: "-81.0055"
    - name: South Gate Ridge
      region: FL
      lat: '27.2856'
      long: "-82.4970"
    - name: South Highpoint
      region: FL
      lat: '27.9086'
      long: "-82.7162"
    - name: South Miami
      region: FL
      lat: '25.7079'
      long: "-80.2952"
    - name: South Miami Heights
      region: FL
      lat: '25.5886'
      long: "-80.3862"
    - name: South Palm Beach
      region: FL
      lat: '26.5898'
      long: "-80.0390"
    - name: South Pasadena
      region: FL
      lat: '27.7526'
      long: "-82.7394"
    - name: South Patrick Shores
      region: FL
      lat: '28.2020'
      long: "-80.6137"
    - name: South Sarasota
      region: FL
      lat: '27.2857'
      long: "-82.5332"
    - name: South Venice
      region: FL
      lat: '27.0444'
      long: "-82.4155"
    - name: Southchase
      region: FL
      lat: '28.3793'
      long: "-81.3903"
    - name: Southeast Arcadia
      region: FL
      lat: '27.1862'
      long: "-81.8521"
    - name: Southgate
      region: FL
      lat: '27.3066'
      long: "-82.5107"
    - name: Southwest Ranches
      region: FL
      lat: '26.0476'
      long: "-80.3751"
    - name: Spring Hill
      region: FL
      lat: '28.4798'
      long: "-82.5300"
    - name: Spring Lake
      region: FL
      lat: '28.4952'
      long: "-82.3017"
    - name: Spring Ridge
      region: FL
      lat: '29.8218'
      long: "-82.7245"
    - name: Springfield
      region: FL
      lat: '30.1711'
      long: "-85.6090"
    - name: St. Augustine
      region: FL
      lat: '29.8976'
      long: "-81.3100"
    - name: St. Augustine Beach
      region: FL
      lat: '29.8415'
      long: "-81.2713"
    - name: St. Augustine Shores
      region: FL
      lat: '29.8039'
      long: "-81.3086"
    - name: St. Augustine South
      region: FL
      lat: '29.8449'
      long: "-81.3156"
    - name: St. Cloud
      region: FL
      lat: '28.2363'
      long: "-81.2779"
    - name: St. George Island
      region: FL
      lat: '29.6520'
      long: "-84.8881"
    - name: St. James City
      region: FL
      lat: '26.5506'
      long: "-82.0979"
    - name: St. Leo
      region: FL
      lat: '28.3363'
      long: "-82.2588"
    - name: St. Lucie Village
      region: FL
      lat: '27.4967'
      long: "-80.3417"
    - name: St. Marks
      region: FL
      lat: '30.1656'
      long: "-84.2078"
    - name: St. Pete Beach
      region: FL
      lat: '27.7235'
      long: "-82.7387"
    - name: St. Petersburg
      region: FL
      lat: '27.7931'
      long: "-82.6652"
    - name: Stacey Street
      region: FL
      lat: '26.6978'
      long: "-80.1239"
    - name: Starke
      region: FL
      lat: '29.9474'
      long: "-82.1129"
    - name: Steinhatchee
      region: FL
      lat: '29.6795'
      long: "-83.3837"
    - name: Stock Island
      region: FL
      lat: '24.5658'
      long: "-81.7351"
    - name: Stuart
      region: FL
      lat: '27.1959'
      long: "-80.2444"
    - name: Sugarmill Woods
      region: FL
      lat: '28.7299'
      long: "-82.5010"
    - name: Sumatra
      region: FL
      lat: '30.0230'
      long: "-84.9825"
    - name: Sun City Center
      region: FL
      lat: '27.7150'
      long: "-82.3569"
    - name: Suncoast Estates
      region: FL
      lat: '26.7123'
      long: "-81.8684"
    - name: Sunny Isles Beach
      region: FL
      lat: '25.9385'
      long: "-80.1246"
    - name: Sunrise
      region: FL
      lat: '26.1547'
      long: "-80.2997"
    - name: Sunset
      region: FL
      lat: '25.7060'
      long: "-80.3530"
    - name: Surfside
      region: FL
      lat: '25.8787'
      long: "-80.1250"
    - name: Sweetwater
      region: FL
      lat: '25.7785'
      long: "-80.3760"
    - name: Taft
      region: FL
      lat: '28.4283'
      long: "-81.3677"
    - name: Tallahassee
      region: FL
      lat: '30.4551'
      long: "-84.2527"
    - name: Tamarac
      region: FL
      lat: '26.2056'
      long: "-80.2539"
    - name: Tamiami
      region: FL
      lat: '25.7556'
      long: "-80.4016"
    - name: Tampa
      region: FL
      lat: '27.9945'
      long: "-82.4447"
    - name: Tangelo Park
      region: FL
      lat: '28.4560'
      long: "-81.4465"
    - name: Tangerine
      region: FL
      lat: '28.7590'
      long: "-81.6341"
    - name: Tarpon Springs
      region: FL
      lat: '28.1493'
      long: "-82.7623"
    - name: Tavares
      region: FL
      lat: '28.7920'
      long: "-81.7352"
    - name: Tavernier
      region: FL
      lat: '25.0188'
      long: "-80.5132"
    - name: Taylor Creek
      region: FL
      lat: '27.2173'
      long: "-80.7925"
    - name: Temple Terrace
      region: FL
      lat: '28.0436'
      long: "-82.3773"
    - name: Tequesta
      region: FL
      lat: '26.9618'
      long: "-80.1011"
    - name: The Acreage
      region: FL
      lat: '26.7740'
      long: "-80.2779"
    - name: The Crossings
      region: FL
      lat: '25.6708'
      long: "-80.4018"
    - name: The Hammocks
      region: FL
      lat: '25.6700'
      long: "-80.4482"
    - name: The Meadows
      region: FL
      lat: '27.3647'
      long: "-82.4716"
    - name: The Villages
      region: FL
      lat: '28.9034'
      long: "-81.9887"
    - name: Thonotosassa
      region: FL
      lat: '28.0464'
      long: "-82.2910"
    - name: Three Lakes
      region: FL
      lat: '25.6415'
      long: "-80.4000"
    - name: Three Oaks
      region: FL
      lat: '26.4724'
      long: "-81.7959"
    - name: Tice
      region: FL
      lat: '26.6756'
      long: "-81.8166"
    - name: Tierra Verde
      region: FL
      lat: '27.6687'
      long: "-82.7299"
    - name: Tiger Point
      region: FL
      lat: '30.3757'
      long: "-87.0573"
    - name: Tildenville
      region: FL
      lat: '28.5384'
      long: "-81.6025"
    - name: Timber Pines
      region: FL
      lat: '28.4690'
      long: "-82.5999"
    - name: Titusville
      region: FL
      lat: '28.5727'
      long: "-80.8193"
    - name: Town 'n' Country
      region: FL
      lat: '28.0106'
      long: "-82.5763"
    - name: Treasure Island
      region: FL
      lat: '27.7740'
      long: "-82.7663"
    - name: Trenton
      region: FL
      lat: '29.6092'
      long: "-82.8147"
    - name: Trilby
      region: FL
      lat: '28.4564'
      long: "-82.1940"
    - name: Trinity
      region: FL
      lat: '28.1809'
      long: "-82.6582"
    - name: Tropical Park
      region: FL
      lat: '28.3805'
      long: "-80.7075"
    - name: Tyndall AFB
      region: FL
      lat: '30.0856'
      long: "-85.6075"
    - name: Umatilla
      region: FL
      lat: '28.9273'
      long: "-81.6650"
    - name: Union Park
      region: FL
      lat: '28.5657'
      long: "-81.2355"
    - name: University
      region: FL
      lat: '28.0771'
      long: "-82.4335"
    - name: Upper Grand Lagoon
      region: FL
      lat: '30.1690'
      long: "-85.7407"
    - name: Valparaiso
      region: FL
      lat: '30.4926'
      long: "-86.5079"
    - name: Valrico
      region: FL
      lat: '27.9193'
      long: "-82.2293"
    - name: Vamo
      region: FL
      lat: '27.2219'
      long: "-82.4988"
    - name: Venice
      region: FL
      lat: '27.1184'
      long: "-82.4137"
    - name: Venice Gardens
      region: FL
      lat: '27.0739'
      long: "-82.4125"
    - name: Verandah
      region: FL
      lat: '26.6973'
      long: "-81.7429"
    - name: Vernon
      region: FL
      lat: '30.6197'
      long: "-85.7062"
    - name: Vero Beach
      region: FL
      lat: '27.6463'
      long: "-80.3930"
    - name: Vero Beach South
      region: FL
      lat: '27.6132'
      long: "-80.4163"
    - name: Vero Lake Estates
      region: FL
      lat: '27.7471'
      long: "-80.5283"
    - name: Verona Walk
      region: FL
      lat: '26.0860'
      long: "-81.6798"
    - name: Viera East
      region: FL
      lat: '28.2613'
      long: "-80.7149"
    - name: Viera West
      region: FL
      lat: '28.2467'
      long: "-80.7387"
    - name: Villas
      region: FL
      lat: '26.5504'
      long: "-81.8678"
    - name: Vineyards
      region: FL
      lat: '26.2279'
      long: "-81.7280"
    - name: Virginia Gardens
      region: FL
      lat: '25.8095'
      long: "-80.2974"
    - name: Wabasso
      region: FL
      lat: '27.7486'
      long: "-80.4421"
    - name: Wabasso Beach
      region: FL
      lat: '27.7569'
      long: "-80.3991"
    - name: Wacissa
      region: FL
      lat: '30.3566'
      long: "-83.9937"
    - name: Wahneta
      region: FL
      lat: '27.9574'
      long: "-81.7287"
    - name: Waldo
      region: FL
      lat: '29.7925'
      long: "-82.1663"
    - name: Wallace
      region: FL
      lat: '30.6746'
      long: "-87.1996"
    - name: Warm Mineral Springs
      region: FL
      lat: '27.0472'
      long: "-82.2702"
    - name: Warrington
      region: FL
      lat: '30.3835'
      long: "-87.2946"
    - name: Washington Park
      region: FL
      lat: '26.1325'
      long: "-80.1824"
    - name: Watergate
      region: FL
      lat: '26.3359'
      long: "-80.2125"
    - name: Watertown
      region: FL
      lat: '30.1856'
      long: "-82.6026"
    - name: Wauchula
      region: FL
      lat: '27.5469'
      long: "-81.8102"
    - name: Waukeenah
      region: FL
      lat: '30.4020'
      long: "-83.9600"
    - name: Wausau
      region: FL
      lat: '30.6334'
      long: "-85.5874"
    - name: Waverly
      region: FL
      lat: '27.9843'
      long: "-81.6199"
    - name: Webster
      region: FL
      lat: '28.6114'
      long: "-82.0493"
    - name: Wedgefield
      region: FL
      lat: '28.4847'
      long: "-81.0809"
    - name: Weeki Wachee Gardens
      region: FL
      lat: '28.5375'
      long: "-82.6208"
    - name: Wekiwa Springs
      region: FL
      lat: '28.6984'
      long: "-81.4251"
    - name: Welaka
      region: FL
      lat: '29.4822'
      long: "-81.6658"
    - name: Wellington
      region: FL
      lat: '26.6461'
      long: "-80.2699"
    - name: Wesley Chapel
      region: FL
      lat: '28.2106'
      long: "-82.3238"
    - name: West Bradenton
      region: FL
      lat: '27.5016'
      long: "-82.6146"
    - name: West Canaveral Groves
      region: FL
      lat: '28.3928'
      long: "-80.8459"
    - name: West DeLand
      region: FL
      lat: '29.0162'
      long: "-81.3343"
    - name: West Lealman
      region: FL
      lat: '27.8192'
      long: "-82.7384"
    - name: West Little River
      region: FL
      lat: '25.8571'
      long: "-80.2367"
    - name: West Melbourne
      region: FL
      lat: '28.0694'
      long: "-80.6736"
    - name: West Miami
      region: FL
      lat: '25.7578'
      long: "-80.2969"
    - name: West Palm Beach
      region: FL
      lat: '26.7469'
      long: "-80.1320"
    - name: West Park
      region: FL
      lat: '25.9840'
      long: "-80.1923"
    - name: West Pensacola
      region: FL
      lat: '30.4263'
      long: "-87.2679"
    - name: West Perrine
      region: FL
      lat: '25.6061'
      long: "-80.3639"
    - name: West Samoset
      region: FL
      lat: '27.4702'
      long: "-82.5552"
    - name: West Vero Corridor
      region: FL
      lat: '27.6363'
      long: "-80.4844"
    - name: Westchase
      region: FL
      lat: '28.0597'
      long: "-82.6110"
    - name: Westchester
      region: FL
      lat: '25.7471'
      long: "-80.3523"
    - name: Westgate
      region: FL
      lat: '26.6994'
      long: "-80.0989"
    - name: Westlake
      region: FL
      lat: '26.7549'
      long: "-80.2984"
    - name: Weston
      region: FL
      lat: '26.1006'
      long: "-80.4054"
    - name: Westview
      region: FL
      lat: '25.8825'
      long: "-80.2415"
    - name: Westville
      region: FL
      lat: '30.7697'
      long: "-85.8465"
    - name: Westwood Lakes
      region: FL
      lat: '25.7237'
      long: "-80.3717"
    - name: Wewahitchka
      region: FL
      lat: '30.1148'
      long: "-85.1935"
    - name: Whiskey Creek
      region: FL
      lat: '26.5733'
      long: "-81.8903"
    - name: White City
      region: FL
      lat: '27.3721'
      long: "-80.3404"
    - name: White Springs
      region: FL
      lat: '30.3317'
      long: "-82.7562"
    - name: Whitfield
      region: FL
      lat: '27.4116'
      long: "-82.5659"
    - name: Wildwood
      region: FL
      lat: '28.7752'
      long: "-82.0075"
    - name: Williamsburg
      region: FL
      lat: '28.4014'
      long: "-81.4462"
    - name: Williston
      region: FL
      lat: '29.3740'
      long: "-82.4579"
    - name: Williston Highlands
      region: FL
      lat: '29.3336'
      long: "-82.5357"
    - name: Willow Oak
      region: FL
      lat: '27.9216'
      long: "-82.0244"
    - name: Wilton Manors
      region: FL
      lat: '26.1593'
      long: "-80.1395"
    - name: Wimauma
      region: FL
      lat: '27.6964'
      long: "-82.3034"
    - name: Windermere
      region: FL
      lat: '28.5028'
      long: "-81.5377"
    - name: Winding Cypress
      region: FL
      lat: '26.0641'
      long: "-81.6782"
    - name: Windsor
      region: FL
      lat: '27.7869'
      long: "-80.4141"
    - name: Winter Beach
      region: FL
      lat: '27.7120'
      long: "-80.4254"
    - name: Winter Garden
      region: FL
      lat: '28.5421'
      long: "-81.5967"
    - name: Winter Haven
      region: FL
      lat: '28.0118'
      long: "-81.7014"
    - name: Winter Park
      region: FL
      lat: '28.5989'
      long: "-81.3442"
    - name: Winter Springs
      region: FL
      lat: '28.6889'
      long: "-81.2703"
    - name: Wiscon
      region: FL
      lat: '28.5409'
      long: "-82.4664"
    - name: Woodlawn Beach
      region: FL
      lat: '30.3865'
      long: "-86.9944"
    - name: Woodville
      region: FL
      lat: '30.3120'
      long: "-84.2611"
    - name: World Golf Village
      region: FL
      lat: '29.9654'
      long: "-81.4896"
    - name: Worthington Springs
      region: FL
      lat: '29.9330'
      long: "-82.4149"
    - name: Wright
      region: FL
      lat: '30.4445'
      long: "-86.6419"
    - name: Yalaha
      region: FL
      lat: '28.7510'
      long: "-81.8194"
    - name: Yankeetown
      region: FL
      lat: '29.0334'
      long: "-82.7326"
    - name: Yeehaw Junction
      region: FL
      lat: '27.6993'
      long: "-80.8871"
    - name: Yulee
      region: FL
      lat: '30.6350'
      long: "-81.5678"
    - name: Zellwood
      region: FL
      lat: '28.7294'
      long: "-81.5895"
    - name: Zephyrhills
      region: FL
      lat: '28.2409'
      long: "-82.1797"
    - name: Zephyrhills North
      region: FL
      lat: '28.2520'
      long: "-82.1654"
    - name: Zephyrhills South
      region: FL
      lat: '28.2152'
      long: "-82.1886"
    - name: Zephyrhills West
      region: FL
      lat: '28.2311'
      long: "-82.2052"
    - name: Zolfo Springs
      region: FL
      lat: '27.4926'
      long: "-81.7869"
