---
cities:
- country: US
  region: IL
  name: Abingdon
  lat: '40.8038'
  long: "-90.4009"
  closest_rate_centers:
  - name: Abingdon
    distance:
      value: 0.61
      units: km
  - name: Cameron
    distance:
      value: 13.63
      units: km
  - name: London Mills
    distance:
      value: 15.13
      units: km
- country: US
  region: IL
  name: Adair
  lat: '40.4183'
  long: "-90.4974"
  closest_rate_centers:
  - name: Adair
    distance:
      value: 1.1
      units: km
  - name: Table Grove
    distance:
      value: 8.42
      units: km
  - name: Bardolph
    distance:
      value: 10.52
      units: km
- country: US
  region: IL
  name: Adams
  lat: '39.8708'
  long: "-91.1998"
  closest_rate_centers:
  - name: Burton
    distance:
      value: 5.48
      units: km
  - name: Payson
    distance:
      value: 6.98
      units: km
  - name: Liberty
    distance:
      value: 7.73
      units: km
- country: US
  region: IL
  name: Addieville
  lat: '38.3913'
  long: "-89.4865"
  closest_rate_centers:
  - name: Addieville
    distance:
      value: 0.27
      units: km
  - name: Okawville
    distance:
      value: 7.66
      units: km
  - name: Nashville
    distance:
      value: 10.45
      units: km
- country: US
  region: IL
  name: Addison
  lat: '41.9313'
  long: "-88.0085"
  closest_rate_centers:
  - name: Itasca
    distance:
      value: 4.64
      units: km
  - name: Lombard
    distance:
      value: 5.34
      units: km
  - name: Elmhurst
    distance:
      value: 6.39
      units: km
- country: US
  region: IL
  name: Adeline
  lat: '42.1406'
  long: "-89.4919"
  closest_rate_centers:
  - name: Forreston
    distance:
      value: 7.08
      units: km
  - name: Leaf River
    distance:
      value: 7.45
      units: km
  - name: German Valley
    distance:
      value: 8.64
      units: km
- country: US
  region: IL
  name: Albany
  lat: '41.7861'
  long: "-90.2163"
  closest_rate_centers:
  - name: Albany
    distance:
      value: 0.54
      units: km
  - name: Fulton
    distance:
      value: 10.9
      units: km
  - name: Cordova
    distance:
      value: 14.47
      units: km
- country: US
  region: IL
  name: Albers
  lat: '38.5452'
  long: "-89.6142"
  closest_rate_centers:
  - name: Albers
    distance:
      value: 0.51
      units: km
  - name: Germantown
    distance:
      value: 6.47
      units: km
  - name: Aviston
    distance:
      value: 7.56
      units: km
- country: US
  region: IL
  name: Albion
  lat: '38.3766'
  long: "-88.0580"
  closest_rate_centers:
  - name: Albion
    distance:
      value: 0.26
      units: km
  - name: Browns
    distance:
      value: 7.1
      units: km
  - name: Bellmont (Wabash)
    distance:
      value: 12.85
      units: km
- country: US
  region: IL
  name: Alden
  lat: '42.4588'
  long: "-88.5184"
  closest_rate_centers:
  - name: Hebron
    distance:
      value: 7.02
      units: km
  - name: Harvard
    distance:
      value: 8.39
      units: km
  - name: Woodstock
    distance:
      value: 16.57
      units: km
- country: US
  region: IL
  name: Aledo
  lat: '41.1990'
  long: "-90.7459"
  closest_rate_centers:
  - name: Aledo
    distance:
      value: 0.33
      units: km
  - name: Joy
    distance:
      value: 11.13
      units: km
  - name: Seaton
    distance:
      value: 11.69
      units: km
- country: US
  region: IL
  name: Alexander
  lat: '39.7218'
  long: "-90.0368"
  closest_rate_centers:
  - name: Alexander
    distance:
      value: 0.01
      units: km
  - name: New Berlin
    distance:
      value: 10.94
      units: km
  - name: Franklin
    distance:
      value: 11.74
      units: km
- country: US
  region: IL
  name: Alexis
  lat: '41.0630'
  long: "-90.5555"
  closest_rate_centers:
  - name: Alexis
    distance:
      value: 0.15
      units: km
  - name: North Henderson
    distance:
      value: 7.34
      units: km
  - name: Rio
    distance:
      value: 14.17
      units: km
  - name: Rio (Oneida Telephone)
    distance:
      value: 14.17
      units: km
- country: US
  region: IL
  name: Algonquin
  lat: '42.1629'
  long: "-88.3159"
  closest_rate_centers:
  - name: Algonquin
    distance:
      value: 2.2
      units: km
  - name: Dundee
    distance:
      value: 7.75
      units: km
  - name: Poplar Creek
    distance:
      value: 7.75
      units: km
  - name: Cary
    distance:
      value: 8.1
      units: km
- country: US
  region: IL
  name: Alhambra
  lat: '38.8878'
  long: "-89.7362"
  closest_rate_centers:
  - name: Alhambra
    distance:
      value: 0.61
      units: km
  - name: Grantfork
    distance:
      value: 8.51
      units: km
  - name: Hamel
    distance:
      value: 9.22
      units: km
- country: US
  region: IL
  name: Allendale
  lat: '38.5276'
  long: "-87.7103"
  closest_rate_centers:
  - name: Allendale
    distance:
      value: 0.16
      units: km
  - name: St Francisville
    distance:
      value: 9.13
      units: km
  - name: Mount Carmel
    distance:
      value: 13.58
      units: km
- country: US
  region: IL
  name: Allenville
  lat: '39.5583'
  long: "-88.5387"
  closest_rate_centers:
  - name: Sullivan
    distance:
      value: 7.68
      units: km
  - name: Kirksville
    distance:
      value: 11.35
      units: km
  - name: Gays
    distance:
      value: 12.09
      units: km
- country: US
  region: IL
  name: Allerton
  lat: '39.9161'
  long: "-87.9353"
  closest_rate_centers:
  - name: Broadlands
    distance:
      value: 5.22
      units: km
  - name: Sidell
    distance:
      value: 9.17
      units: km
  - name: Newman
    distance:
      value: 13.21
      units: km
- country: US
  region: IL
  name: Alma
  lat: '38.7229'
  long: "-88.9118"
  closest_rate_centers:
  - name: Kinmundy
    distance:
      value: 7.78
      units: km
  - name: Salem
    distance:
      value: 10.77
      units: km
  - name: Iuka
    distance:
      value: 16.0
      units: km
- country: US
  region: IL
  name: Alpha
  lat: '41.1915'
  long: "-90.3805"
  closest_rate_centers:
  - name: Alpha
    distance:
      value: 0.44
      units: km
  - name: New Windsor
    distance:
      value: 5.37
      units: km
  - name: Woodhull
    distance:
      value: 6.12
      units: km
- country: US
  region: IL
  name: Alsey
  lat: '39.5592'
  long: "-90.4328"
  closest_rate_centers:
  - name: Winchester
    distance:
      value: 8.68
      units: km
  - name: Manchester
    distance:
      value: 9.44
      units: km
  - name: Patterson
    distance:
      value: 9.8
      units: km
- country: US
  region: IL
  name: Alsip
  lat: '41.6701'
  long: "-87.7368"
  closest_rate_centers:
  - name: Blue Island
    distance:
      value: 5.04
      units: km
  - name: Hickory Hills
    distance:
      value: 5.72
      units: km
  - name: Oak Lawn
    distance:
      value: 5.72
      units: km
  - name: Oak Forest South
    distance:
      value: 6.4
      units: km
- country: US
  region: IL
  name: Altamont
  lat: '39.0566'
  long: "-88.7477"
  closest_rate_centers:
  - name: Altamont
    distance:
      value: 0.7
      units: km
  - name: St Elmo
    distance:
      value: 9.3
      units: km
  - name: Beecher City
    distance:
      value: 14.91
      units: km
- country: US
  region: IL
  name: Alto Pass
  lat: '37.5737'
  long: "-89.3192"
  closest_rate_centers:
  - name: Cobden
    distance:
      value: 7.25
      units: km
  - name: Anna
    distance:
      value: 14.01
      units: km
  - name: Carbondale
    distance:
      value: 19.42
      units: km
- country: US
  region: IL
  name: Alton
  lat: '38.9037'
  long: "-90.1520"
  closest_rate_centers:
  - name: Alton
    distance:
      value: 3.0
      units: km
  - name: Wood River
    distance:
      value: 6.76
      units: km
  - name: Bethalto
    distance:
      value: 9.45
      units: km
- country: US
  region: IL
  name: Altona
  lat: '41.1150'
  long: "-90.1648"
  closest_rate_centers:
  - name: Altona
    distance:
      value: 0.39
      units: km
  - name: Oneida
    distance:
      value: 6.96
      units: km
  - name: Bishop Hill
    distance:
      value: 10.57
      units: km
- country: US
  region: IL
  name: Alvan
  lat: '40.3070'
  long: "-87.6069"
  closest_rate_centers:
  - name: Alvin
    distance:
      value: 0.2
      units: km
  - name: Bismarck
    distance:
      value: 4.94
      units: km
  - name: Henning
    distance:
      value: 7.67
      units: km
- country: US
  region: IL
  name: Amboy
  lat: '41.7287'
  long: "-89.3685"
  closest_rate_centers:
  - name: Amboy
    distance:
      value: 3.0
      units: km
  - name: Franklin Grove
    distance:
      value: 14.17
      units: km
  - name: Sublette
    distance:
      value: 14.98
      units: km
- country: US
  region: IL
  name: Anchor
  lat: '40.5681'
  long: "-88.5385"
  closest_rate_centers:
  - name: Cropsey
    distance:
      value: 6.91
      units: km
  - name: Colfax
    distance:
      value: 7.5
      units: km
  - name: Sibley
    distance:
      value: 13.47
      units: km
- country: US
  region: IL
  name: Andalusia
  lat: '41.4372'
  long: "-90.7165"
  closest_rate_centers:
  - name: Edgington
    distance:
      value: 6.82
      units: km
  - name: Reynolds
    distance:
      value: 12.3
      units: km
  - name: Rock Island
    distance:
      value: 14.11
      units: km
- country: US
  region: IL
  name: Andover
  lat: '41.2949'
  long: "-90.2907"
  closest_rate_centers:
  - name: Andover (Cambridge Telephone)
    distance:
      value: 0.27
      units: km
  - name: Andover
    distance:
      value: 0.27
      units: km
  - name: Osco
    distance:
      value: 6.33
      units: km
  - name: Cambridge
    distance:
      value: 8.51
      units: km
- country: US
  region: IL
  name: Andres
  lat: '41.3711'
  long: "-87.8816"
  closest_rate_centers:
  - name: Peotone
    distance:
      value: 8.79
      units: km
  - name: Manhattan
    distance:
      value: 10.12
      units: km
  - name: Governors Park
    distance:
      value: 12.02
      units: km
- country: US
  region: IL
  name: Anna
  lat: '37.4612'
  long: "-89.2388"
  closest_rate_centers:
  - name: Anna
    distance:
      value: 0.78
      units: km
  - name: Cobden
    distance:
      value: 8.36
      units: km
  - name: Dongola
    distance:
      value: 13.11
      units: km
- country: US
  region: IL
  name: Annapolis
  lat: '39.1431'
  long: "-87.8172"
  closest_rate_centers:
  - name: Annapolis
    distance:
      value: 0.71
      units: km
  - name: Hutsonville
    distance:
      value: 13.87
      units: km
  - name: West Union
    distance:
      value: 16.04
      units: km
- country: US
  region: IL
  name: Annawan
  lat: '41.3958'
  long: "-89.8882"
  closest_rate_centers:
  - name: Annawan
    distance:
      value: 1.78
      units: km
  - name: Mineral
    distance:
      value: 4.66
      units: km
  - name: Atkinson
    distance:
      value: 10.81
      units: km
- country: US
  region: IL
  name: Antioch
  lat: '42.4742'
  long: "-88.0721"
  closest_rate_centers:
  - name: Antioch
    distance:
      value: 2.18
      units: km
  - name: Lake Villa
    distance:
      value: 6.13
      units: km
  - name: Fox Lake
    distance:
      value: 12.47
      units: km
- country: US
  region: IL
  name: Apple Canyon Lake
  lat: '42.4302'
  long: "-90.1642"
  closest_rate_centers:
  - name: Scales Mound
    distance:
      value: 8.92
      units: km
  - name: Apple River
    distance:
      value: 9.2
      units: km
  - name: Elizabeth
    distance:
      value: 13.57
      units: km
- country: US
  region: IL
  name: Apple River
  lat: '42.5022'
  long: "-90.0937"
  closest_rate_centers:
  - name: Apple River
    distance:
      value: 0.69
      units: km
  - name: Warren
    distance:
      value: 8.42
      units: km
  - name: Scales Mound
    distance:
      value: 13.33
      units: km
- country: US
  region: IL
  name: Arbury Hills
  lat: '41.5353'
  long: "-87.8461"
  closest_rate_centers:
  - name: Mokena
    distance:
      value: 3.15
      units: km
  - name: Frankfort
    distance:
      value: 4.25
      units: km
  - name: Tinley Park
    distance:
      value: 6.92
      units: km
- country: US
  region: IL
  name: Arcola
  lat: '39.6833'
  long: "-88.3013"
  closest_rate_centers:
  - name: Arcola
    distance:
      value: 0.45
      units: km
  - name: Humboldt
    distance:
      value: 8.88
      units: km
  - name: Tuscola
    distance:
      value: 12.72
      units: km
- country: US
  region: IL
  name: Arenzville
  lat: '39.8805'
  long: "-90.3706"
  closest_rate_centers:
  - name: Arenzville
    distance:
      value: 0.58
      units: km
  - name: Concord
    distance:
      value: 6.79
      units: km
  - name: Chapin
    distance:
      value: 14.41
      units: km
- country: US
  region: IL
  name: Argenta
  lat: '39.9855'
  long: "-88.8197"
  closest_rate_centers:
  - name: Argenta
    distance:
      value: 0.22
      units: km
  - name: Oreana
    distance:
      value: 6.54
      units: km
  - name: Cisco
    distance:
      value: 8.32
      units: km
- country: US
  region: IL
  name: Argyle
  lat: '42.3548'
  long: "-88.9392"
  closest_rate_centers:
  - name: Rock Cut
    distance:
      value: 1.46
      units: km
  - name: Roscoe
    distance:
      value: 9.05
      units: km
  - name: Poplar Grove
    distance:
      value: 9.95
      units: km
- country: US
  region: IL
  name: Arlington
  lat: '41.4716'
  long: "-89.2478"
  closest_rate_centers:
  - name: La Moille
    distance:
      value: 7.38
      units: km
  - name: Ladd
    distance:
      value: 10.46
      units: km
  - name: Dover
    distance:
      value: 12.93
      units: km
- country: US
  region: IL
  name: Arlington Heights
  lat: '42.0955'
  long: "-87.9826"
  closest_rate_centers:
  - name: Arlington Heights
    distance:
      value: 0.66
      units: km
  - name: Schaumburg North
    distance:
      value: 5.88
      units: km
  - name: Palatine
    distance:
      value: 5.88
      units: km
  - name: Elk Grove
    distance:
      value: 7.54
      units: km
- country: US
  region: IL
  name: Armington
  lat: '40.3397'
  long: "-89.3144"
  closest_rate_centers:
  - name: Minier Armington
    distance:
      value: 10.51
      units: km
  - name: Atlanta
    distance:
      value: 10.97
      units: km
  - name: McLean
    distance:
      value: 11.8
      units: km
- country: US
  region: IL
  name: Aroma Park
  lat: '41.0788'
  long: "-87.8011"
  closest_rate_centers:
  - name: Kankakee
    distance:
      value: 6.99
      units: km
  - name: St Anne
    distance:
      value: 8.85
      units: km
  - name: Chebanse
    distance:
      value: 12.26
      units: km
- country: US
  region: IL
  name: Arrowsmith
  lat: '40.4493'
  long: "-88.6321"
  closest_rate_centers:
  - name: Arrowsmith
    distance:
      value: 0.49
      units: km
  - name: Ellsworth
    distance:
      value: 7.54
      units: km
  - name: Saybrook
    distance:
      value: 8.9
      units: km
- country: US
  region: IL
  name: Arthur
  lat: '39.7144'
  long: "-88.4696"
  closest_rate_centers:
  - name: Arthur
    distance:
      value: 0.39
      units: km
  - name: Atwood
    distance:
      value: 9.62
      units: km
  - name: Hammond
    distance:
      value: 13.44
      units: km
- country: US
  region: IL
  name: Ashkum
  lat: '40.8783'
  long: "-87.9533"
  closest_rate_centers:
  - name: Ashkum
    distance:
      value: 0.31
      units: km
  - name: Danforth
    distance:
      value: 6.42
      units: km
  - name: Clifton
    distance:
      value: 6.58
      units: km
- country: US
  region: IL
  name: Ashland
  lat: '39.8886'
  long: "-90.0078"
  closest_rate_centers:
  - name: Ashland
    distance:
      value: 0.27
      units: km
  - name: Pleasant Plains
    distance:
      value: 8.23
      units: km
  - name: Tallula
    distance:
      value: 8.97
      units: km
- country: US
  region: IL
  name: Ashley
  lat: '38.3288'
  long: "-89.1893"
  closest_rate_centers:
  - name: Ashley
    distance:
      value: 0.52
      units: km
  - name: Dubois
    distance:
      value: 11.72
      units: km
  - name: Irvington
    distance:
      value: 12.84
      units: km
- country: US
  region: IL
  name: Ashmore
  lat: '39.5306'
  long: "-88.0201"
  closest_rate_centers:
  - name: Ashmore
    distance:
      value: 0.51
      units: km
  - name: Kansas
    distance:
      value: 7.24
      units: km
  - name: Westfield
    distance:
      value: 7.99
      units: km
- country: US
  region: IL
  name: Ashton
  lat: '41.8682'
  long: "-89.2225"
  closest_rate_centers:
  - name: Ashton
    distance:
      value: 0.23
      units: km
  - name: Franklin Grove
    distance:
      value: 6.75
      units: km
  - name: Rochelle
    distance:
      value: 13.7
      units: km
- country: US
  region: IL
  name: Assumption
  lat: '39.5180'
  long: "-89.0478"
  closest_rate_centers:
  - name: Assumption
    distance:
      value: 0.47
      units: km
  - name: Moweaqua
    distance:
      value: 12.65
      units: km
  - name: Owaneco
    distance:
      value: 12.9
      units: km
- country: US
  region: IL
  name: Astoria
  lat: '40.2279'
  long: "-90.3565"
  closest_rate_centers:
  - name: Astoria
    distance:
      value: 0.32
      units: km
  - name: Summum
    distance:
      value: 7.96
      units: km
  - name: Vermont
    distance:
      value: 9.87
      units: km
- country: US
  region: IL
  name: Athens
  lat: '39.9618'
  long: "-89.7217"
  closest_rate_centers:
  - name: Athens
    distance:
      value: 0.51
      units: km
  - name: Cantrall
    distance:
      value: 4.7
      units: km
  - name: Petersburg
    distance:
      value: 12.24
      units: km
- country: US
  region: IL
  name: Atkinson
  lat: '41.4168'
  long: "-90.0087"
  closest_rate_centers:
  - name: Atkinson
    distance:
      value: 0.69
      units: km
  - name: Annawan
    distance:
      value: 8.69
      units: km
  - name: Geneseo
    distance:
      value: 12.86
      units: km
- country: US
  region: IL
  name: Atlanta
  lat: '40.2638'
  long: "-89.2309"
  closest_rate_centers:
  - name: Atlanta
    distance:
      value: 0.67
      units: km
  - name: McLean
    distance:
      value: 7.71
      units: km
  - name: Waynesville
    distance:
      value: 9.18
      units: km
- country: US
  region: IL
  name: Atwood
  lat: '39.7992'
  long: "-88.4626"
  closest_rate_centers:
  - name: Atwood
    distance:
      value: 0.62
      units: km
  - name: Arthur
    distance:
      value: 9.08
      units: km
  - name: Hammond
    distance:
      value: 10.57
      units: km
- country: US
  region: IL
  name: Auburn
  lat: '39.5763'
  long: "-89.7440"
  closest_rate_centers:
  - name: Auburn
    distance:
      value: 2.0
      units: km
  - name: Divernon
    distance:
      value: 7.87
      units: km
  - name: Virden
    distance:
      value: 8.83
      units: km
- country: US
  region: IL
  name: Augusta
  lat: '40.2307'
  long: "-90.9500"
  closest_rate_centers:
  - name: Augusta
    distance:
      value: 0.81
      units: km
  - name: Plymouth
    distance:
      value: 6.86
      units: km
  - name: Bowen
    distance:
      value: 9.56
      units: km
- country: US
  region: IL
  name: Aurora
  lat: '41.7638'
  long: "-88.2902"
  closest_rate_centers:
  - name: Aurora East
    distance:
      value: 2.29
      units: km
  - name: Aurora
    distance:
      value: 2.29
      units: km
  - name: Batavia
    distance:
      value: 10.44
      units: km
  - name: Oswego
    distance:
      value: 10.5
      units: km
- country: US
  region: IL
  name: Ava
  lat: '37.8886'
  long: "-89.4965"
  closest_rate_centers:
  - name: Ava
    distance:
      value: 0.39
      units: km
  - name: Glenn
    distance:
      value: 12.02
      units: km
  - name: Percy
    distance:
      value: 17.76
      units: km
- country: US
  region: IL
  name: Aviston
  lat: '38.6162'
  long: "-89.6087"
  closest_rate_centers:
  - name: Aviston
    distance:
      value: 0.56
      units: km
  - name: Trenton
    distance:
      value: 6.61
      units: km
  - name: Breese
    distance:
      value: 7.25
      units: km
- country: US
  region: IL
  name: Avon
  lat: '40.6620'
  long: "-90.4352"
  closest_rate_centers:
  - name: Avon
    distance:
      value: 0.55
      units: km
  - name: Prairie City
    distance:
      value: 4.61
      units: km
  - name: Ellisville
    distance:
      value: 11.85
      units: km
- country: US
  region: IL
  name: Baileyville
  lat: '42.1984'
  long: "-89.5946"
  closest_rate_centers:
  - name: Forreston
    distance:
      value: 8.17
      units: km
  - name: German Valley
    distance:
      value: 10.27
      units: km
  - name: Freeport
    distance:
      value: 10.82
      units: km
- country: US
  region: IL
  name: Baldwin
  lat: '38.1838'
  long: "-89.8451"
  closest_rate_centers:
  - name: Baldwin
    distance:
      value: 0.27
      units: km
  - name: Marissa
    distance:
      value: 9.66
      units: km
  - name: Evansville
    distance:
      value: 12.83
      units: km
- country: US
  region: IL
  name: Banner
  lat: '40.5126'
  long: "-89.9156"
  closest_rate_centers:
  - name: Talbott
    distance:
      value: 10.87
      units: km
  - name: Canton
    distance:
      value: 11.01
      units: km
  - name: Glasford
    distance:
      value: 11.26
      units: km
- country: US
  region: IL
  name: Bannockburn
  lat: '42.1932'
  long: "-87.8695"
  closest_rate_centers:
  - name: Deerfield
    distance:
      value: 2.96
      units: km
  - name: Highland Park
    distance:
      value: 6.19
      units: km
  - name: Wheeling
    distance:
      value: 6.89
      units: km
- country: US
  region: IL
  name: Bardolph
  lat: '40.4959'
  long: "-90.5631"
  closest_rate_centers:
  - name: Bardolph
    distance:
      value: 0.44
      units: km
  - name: Bushnell
    distance:
      value: 8.1
      units: km
  - name: Macomb
    distance:
      value: 9.89
      units: km
- country: US
  region: IL
  name: Barrington
  lat: '42.1515'
  long: "-88.1281"
  closest_rate_centers:
  - name: Barrington South
    distance:
      value: 0.48
      units: km
  - name: Barrington
    distance:
      value: 0.48
      units: km
  - name: Lake Zurich
    distance:
      value: 5.67
      units: km
  - name: Palatine
    distance:
      value: 7.68
      units: km
  - name: Schaumburg North
    distance:
      value: 7.68
      units: km
- country: US
  region: IL
  name: Barrington Hills
  lat: '42.1399'
  long: "-88.2034"
  closest_rate_centers:
  - name: Barrington South
    distance:
      value: 5.99
      units: km
  - name: Barrington
    distance:
      value: 5.99
      units: km
  - name: Dundee
    distance:
      value: 7.43
      units: km
  - name: Poplar Creek
    distance:
      value: 7.43
      units: km
  - name: Algonquin
    distance:
      value: 7.82
      units: km
- country: US
  region: IL
  name: Barry
  lat: '39.6982'
  long: "-91.0399"
  closest_rate_centers:
  - name: Barry
    distance:
      value: 0.78
      units: km
  - name: New Canton
    distance:
      value: 8.6
      units: km
  - name: Baylis
    distance:
      value: 11.78
      units: km
- country: US
  region: IL
  name: Barstow
  lat: '41.5162'
  long: "-90.3566"
  closest_rate_centers:
  - name: Hampton
    distance:
      value: 5.24
      units: km
  - name: Green River
    distance:
      value: 5.33
      units: km
  - name: East Moline
    distance:
      value: 7.14
      units: km
- country: US
  region: IL
  name: Bartelso
  lat: '38.5371'
  long: "-89.4672"
  closest_rate_centers:
  - name: Bartelso
    distance:
      value: 0.39
      units: km
  - name: Germantown
    distance:
      value: 6.81
      units: km
  - name: Beckemeyer
    distance:
      value: 8.37
      units: km
- country: US
  region: IL
  name: Bartlett
  lat: '41.9804'
  long: "-88.2071"
  closest_rate_centers:
  - name: Bartlett
    distance:
      value: 2.01
      units: km
  - name: Elgin
    distance:
      value: 9.13
      units: km
  - name: Schaumburg
    distance:
      value: 10.01
      units: km
  - name: Roselle
    distance:
      value: 10.01
      units: km
  - name: Willowcrest
    distance:
      value: 10.01
      units: km
- country: US
  region: IL
  name: Bartonville
  lat: '40.6397'
  long: "-89.6607"
  closest_rate_centers:
  - name: North Pekin
    distance:
      value: 4.07
      units: km
  - name: Peoria
    distance:
      value: 8.3
      units: km
  - name: Pekin
    distance:
      value: 8.65
      units: km
- country: US
  region: IL
  name: Basco
  lat: '40.3278'
  long: "-91.1996"
  closest_rate_centers:
  - name: Basco
    distance:
      value: 0.34
      units: km
  - name: Elvaston
    distance:
      value: 8.43
      units: km
  - name: Carthage
    distance:
      value: 11.03
      units: km
- country: US
  region: IL
  name: Batavia
  lat: '41.8479'
  long: "-88.3109"
  closest_rate_centers:
  - name: Batavia
    distance:
      value: 1.03
      units: km
  - name: Geneva
    distance:
      value: 4.67
      units: km
  - name: St Charles
    distance:
      value: 7.22
      units: km
- country: US
  region: IL
  name: Batchtown
  lat: '39.0331'
  long: "-90.6533"
  closest_rate_centers:
  - name: Batchtown
    distance:
      value: 0.4
      units: km
  - name: Brussels
    distance:
      value: 10.71
      units: km
  - name: Hardin
    distance:
      value: 13.65
      units: km
- country: US
  region: IL
  name: Bath
  lat: '40.1905'
  long: "-90.1425"
  closest_rate_centers:
  - name: Bath
    distance:
      value: 0.53
      units: km
  - name: Kilbourne
    distance:
      value: 11.86
      units: km
  - name: Havana
    distance:
      value: 13.91
      units: km
- country: US
  region: IL
  name: Bay View Gardens
  lat: '40.8102'
  long: "-89.5272"
  closest_rate_centers:
  - name: Spring Bay
    distance:
      value: 1.92
      units: km
  - name: Mossville
    distance:
      value: 3.69
      units: km
  - name: Germantown Hills
    distance:
      value: 6.23
      units: km
- country: US
  region: IL
  name: Baylis
  lat: '39.7294'
  long: "-90.9094"
  closest_rate_centers:
  - name: Baylis
    distance:
      value: 0.18
      units: km
  - name: Fishhook
    distance:
      value: 8.38
      units: km
  - name: Barry
    distance:
      value: 12.18
      units: km
- country: US
  region: IL
  name: Beach Park
  lat: '42.4260'
  long: "-87.8583"
  closest_rate_centers:
  - name: Zion
    distance:
      value: 3.2
      units: km
  - name: North Chicago
    distance:
      value: 7.32
      units: km
  - name: Waukegan
    distance:
      value: 7.32
      units: km
  - name: Grayslake
    distance:
      value: 16.98
      units: km
- country: US
  region: IL
  name: Beardstown
  lat: '39.9993'
  long: "-90.4178"
  closest_rate_centers:
  - name: Beardstown
    distance:
      value: 2.4
      units: km
  - name: Arenzville
    distance:
      value: 14.37
      units: km
  - name: Rushville
    distance:
      value: 18.22
      units: km
- country: US
  region: IL
  name: Beason
  lat: '40.1428'
  long: "-89.1928"
  closest_rate_centers:
  - name: Beason
    distance:
      value: 0.64
      units: km
  - name: Chestnut
    distance:
      value: 9.49
      units: km
  - name: Kenney
    distance:
      value: 10.08
      units: km
- country: US
  region: IL
  name: Beaverville
  lat: '40.9534'
  long: "-87.6546"
  closest_rate_centers:
  - name: Beaverville
    distance:
      value: 0.71
      units: km
  - name: Martinton
    distance:
      value: 7.54
      units: km
  - name: Donovan
    distance:
      value: 8.5
      units: km
- country: US
  region: IL
  name: Beckemeyer
  lat: '38.6058'
  long: "-89.4321"
  closest_rate_centers:
  - name: Beckemeyer
    distance:
      value: 0.47
      units: km
  - name: Carlyle
    distance:
      value: 5.61
      units: km
  - name: Breese
    distance:
      value: 8.14
      units: km
- country: US
  region: IL
  name: Bedford Park
  lat: '41.7669'
  long: "-87.7915"
  closest_rate_centers:
  - name: Summit
    distance:
      value: 1.76
      units: km
  - name: Hickory Hills
    distance:
      value: 6.15
      units: km
  - name: Oak Lawn
    distance:
      value: 6.15
      units: km
  - name: Riverside
    distance:
      value: 7.47
      units: km
- country: US
  region: IL
  name: Beecher
  lat: '41.3500'
  long: "-87.6172"
  closest_rate_centers:
  - name: Beecher
    distance:
      value: 1.88
      units: km
  - name: Crete
    distance:
      value: 10.14
      units: km
  - name: Grant Park
    distance:
      value: 12.04
      units: km
- country: US
  region: IL
  name: Beecher City
  lat: '39.1867'
  long: "-88.7877"
  closest_rate_centers:
  - name: Beecher City
    distance:
      value: 0.45
      units: km
  - name: Cowden
    distance:
      value: 9.32
      units: km
  - name: Shumway
    distance:
      value: 11.82
      units: km
- country: US
  region: IL
  name: Belgium
  lat: '40.0607'
  long: "-87.6328"
  closest_rate_centers:
  - name: Westville
    distance:
      value: 1.95
      units: km
  - name: Catlin
    distance:
      value: 6.43
      units: km
  - name: Danville
    distance:
      value: 6.91
      units: km
- country: US
  region: IL
  name: Belknap
  lat: '37.3224'
  long: "-88.9405"
  closest_rate_centers:
  - name: Karnak
    distance:
      value: 4.38
      units: km
  - name: Cypress
    distance:
      value: 8.36
      units: km
  - name: Vienna
    distance:
      value: 11.26
      units: km
- country: US
  region: IL
  name: Belle Prairie City
  lat: '38.2235'
  long: "-88.5556"
  closest_rate_centers:
  - name: Belle Prairie
    distance:
      value: 0.42
      units: km
  - name: Blairsville (Hamilton)
    distance:
      value: 10.75
      units: km
  - name: Dahlgren
    distance:
      value: 11.28
      units: km
- country: US
  region: IL
  name: Belle Rive
  lat: '38.2317'
  long: "-88.7405"
  closest_rate_centers:
  - name: Belle Rive
    distance:
      value: 0.13
      units: km
  - name: Dahlgren
    distance:
      value: 6.65
      units: km
  - name: Bluford
    distance:
      value: 10.53
      units: km
- country: US
  region: IL
  name: Belleville
  lat: '38.5164'
  long: "-89.9900"
  closest_rate_centers:
  - name: Belleville-Adams
    distance:
      value: 1.44
      units: km
  - name: Belleville-Pioneer
    distance:
      value: 1.44
      units: km
  - name: Edgemont
    distance:
      value: 10.92
      units: km
  - name: O'Fallon
    distance:
      value: 11.14
      units: km
- country: US
  region: IL
  name: Bellevue
  lat: '40.6877'
  long: "-89.6731"
  closest_rate_centers:
  - name: Peoria
    distance:
      value: 6.87
      units: km
  - name: North Pekin
    distance:
      value: 8.71
      units: km
  - name: Hanna City
    distance:
      value: 10.26
      units: km
- country: US
  region: IL
  name: Bellflower
  lat: '40.3404'
  long: "-88.5258"
  closest_rate_centers:
  - name: Bellflower
    distance:
      value: 0.33
      units: km
  - name: Foosland
    distance:
      value: 8.36
      units: km
  - name: Saybrook
    distance:
      value: 9.83
      units: km
- country: US
  region: IL
  name: Bellmont
  lat: '38.3830'
  long: "-87.9106"
  closest_rate_centers:
  - name: Bellmont (Wabash)
    distance:
      value: 0.22
      units: km
  - name: Browns
    distance:
      value: 5.81
      units: km
  - name: Albion
    distance:
      value: 12.61
      units: km
- country: US
  region: IL
  name: Bellwood
  lat: '41.8829'
  long: "-87.8762"
  closest_rate_centers:
  - name: Bellwood
    distance:
      value: 1.09
      units: km
  - name: Hillside
    distance:
      value: 1.09
      units: km
  - name: Maywood
    distance:
      value: 3.34
      units: km
  - name: Forest (Cook)
    distance:
      value: 5.37
      units: km
- country: US
  region: IL
  name: Belvidere
  lat: '42.2543'
  long: "-88.8649"
  closest_rate_centers:
  - name: Belvidere
    distance:
      value: 1.98
      units: km
  - name: Cherry Valley
    distance:
      value: 7.44
      units: km
  - name: Garden Prairie
    distance:
      value: 11.52
      units: km
- country: US
  region: IL
  name: Bement
  lat: '39.9230'
  long: "-88.5724"
  closest_rate_centers:
  - name: Bement
    distance:
      value: 0.74
      units: km
  - name: Ivesdale
    distance:
      value: 9.8
      units: km
  - name: Monticello
    distance:
      value: 11.28
      units: km
- country: US
  region: IL
  name: Benld
  lat: '39.0930'
  long: "-89.8023"
  closest_rate_centers:
  - name: Benld
    distance:
      value: 0.6
      units: km
  - name: Gillespie
    distance:
      value: 4.14
      units: km
  - name: Dorchester
    distance:
      value: 6.98
      units: km
- country: US
  region: IL
  name: Bensenville
  lat: '41.9579'
  long: "-87.9442"
  closest_rate_centers:
  - name: Bensenville
    distance:
      value: 0.52
      units: km
  - name: Itasca
    distance:
      value: 6.28
      units: km
  - name: Elmhurst
    distance:
      value: 6.31
      units: km
- country: US
  region: IL
  name: Benson
  lat: '40.8505'
  long: "-89.1211"
  closest_rate_centers:
  - name: Benson
    distance:
      value: 0.26
      units: km
  - name: Roanoke
    distance:
      value: 8.7
      units: km
  - name: Minonk
    distance:
      value: 9.18
      units: km
- country: US
  region: IL
  name: Bentley
  lat: '40.3440'
  long: "-91.1118"
  closest_rate_centers:
  - name: Basco
    distance:
      value: 7.32
      units: km
  - name: Carthage
    distance:
      value: 8.04
      units: km
  - name: Elvaston
    distance:
      value: 12.81
      units: km
- country: US
  region: IL
  name: Benton
  lat: '38.0109'
  long: "-88.9179"
  closest_rate_centers:
  - name: Benton
    distance:
      value: 0.72
      units: km
  - name: Ewing
    distance:
      value: 10.93
      units: km
  - name: West Frankfort
    distance:
      value: 11.89
      units: km
- country: US
  region: IL
  name: Berkeley
  lat: '41.8891'
  long: "-87.9115"
  closest_rate_centers:
  - name: Elmhurst
    distance:
      value: 2.92
      units: km
  - name: Bellwood
    distance:
      value: 3.99
      units: km
  - name: Hillside
    distance:
      value: 3.99
      units: km
  - name: Schiller Park
    distance:
      value: 6.15
      units: km
- country: US
  region: IL
  name: Berlin
  lat: '39.7569'
  long: "-89.9024"
  closest_rate_centers:
  - name: New Berlin
    distance:
      value: 3.69
      units: km
  - name: Loami
    distance:
      value: 10.69
      units: km
  - name: Alexander
    distance:
      value: 12.13
      units: km
- country: US
  region: IL
  name: Berwyn
  lat: '41.8433'
  long: "-87.7909"
  closest_rate_centers:
  - name: Berwyn
    distance:
      value: 0.87
      units: km
  - name: Riverside
    distance:
      value: 2.68
      units: km
  - name: Cicero
    distance:
      value: 3.23
      units: km
- country: US
  region: IL
  name: Bethalto
  lat: '38.9015'
  long: "-90.0466"
  closest_rate_centers:
  - name: Bethalto
    distance:
      value: 0.39
      units: km
  - name: Wood River
    distance:
      value: 6.1
      units: km
  - name: Alton
    distance:
      value: 11.8
      units: km
- country: US
  region: IL
  name: Bethany
  lat: '39.6443'
  long: "-88.7411"
  closest_rate_centers:
  - name: Bethany
    distance:
      value: 0.04
      units: km
  - name: Dalton City
    distance:
      value: 9.11
      units: km
  - name: Kirksville
    distance:
      value: 10.34
      units: km
- country: US
  region: IL
  name: Beverly
  lat: '39.7946'
  long: "-90.9900"
  closest_rate_centers:
  - name: Fishhook
    distance:
      value: 8.8
      units: km
  - name: Baylis
    distance:
      value: 10.18
      units: km
  - name: Barry
    distance:
      value: 12.32
      units: km
- country: US
  region: IL
  name: Big Foot Prairie
  lat: '42.4915'
  long: "-88.6007"
  closest_rate_centers:
  - name: Harvard
    distance:
      value: 7.78
      units: km
  - name: South Sharon
    distance:
      value: 10.44
      units: km
  - name: Hebron
    distance:
      value: 13.88
      units: km
- country: US
  region: IL
  name: Big Rock
  lat: '41.7668'
  long: "-88.5265"
  closest_rate_centers:
  - name: Big Rock
    distance:
      value: 1.4
      units: km
  - name: Sugar Grove
    distance:
      value: 6.37
      units: km
  - name: Kaneville
    distance:
      value: 7.78
      units: km
- country: US
  region: IL
  name: Biggsville
  lat: '40.8536'
  long: "-90.8621"
  closest_rate_centers:
  - name: Biggsville
    distance:
      value: 0.15
      units: km
  - name: Kirkwood
    distance:
      value: 9.33
      units: km
  - name: Smithshire
    distance:
      value: 9.63
      units: km
- country: US
  region: IL
  name: Bingham
  lat: '39.1122'
  long: "-89.2137"
  closest_rate_centers:
  - name: Fillmore
    distance:
      value: 5.3
      units: km
  - name: Ramsey
    distance:
      value: 9.48
      units: km
  - name: Coffeen
    distance:
      value: 15.98
      units: km
- country: US
  region: IL
  name: Bishop Hill
  lat: '41.1998'
  long: "-90.1175"
  closest_rate_centers:
  - name: Bishop Hill
    distance:
      value: 0.35
      units: km
  - name: Galva
    distance:
      value: 7.56
      units: km
  - name: Altona
    distance:
      value: 10.49
      units: km
- country: US
  region: IL
  name: Bismarck
  lat: '40.2594'
  long: "-87.6112"
  closest_rate_centers:
  - name: Bismarck
    distance:
      value: 0.41
      units: km
  - name: Alvin
    distance:
      value: 5.43
      units: km
  - name: Henning
    distance:
      value: 9.07
      units: km
- country: US
  region: IL
  name: Blairsville
  lat: '37.8107'
  long: "-89.1239"
  closest_rate_centers:
  - name: Hurst
    distance:
      value: 3.35
      units: km
  - name: Carterville
    distance:
      value: 6.26
      units: km
  - name: Royalton
    distance:
      value: 7.56
      units: km
- country: US
  region: IL
  name: Blandinsville
  lat: '40.5540'
  long: "-90.8683"
  closest_rate_centers:
  - name: Blandinsville
    distance:
      value: 0.29
      units: km
  - name: La Harpe
    distance:
      value: 9.06
      units: km
  - name: Fountain Green
    distance:
      value: 12.19
      units: km
- country: US
  region: IL
  name: Bloomfield
  lat: '40.0174'
  long: "-91.3028"
  closest_rate_centers:
  - name: Fowler
    distance:
      value: 3.57
      units: km
  - name: Mendon
    distance:
      value: 8.05
      units: km
  - name: Ursa
    distance:
      value: 8.6
      units: km
- country: US
  region: IL
  name: Bloomingdale
  lat: '41.9497'
  long: "-88.0895"
  closest_rate_centers:
  - name: Roselle
    distance:
      value: 3.8
      units: km
  - name: Schaumburg
    distance:
      value: 3.8
      units: km
  - name: Willowcrest
    distance:
      value: 3.8
      units: km
  - name: Itasca
    distance:
      value: 6.47
      units: km
  - name: Glen Ellyn
    distance:
      value: 8.43
      units: km
- country: US
  region: IL
  name: Bloomington
  lat: '40.4757'
  long: "-88.9703"
  closest_rate_centers:
  - name: Bloomington
    distance:
      value: 2.23
      units: km
  - name: Towanda
    distance:
      value: 11.51
      units: km
  - name: Downs
    distance:
      value: 12.21
      units: km
- country: US
  region: IL
  name: Blue Island
  lat: '41.6578'
  long: "-87.6811"
  closest_rate_centers:
  - name: Blue Island
    distance:
      value: 0.32
      units: km
  - name: Riverdale
    distance:
      value: 5.51
      units: km
  - name: Harvey
    distance:
      value: 5.58
      units: km
- country: US
  region: IL
  name: Blue Mound
  lat: '39.7004'
  long: "-89.1185"
  closest_rate_centers:
  - name: Blue Mound
    distance:
      value: 0.46
      units: km
  - name: Stonington
    distance:
      value: 9.45
      units: km
  - name: Macon
    distance:
      value: 10.35
      units: km
- country: US
  region: IL
  name: Bluffs
  lat: '39.7494'
  long: "-90.5352"
  closest_rate_centers:
  - name: Bluffs
    distance:
      value: 0.32
      units: km
  - name: Meredosia
    distance:
      value: 8.73
      units: km
  - name: Chapin
    distance:
      value: 11.41
      units: km
- country: US
  region: IL
  name: Bluford
  lat: '38.3257'
  long: "-88.7350"
  closest_rate_centers:
  - name: Bluford
    distance:
      value: 0.93
      units: km
  - name: Belle Rive
    distance:
      value: 10.52
      units: km
  - name: Harmony (Jefferson)
    distance:
      value: 10.61
      units: km
- country: US
  region: IL
  name: Bolingbrook
  lat: '41.6901'
  long: "-88.1021"
  closest_rate_centers:
  - name: Lemont
    distance:
      value: 9.7
      units: km
  - name: Lemont North
    distance:
      value: 9.7
      units: km
  - name: Bolingbrook
    distance:
      value: 9.7
      units: km
  - name: Naperville
    distance:
      value: 10.17
      units: km
  - name: Naperville Northeast
    distance:
      value: 10.17
      units: km
  - name: Lockport
    distance:
      value: 11.99
      units: km
  - name: Romeoville
    distance:
      value: 11.99
      units: km
- country: US
  region: IL
  name: Bondville
  lat: '40.1115'
  long: "-88.3682"
  closest_rate_centers:
  - name: Bondville
    distance:
      value: 0.28
      units: km
  - name: Seymour
    distance:
      value: 5.02
      units: km
  - name: Mahomet
    distance:
      value: 9.92
      units: km
- country: US
  region: IL
  name: Bone Gap
  lat: '38.4449'
  long: "-87.9976"
  closest_rate_centers:
  - name: Browns
    distance:
      value: 7.92
      units: km
  - name: West Salem
    distance:
      value: 8.66
      units: km
  - name: Albion
    distance:
      value: 9.09
      units: km
- country: US
  region: IL
  name: Bonfield
  lat: '41.1450'
  long: "-88.0542"
  closest_rate_centers:
  - name: Herscher
    distance:
      value: 11.3
      units: km
  - name: Kankakee
    distance:
      value: 16.29
      units: km
  - name: Reddick
    distance:
      value: 17.12
      units: km
- country: US
  region: IL
  name: Bonnie
  lat: '38.2030'
  long: "-88.9068"
  closest_rate_centers:
  - name: Ina
    distance:
      value: 5.7
      units: km
  - name: Waltonville
    distance:
      value: 11.85
      units: km
  - name: Mount Vernon
    distance:
      value: 12.22
      units: km
- country: US
  region: IL
  name: Bonnie Brae
  lat: '41.5999'
  long: "-88.0343"
  closest_rate_centers:
  - name: Romeoville
    distance:
      value: 1.89
      units: km
  - name: Lockport
    distance:
      value: 1.89
      units: km
  - name: Lemont North
    distance:
      value: 8.52
      units: km
  - name: Lemont
    distance:
      value: 8.52
      units: km
  - name: Bolingbrook
    distance:
      value: 8.52
      units: km
  - name: Joliet
    distance:
      value: 8.93
      units: km
  - name: Joliet West
    distance:
      value: 8.93
      units: km
- country: US
  region: IL
  name: Boody
  lat: '39.7644'
  long: "-89.0467"
  closest_rate_centers:
  - name: Elwin
    distance:
      value: 6.08
      units: km
  - name: Macon
    distance:
      value: 7.36
      units: km
  - name: Blue Mound
    distance:
      value: 9.52
      units: km
- country: US
  region: IL
  name: Boulder Hill
  lat: '41.7113'
  long: "-88.3353"
  closest_rate_centers:
  - name: Oswego
    distance:
      value: 3.59
      units: km
  - name: Aurora East
    distance:
      value: 5.21
      units: km
  - name: Aurora
    distance:
      value: 5.21
      units: km
  - name: Sugar Grove
    distance:
      value: 11.04
      units: km
- country: US
  region: IL
  name: Bourbonnais
  lat: '41.1830'
  long: "-87.8784"
  closest_rate_centers:
  - name: Kankakee
    distance:
      value: 6.95
      units: km
  - name: Manteno
    distance:
      value: 8.48
      units: km
  - name: Peotone
    distance:
      value: 17.76
      units: km
- country: US
  region: IL
  name: Bowen
  lat: '40.2321'
  long: "-91.0633"
  closest_rate_centers:
  - name: Bowen
    distance:
      value: 0.12
      units: km
  - name: Augusta
    distance:
      value: 10.32
      units: km
  - name: Plymouth
    distance:
      value: 13.59
      units: km
- country: US
  region: IL
  name: Braceville
  lat: '41.2280'
  long: "-88.2464"
  closest_rate_centers:
  - name: Braidwood
    distance:
      value: 4.61
      units: km
  - name: Gardner
    distance:
      value: 7.03
      units: km
  - name: Coal City
    distance:
      value: 7.08
      units: km
- country: US
  region: IL
  name: Bradford
  lat: '41.1772'
  long: "-89.6583"
  closest_rate_centers:
  - name: Bradford
    distance:
      value: 0.5
      units: km
  - name: Castleton
    distance:
      value: 7.57
      units: km
  - name: Campgrove
    distance:
      value: 11.27
      units: km
- country: US
  region: IL
  name: Bradley
  lat: '41.1641'
  long: "-87.8452"
  closest_rate_centers:
  - name: Kankakee
    distance:
      value: 4.92
      units: km
  - name: Manteno
    distance:
      value: 9.74
      units: km
  - name: Momence
    distance:
      value: 15.38
      units: km
  - name: Hopkins Park
    distance:
      value: 15.38
      units: km
- country: US
  region: IL
  name: Braidwood
  lat: '41.2695'
  long: "-88.2235"
  closest_rate_centers:
  - name: Braidwood
    distance:
      value: 0.87
      units: km
  - name: Coal City
    distance:
      value: 5.39
      units: km
  - name: Wilmington
    distance:
      value: 7.81
      units: km
- country: US
  region: IL
  name: Breese
  lat: '38.6138'
  long: "-89.5230"
  closest_rate_centers:
  - name: Breese
    distance:
      value: 0.24
      units: km
  - name: Germantown
    distance:
      value: 6.52
      units: km
  - name: Aviston
    distance:
      value: 7.04
      units: km
- country: US
  region: IL
  name: Bridgeport
  lat: '38.7096'
  long: "-87.7590"
  closest_rate_centers:
  - name: Bridgeport
    distance:
      value: 0.37
      units: km
  - name: Lawrenceville
    distance:
      value: 7.05
      units: km
  - name: Sumner
    distance:
      value: 8.83
      units: km
- country: US
  region: IL
  name: Bridgeview
  lat: '41.7403'
  long: "-87.8067"
  closest_rate_centers:
  - name: Summit
    distance:
      value: 3.88
      units: km
  - name: Oak Lawn
    distance:
      value: 5.11
      units: km
  - name: Hickory Hills
    distance:
      value: 5.11
      units: km
  - name: Willow Springs
    distance:
      value: 5.67
      units: km
- country: US
  region: IL
  name: Brighton
  lat: '39.0406'
  long: "-90.1408"
  closest_rate_centers:
  - name: Brighton
    distance:
      value: 0.13
      units: km
  - name: Woodburn
    distance:
      value: 11.18
      units: km
  - name: Shipman
    distance:
      value: 11.73
      units: km
- country: US
  region: IL
  name: Brimfield
  lat: '40.8379'
  long: "-89.8827"
  closest_rate_centers:
  - name: Brimfield
    distance:
      value: 0.26
      units: km
  - name: Elmwood
    distance:
      value: 9.94
      units: km
  - name: Yates City
    distance:
      value: 12.38
      units: km
- country: US
  region: IL
  name: Broadlands
  lat: '39.9087'
  long: "-87.9971"
  closest_rate_centers:
  - name: Broadlands
    distance:
      value: 0.38
      units: km
  - name: Newman
    distance:
      value: 11.6
      units: km
  - name: Sidell
    distance:
      value: 14.43
      units: km
- country: US
  region: IL
  name: Broadview
  lat: '41.8583'
  long: "-87.8562"
  closest_rate_centers:
  - name: Bellwood
    distance:
      value: 3.07
      units: km
  - name: Hillside
    distance:
      value: 3.07
      units: km
  - name: Maywood
    distance:
      value: 3.4
      units: km
  - name: Brookfield
    distance:
      value: 4.21
      units: km
- country: US
  region: IL
  name: Broadwell
  lat: '40.0668'
  long: "-89.4429"
  closest_rate_centers:
  - name: Elkhart
    distance:
      value: 6.29
      units: km
  - name: Lincoln
    distance:
      value: 11.34
      units: km
  - name: Middletown-New Holland
    distance:
      value: 14.12
      units: km
- country: US
  region: IL
  name: Brocton
  lat: '39.7154'
  long: "-87.9336"
  closest_rate_centers:
  - name: Brocton
    distance:
      value: 0.62
      units: km
  - name: Redmon
    distance:
      value: 9.81
      units: km
  - name: Oakland
    distance:
      value: 10.43
      units: km
- country: US
  region: IL
  name: Brookfield
  lat: '41.8245'
  long: "-87.8470"
  closest_rate_centers:
  - name: Brookfield
    distance:
      value: 0.38
      units: km
  - name: La Grange
    distance:
      value: 2.27
      units: km
  - name: Riverside
    distance:
      value: 2.46
      units: km
- country: US
  region: IL
  name: Brooklyn
  lat: '38.6542'
  long: "-90.1679"
  closest_rate_centers:
  - name: East St Louis
    distance:
      value: 3.43
      units: km
  - name: Granite City
    distance:
      value: 5.6
      units: km
  - name: Edgemont
    distance:
      value: 11.0
      units: km
- country: US
  region: IL
  name: Brookport
  lat: '37.1261'
  long: "-88.6276"
  closest_rate_centers:
  - name: Brookport
    distance:
      value: 0.5
      units: km
  - name: Metropolis
    distance:
      value: 9.73
      units: km
  - name: Joppa
    distance:
      value: 21.42
      units: km
- country: US
  region: IL
  name: Broughton
  lat: '37.9345'
  long: "-88.4624"
  closest_rate_centers:
  - name: Broughton
    distance:
      value: 0.11
      units: km
  - name: Dale
    distance:
      value: 7.4
      units: km
  - name: Eldorado
    distance:
      value: 12.42
      units: km
- country: US
  region: IL
  name: Browning
  lat: '40.1270'
  long: "-90.3730"
  closest_rate_centers:
  - name: Astoria
    distance:
      value: 11.62
      units: km
  - name: Beardstown
    distance:
      value: 13.21
      units: km
  - name: Rushville
    distance:
      value: 15.89
      units: km
- country: US
  region: IL
  name: Browns
  lat: '38.3775'
  long: "-87.9831"
  closest_rate_centers:
  - name: Browns
    distance:
      value: 0.61
      units: km
  - name: Albion
    distance:
      value: 6.27
      units: km
  - name: Bellmont (Wabash)
    distance:
      value: 6.34
      units: km
- country: US
  region: IL
  name: Brownstown
  lat: '38.9942'
  long: "-88.9554"
  closest_rate_centers:
  - name: Brownstown
    distance:
      value: 0.55
      units: km
  - name: Sefton
    distance:
      value: 8.12
      units: km
  - name: St Elmo
    distance:
      value: 9.94
      units: km
- country: US
  region: IL
  name: Brussels
  lat: '38.9483'
  long: "-90.5887"
  closest_rate_centers:
  - name: Brussels
    distance:
      value: 0.26
      units: km
  - name: Batchtown
    distance:
      value: 11.05
      units: km
  - name: Grafton
    distance:
      value: 13.71
      units: km
- country: US
  region: IL
  name: Bryant
  lat: '40.4655'
  long: "-90.0948"
  closest_rate_centers:
  - name: Lewistown
    distance:
      value: 8.7
      units: km
  - name: Cuba
    distance:
      value: 8.92
      units: km
  - name: Canton
    distance:
      value: 11.93
      units: km
- country: US
  region: IL
  name: Buckingham
  lat: '41.0467'
  long: "-88.1749"
  closest_rate_centers:
  - name: Cabery
    distance:
      value: 6.03
      units: km
  - name: Herscher
    distance:
      value: 6.44
      units: km
  - name: Reddick
    distance:
      value: 8.47
      units: km
- country: US
  region: IL
  name: Buckley
  lat: '40.5973'
  long: "-88.0378"
  closest_rate_centers:
  - name: Buckley
    distance:
      value: 0.28
      units: km
  - name: Loda
    distance:
      value: 9.37
      units: km
  - name: Thawville
    distance:
      value: 11.2
      units: km
- country: US
  region: IL
  name: Buckner
  lat: '37.9807'
  long: "-89.0152"
  closest_rate_centers:
  - name: Christopher
    distance:
      value: 3.74
      units: km
  - name: Zeigler
    distance:
      value: 8.99
      units: km
  - name: Benton
    distance:
      value: 9.28
      units: km
- country: US
  region: IL
  name: Buda
  lat: '41.3290'
  long: "-89.6793"
  closest_rate_centers:
  - name: Buda
    distance:
      value: 0.73
      units: km
  - name: Sheffield
    distance:
      value: 6.11
      units: km
  - name: Wyanet
    distance:
      value: 8.54
      units: km
- country: US
  region: IL
  name: Buffalo
  lat: '39.8499'
  long: "-89.4091"
  closest_rate_centers:
  - name: Buffalo
    distance:
      value: 0.17
      units: km
  - name: Riverton
    distance:
      value: 11.22
      units: km
  - name: Illiopolis
    distance:
      value: 14.52
      units: km
- country: US
  region: IL
  name: Buffalo Grove
  lat: '42.1675'
  long: "-87.9615"
  closest_rate_centers:
  - name: Half Day
    distance:
      value: 3.49
      units: km
  - name: Wheeling
    distance:
      value: 5.06
      units: km
  - name: Arlington Heights
    distance:
      value: 8.85
      units: km
- country: US
  region: IL
  name: Buffalo Prairie
  lat: '41.3408'
  long: "-90.8482"
  closest_rate_centers:
  - name: Illinois City
    distance:
      value: 7.55
      units: km
  - name: Edgington
    distance:
      value: 8.73
      units: km
  - name: Eliza
    distance:
      value: 10.91
      units: km
- country: US
  region: IL
  name: Bull Valley
  lat: '42.3227'
  long: "-88.3633"
  closest_rate_centers:
  - name: Woodstock
    distance:
      value: 7.08
      units: km
  - name: Wonder Lake
    distance:
      value: 7.77
      units: km
  - name: McHenry
    distance:
      value: 7.91
      units: km
- country: US
  region: IL
  name: Bulpitt
  lat: '39.5919'
  long: "-89.4258"
  closest_rate_centers:
  - name: Kincaid
    distance:
      value: 0.79
      units: km
  - name: Edinburg
    distance:
      value: 8.34
      units: km
  - name: Taylorville
    distance:
      value: 12.52
      units: km
- country: US
  region: IL
  name: Buncombe
  lat: '37.4713'
  long: "-88.9747"
  closest_rate_centers:
  - name: Vienna
    distance:
      value: 8.86
      units: km
  - name: Goreville
    distance:
      value: 9.34
      units: km
  - name: Cypress
    distance:
      value: 12.13
      units: km
- country: US
  region: IL
  name: Bunker Hill
  lat: '39.0416'
  long: "-89.9511"
  closest_rate_centers:
  - name: Bunker Hill
    distance:
      value: 0.25
      units: km
  - name: Woodburn
    distance:
      value: 5.24
      units: km
  - name: Dorchester
    distance:
      value: 7.56
      units: km
- country: US
  region: IL
  name: Burbank
  lat: '41.7444'
  long: "-87.7686"
  closest_rate_centers:
  - name: Oak Lawn
    distance:
      value: 3.03
      units: km
  - name: Hickory Hills
    distance:
      value: 3.03
      units: km
  - name: Summit
    distance:
      value: 4.82
      units: km
  - name: Willow Springs
    distance:
      value: 8.86
      units: km
- country: US
  region: IL
  name: Burlington
  lat: '42.0416'
  long: "-88.5508"
  closest_rate_centers:
  - name: Hampshire
    distance:
      value: 6.67
      units: km
  - name: Plato Center
    distance:
      value: 10.12
      units: km
  - name: Sycamore
    distance:
      value: 12.96
      units: km
- country: US
  region: IL
  name: Burnham
  lat: '41.6375'
  long: "-87.5447"
  closest_rate_centers:
  - name: Calumet City
    distance:
      value: 2.44
      units: km
  - name: Riverdale
    distance:
      value: 6.06
      units: km
  - name: Lansing
    distance:
      value: 7.95
      units: km
- country: US
  region: IL
  name: Burnt Prairie
  lat: '38.2509'
  long: "-88.2585"
  closest_rate_centers:
  - name: Burnt Prairie
    distance:
      value: 0.53
      units: km
  - name: Fairfield
    distance:
      value: 16.88
      units: km
  - name: Enfield
    distance:
      value: 17.92
      units: km
- country: US
  region: IL
  name: Burr Ridge
  lat: '41.7485'
  long: "-87.9200"
  closest_rate_centers:
  - name: Willow Springs
    distance:
      value: 4.17
      units: km
  - name: Oak Brook
    distance:
      value: 6.7
      units: km
  - name: Hinsdale
    distance:
      value: 6.7
      units: km
  - name: Western Springs
    distance:
      value: 7.07
      units: km
- country: US
  region: IL
  name: Burton
  lat: '39.9079'
  long: "-91.2492"
  closest_rate_centers:
  - name: Burton
    distance:
      value: 0.66
      units: km
  - name: Payson
    distance:
      value: 10.09
      units: km
  - name: Fowler
    distance:
      value: 11.33
      units: km
- country: US
  region: IL
  name: Burtons Bridge
  lat: '42.2781'
  long: "-88.2305"
  closest_rate_centers:
  - name: Cary
    distance:
      value: 7.32
      units: km
  - name: McHenry
    distance:
      value: 8.0
      units: km
  - name: Wauconda
    distance:
      value: 8.02
      units: km
- country: US
  region: IL
  name: Bush
  lat: '37.8427'
  long: "-89.1295"
  closest_rate_centers:
  - name: Hurst
    distance:
      value: 1.75
      units: km
  - name: Royalton
    distance:
      value: 4.21
      units: km
  - name: De Soto
    distance:
      value: 9.28
      units: km
- country: US
  region: IL
  name: Bushnell
  lat: '40.5518'
  long: "-90.5046"
  closest_rate_centers:
  - name: Bushnell
    distance:
      value: 0.65
      units: km
  - name: Bardolph
    distance:
      value: 8.22
      units: km
  - name: Prairie City
    distance:
      value: 9.02
      units: km
- country: US
  region: IL
  name: Butler
  lat: '39.1975'
  long: "-89.5322"
  closest_rate_centers:
  - name: Hillsboro
    distance:
      value: 5.63
      units: km
  - name: Litchfield
    distance:
      value: 10.34
      units: km
  - name: Irving
    distance:
      value: 11.08
      units: km
- country: US
  region: IL
  name: Byron
  lat: '42.1223'
  long: "-89.2665"
  closest_rate_centers:
  - name: Byron
    distance:
      value: 1.12
      units: km
  - name: Stillman Valley
    distance:
      value: 7.41
      units: km
  - name: Leaf River
    distance:
      value: 11.37
      units: km
- country: US
  region: IL
  name: Cabery
  lat: '40.9958'
  long: "-88.2037"
  closest_rate_centers:
  - name: Cabery
    distance:
      value: 0.12
      units: km
  - name: Stelle
    distance:
      value: 6.61
      units: km
  - name: Kempton
    distance:
      value: 7.14
      units: km
- country: US
  region: IL
  name: Cable
  lat: '41.2798'
  long: "-90.5056"
  closest_rate_centers:
  - name: Sherrard
    distance:
      value: 4.58
      units: km
  - name: Preemption
    distance:
      value: 7.32
      units: km
  - name: Matherville
    distance:
      value: 8.32
      units: km
- country: US
  region: IL
  name: Cahokia Heights
  lat: '38.5710'
  long: "-90.1525"
  closest_rate_centers:
  - name: East St Louis
    distance:
      value: 5.92
      units: km
  - name: Edgemont
    distance:
      value: 7.75
      units: km
  - name: Dupo
    distance:
      value: 8.13
      units: km
- country: US
  region: IL
  name: Cairo
  lat: '37.0062'
  long: "-89.1819"
  closest_rate_centers:
  - name: Cairo
    distance:
      value: 0.89
      units: km
  - name: Mound City
    distance:
      value: 9.41
      units: km
  - name: Mounds
    distance:
      value: 12.33
      units: km
- country: US
  region: IL
  name: Caledonia
  lat: '42.3686'
  long: "-88.8939"
  closest_rate_centers:
  - name: Rock Cut
    distance:
      value: 5.44
      units: km
  - name: Poplar Grove
    distance:
      value: 6.12
      units: km
  - name: Roscoe
    distance:
      value: 10.85
      units: km
- country: US
  region: IL
  name: Calhoun
  lat: '38.6512'
  long: "-88.0440"
  closest_rate_centers:
  - name: Calhoun
    distance:
      value: 0.59
      units: km
  - name: Parkersburg
    distance:
      value: 6.92
      units: km
  - name: Olney
    distance:
      value: 9.97
      units: km
- country: US
  region: IL
  name: Calumet City
  lat: '41.6134'
  long: "-87.5505"
  closest_rate_centers:
  - name: Calumet City
    distance:
      value: 1.53
      units: km
  - name: Lansing
    distance:
      value: 5.26
      units: km
  - name: Riverdale
    distance:
      value: 6.58
      units: km
- country: US
  region: IL
  name: Calumet Park
  lat: '41.6650'
  long: "-87.6577"
  closest_rate_centers:
  - name: Blue Island
    distance:
      value: 2.11
      units: km
  - name: Riverdale
    distance:
      value: 4.01
      units: km
  - name: Harvey
    distance:
      value: 5.61
      units: km
- country: US
  region: IL
  name: Camargo
  lat: '39.7991'
  long: "-88.1671"
  closest_rate_centers:
  - name: Villa Grove
    distance:
      value: 5.71
      units: km
  - name: Tuscola
    distance:
      value: 9.39
      units: km
  - name: Newman
    distance:
      value: 15.26
      units: km
- country: US
  region: IL
  name: Cambria
  lat: '37.7793'
  long: "-89.1189"
  closest_rate_centers:
  - name: Carterville
    distance:
      value: 3.71
      units: km
  - name: Hurst
    distance:
      value: 6.65
      units: km
  - name: Herrin
    distance:
      value: 8.23
      units: km
- country: US
  region: IL
  name: Cambridge
  lat: '41.2984'
  long: "-90.1907"
  closest_rate_centers:
  - name: Cambridge
    distance:
      value: 1.06
      units: km
  - name: Andover (Cambridge Telephone)
    distance:
      value: 8.19
      units: km
  - name: Andover
    distance:
      value: 8.19
      units: km
  - name: Osco
    distance:
      value: 9.33
      units: km
- country: US
  region: IL
  name: Camden
  lat: '40.1529'
  long: "-90.7733"
  closest_rate_centers:
  - name: Mindale
    distance:
      value: 5.63
      units: km
  - name: Littleton
    distance:
      value: 15.87
      units: km
  - name: Augusta
    distance:
      value: 16.94
      units: km
- country: US
  region: IL
  name: Cameron
  lat: '40.8875'
  long: "-90.5164"
  closest_rate_centers:
  - name: Cameron
    distance:
      value: 0.18
      units: km
  - name: Monmouth
    distance:
      value: 11.11
      units: km
  - name: Abingdon
    distance:
      value: 13.58
      units: km
- country: US
  region: IL
  name: Camp Point
  lat: '40.0383'
  long: "-91.0664"
  closest_rate_centers:
  - name: Camp Point
    distance:
      value: 0.73
      units: km
  - name: Coatsburg
    distance:
      value: 8.07
      units: km
  - name: Columbus
    distance:
      value: 8.56
      units: km
- country: US
  region: IL
  name: Campbell Hill
  lat: '37.9305'
  long: "-89.5515"
  closest_rate_centers:
  - name: Ava
    distance:
      value: 6.64
      units: km
  - name: Percy
    distance:
      value: 11.21
      units: km
  - name: Steeleville
    distance:
      value: 12.94
      units: km
- country: US
  region: IL
  name: Campbell's Island
  lat: '41.5407'
  long: "-90.4300"
  closest_rate_centers:
  - name: East Moline
    distance:
      value: 2.99
      units: km
  - name: Hampton
    distance:
      value: 3.95
      units: km
  - name: Moline
    distance:
      value: 8.11
      units: km
- country: US
  region: IL
  name: Campton Hills
  lat: '41.9498'
  long: "-88.4166"
  closest_rate_centers:
  - name: Elburn
    distance:
      value: 7.65
      units: km
  - name: Plato Center
    distance:
      value: 8.94
      units: km
  - name: St Charles
    distance:
      value: 9.23
      units: km
- country: US
  region: IL
  name: Campus
  lat: '41.0247'
  long: "-88.3072"
  closest_rate_centers:
  - name: Campus
    distance:
      value: 0.22
      units: km
  - name: Emington
    distance:
      value: 7.54
      units: km
  - name: Cabery
    distance:
      value: 9.29
      units: km
- country: US
  region: IL
  name: Candlewick Lake
  lat: '42.3525'
  long: "-88.8694"
  closest_rate_centers:
  - name: Poplar Grove
    distance:
      value: 4.46
      units: km
  - name: Rock Cut
    distance:
      value: 6.89
      units: km
  - name: Belvidere
    distance:
      value: 10.9
      units: km
- country: US
  region: IL
  name: Canton
  lat: '40.5632'
  long: "-90.0409"
  closest_rate_centers:
  - name: Canton
    distance:
      value: 1.0
      units: km
  - name: Fiatt
    distance:
      value: 11.58
      units: km
  - name: Fairview (Fulton)
    distance:
      value: 13.08
      units: km
- country: US
  region: IL
  name: Cantrall
  lat: '39.9353'
  long: "-89.6788"
  closest_rate_centers:
  - name: Cantrall
    distance:
      value: 0.04
      units: km
  - name: Athens
    distance:
      value: 5.2
      units: km
  - name: Sherman
    distance:
      value: 8.22
      units: km
- country: US
  region: IL
  name: Capron
  lat: '42.3986'
  long: "-88.7394"
  closest_rate_centers:
  - name: Capron
    distance:
      value: 0.24
      units: km
  - name: Poplar Grove
    distance:
      value: 7.4
      units: km
  - name: South Sharon
    distance:
      value: 10.09
      units: km
- country: US
  region: IL
  name: Carbon Cliff
  lat: '41.4981'
  long: "-90.3917"
  closest_rate_centers:
  - name: East Moline
    distance:
      value: 4.64
      units: km
  - name: Hampton
    distance:
      value: 6.57
      units: km
  - name: Green River
    distance:
      value: 6.62
      units: km
- country: US
  region: IL
  name: Carbon Hill
  lat: '41.2970'
  long: "-88.2999"
  closest_rate_centers:
  - name: Coal City
    distance:
      value: 1.86
      units: km
  - name: Braidwood
    distance:
      value: 7.86
      units: km
  - name: Mazon
    distance:
      value: 11.9
      units: km
- country: US
  region: IL
  name: Carbondale
  lat: '37.7221'
  long: "-89.2237"
  closest_rate_centers:
  - name: Carbondale
    distance:
      value: 0.91
      units: km
  - name: De Soto
    distance:
      value: 10.52
      units: km
  - name: Murphysboro
    distance:
      value: 11.32
      units: km
- country: US
  region: IL
  name: Carlinville
  lat: '39.2775'
  long: "-89.8762"
  closest_rate_centers:
  - name: Carlinville
    distance:
      value: 0.6
      units: km
  - name: Hettick
    distance:
      value: 16.48
      units: km
  - name: Chesterfield-Rockbridge
    distance:
      value: 16.48
      units: km
- country: US
  region: IL
  name: Carlock
  lat: '40.5835'
  long: "-89.1288"
  closest_rate_centers:
  - name: Carlock
    distance:
      value: 0.76
      units: km
  - name: Congerville
    distance:
      value: 7.26
      units: km
  - name: Danvers
    distance:
      value: 7.96
      units: km
- country: US
  region: IL
  name: Carlyle
  lat: '38.6217'
  long: "-89.3734"
  closest_rate_centers:
  - name: Carlyle
    distance:
      value: 1.13
      units: km
  - name: Beckemeyer
    distance:
      value: 5.66
      units: km
  - name: Bartelso
    distance:
      value: 12.29
      units: km
- country: US
  region: IL
  name: Carman
  lat: '40.7362'
  long: "-91.0617"
  closest_rate_centers:
  - name: Lomax
    distance:
      value: 6.42
      units: km
  - name: Gulfport
    distance:
      value: 8.6
      units: km
  - name: Stronghurst
    distance:
      value: 13.72
      units: km
- country: US
  region: IL
  name: Carmi
  lat: '38.0861'
  long: "-88.1722"
  closest_rate_centers:
  - name: Carmi
    distance:
      value: 1.07
      units: km
  - name: Maunie
    distance:
      value: 12.06
      units: km
  - name: Crossville
    distance:
      value: 12.43
      units: km
- country: US
  region: IL
  name: Carol Stream
  lat: '41.9181'
  long: "-88.1307"
  closest_rate_centers:
  - name: Wheaton
    distance:
      value: 6.09
      units: km
  - name: Glen Ellyn
    distance:
      value: 7.18
      units: km
  - name: West Chicago
    distance:
      value: 7.4
      units: km
- country: US
  region: IL
  name: Carpentersville
  lat: '42.1227'
  long: "-88.2896"
  closest_rate_centers:
  - name: Dundee
    distance:
      value: 2.78
      units: km
  - name: Poplar Creek
    distance:
      value: 2.78
      units: km
  - name: Algonquin
    distance:
      value: 5.07
      units: km
  - name: Elgin
    distance:
      value: 9.19
      units: km
- country: US
  region: IL
  name: Carrier Mills
  lat: '37.6886'
  long: "-88.6294"
  closest_rate_centers:
  - name: Carriers Mills
    distance:
      value: 0.33
      units: km
  - name: Harrisburg
    distance:
      value: 9.67
      units: km
  - name: Stonefort
    distance:
      value: 10.24
      units: km
- country: US
  region: IL
  name: Carrollton
  lat: '39.2948'
  long: "-90.4062"
  closest_rate_centers:
  - name: Carrollton
    distance:
      value: 0.66
      units: km
  - name: Eldred
    distance:
      value: 13.04
      units: km
  - name: White Hall
    distance:
      value: 16.04
      units: km
- country: US
  region: IL
  name: Carterville
  lat: '37.7630'
  long: "-89.0841"
  closest_rate_centers:
  - name: Carterville
    distance:
      value: 0.53
      units: km
  - name: Herrin
    distance:
      value: 6.52
      units: km
  - name: Hurst
    distance:
      value: 9.7
      units: km
- country: US
  region: IL
  name: Carthage
  lat: '40.4142'
  long: "-91.1276"
  closest_rate_centers:
  - name: Carthage
    distance:
      value: 0.66
      units: km
  - name: Ferris
    distance:
      value: 7.29
      units: km
  - name: Elvaston
    distance:
      value: 10.44
      units: km
- country: US
  region: IL
  name: Cary
  lat: '42.2129'
  long: "-88.2494"
  closest_rate_centers:
  - name: Cary
    distance:
      value: 0.39
      units: km
  - name: Algonquin
    distance:
      value: 5.99
      units: km
  - name: Crystal Lake
    distance:
      value: 6.8
      units: km
- country: US
  region: IL
  name: Casey
  lat: '39.3031'
  long: "-87.9897"
  closest_rate_centers:
  - name: Casey
    distance:
      value: 0.48
      units: km
  - name: Martinsville
    distance:
      value: 9.65
      units: km
  - name: Greenup
    distance:
      value: 15.65
      units: km
- country: US
  region: IL
  name: Caseyville
  lat: '38.6302'
  long: "-90.0339"
  closest_rate_centers:
  - name: Edgemont
    distance:
      value: 5.06
      units: km
  - name: Collinsville
    distance:
      value: 7.01
      units: km
  - name: East St Louis
    distance:
      value: 10.97
      units: km
- country: US
  region: IL
  name: Catlin
  lat: '40.0677'
  long: "-87.7080"
  closest_rate_centers:
  - name: Catlin
    distance:
      value: 0.15
      units: km
  - name: Westville
    distance:
      value: 6.19
      units: km
  - name: Oakwood
    distance:
      value: 8.32
      units: km
- country: US
  region: IL
  name: Cave-In-Rock
  lat: '37.4708'
  long: "-88.1659"
  closest_rate_centers:
  - name: Cave In Rock
    distance:
      value: 0.15
      units: km
  - name: Elizabethtown
    distance:
      value: 12.79
      units: km
  - name: Rosiclare
    distance:
      value: 17.02
      units: km
- country: US
  region: IL
  name: Cedar Point
  lat: '41.2651'
  long: "-89.1260"
  closest_rate_centers:
  - name: Cedar Point
    distance:
      value: 0.54
      units: km
  - name: Oglesby
    distance:
      value: 6.34
      units: km
  - name: Tonica
    distance:
      value: 6.99
      units: km
- country: US
  region: IL
  name: Cedarville
  lat: '42.3757'
  long: "-89.6362"
  closest_rate_centers:
  - name: Cedarville
    distance:
      value: 0.63
      units: km
  - name: Freeport
    distance:
      value: 9.2
      units: km
  - name: Dakota
    distance:
      value: 9.35
      units: km
- country: US
  region: IL
  name: Central City
  lat: '38.5484'
  long: "-89.1284"
  closest_rate_centers:
  - name: Centralia
    distance:
      value: 1.71
      units: km
  - name: Sandoval
    distance:
      value: 7.74
      units: km
  - name: Shattuc
    distance:
      value: 8.81
      units: km
- country: US
  region: IL
  name: Centralia
  lat: '38.5224'
  long: "-89.1232"
  closest_rate_centers:
  - name: Centralia
    distance:
      value: 1.34
      units: km
  - name: Irvington
    distance:
      value: 9.54
      units: km
  - name: Sandoval
    distance:
      value: 10.6
      units: km
- country: US
  region: IL
  name: Cerro Gordo
  lat: '39.8892'
  long: "-88.7346"
  closest_rate_centers:
  - name: Cerro Gordo
    distance:
      value: 0.44
      units: km
  - name: La Place
    distance:
      value: 10.27
      units: km
  - name: Oreana
    distance:
      value: 12.01
      units: km
- country: US
  region: IL
  name: Chadwick
  lat: '42.0142'
  long: "-89.8885"
  closest_rate_centers:
  - name: Chadwick
    distance:
      value: 0.37
      units: km
  - name: Milledgeville
    distance:
      value: 10.9
      units: km
  - name: Lanark
    distance:
      value: 10.99
      units: km
- country: US
  region: IL
  name: Champaign
  lat: '40.1142'
  long: "-88.2737"
  closest_rate_centers:
  - name: Champaign-Urbana
    distance:
      value: 2.25
      units: km
  - name: Bondville
    distance:
      value: 8.07
      units: km
  - name: Seymour
    distance:
      value: 13.06
      units: km
- country: US
  region: IL
  name: Chandlerville
  lat: '40.0470'
  long: "-90.1512"
  closest_rate_centers:
  - name: Chandlerville
    distance:
      value: 0.79
      units: km
  - name: Virginia
    distance:
      value: 12.08
      units: km
  - name: Bath
    distance:
      value: 16.44
      units: km
- country: US
  region: IL
  name: Channahon
  lat: '41.4210'
  long: "-88.2599"
  closest_rate_centers:
  - name: Minooka
    distance:
      value: 4.1
      units: km
  - name: Elwood
    distance:
      value: 12.46
      units: km
  - name: Coal City
    distance:
      value: 15.29
      units: km
- country: US
  region: IL
  name: Channel Lake
  lat: '42.4830'
  long: "-88.1491"
  closest_rate_centers:
  - name: Antioch
    distance:
      value: 4.23
      units: km
  - name: Spring Grove
    distance:
      value: 8.71
      units: km
  - name: Lake Villa
    distance:
      value: 9.21
      units: km
- country: US
  region: IL
  name: Chapin
  lat: '39.7669'
  long: "-90.4027"
  closest_rate_centers:
  - name: Chapin
    distance:
      value: 1.53
      units: km
  - name: Concord
    distance:
      value: 6.37
      units: km
  - name: Bluffs
    distance:
      value: 11.43
      units: km
- country: US
  region: IL
  name: Charleston
  lat: '39.4842'
  long: "-88.1781"
  closest_rate_centers:
  - name: Charleston
    distance:
      value: 1.12
      units: km
  - name: Ashmore
    distance:
      value: 14.16
      units: km
  - name: Westfield
    distance:
      value: 16.1
      units: km
- country: US
  region: IL
  name: Chatham
  lat: '39.6733'
  long: "-89.6934"
  closest_rate_centers:
  - name: Chatham
    distance:
      value: 0.69
      units: km
  - name: Auburn
    distance:
      value: 9.91
      units: km
  - name: Divernon
    distance:
      value: 12.71
      units: km
- country: US
  region: IL
  name: Chatsworth
  lat: '40.7293'
  long: "-88.2974"
  closest_rate_centers:
  - name: Chatsworth
    distance:
      value: 2.81
      units: km
  - name: Piper City
    distance:
      value: 9.52
      units: km
  - name: Forrest (Livingston)
    distance:
      value: 10.62
      units: km
- country: US
  region: IL
  name: Chebanse
  lat: '41.0057'
  long: "-87.9098"
  closest_rate_centers:
  - name: Chebanse
    distance:
      value: 0.1
      units: km
  - name: Clifton
    distance:
      value: 8.06
      units: km
  - name: Kankakee
    distance:
      value: 13.5
      units: km
- country: US
  region: IL
  name: Chemung
  lat: '42.4162'
  long: "-88.6641"
  closest_rate_centers:
  - name: Harvard
    distance:
      value: 4.69
      units: km
  - name: Capron
    distance:
      value: 6.56
      units: km
  - name: South Sharon
    distance:
      value: 9.64
      units: km
- country: US
  region: IL
  name: Chenoa
  lat: '40.7389'
  long: "-88.7259"
  closest_rate_centers:
  - name: Chenoa
    distance:
      value: 0.16
      units: km
  - name: Lexington
    distance:
      value: 11.72
      units: km
  - name: Gridley
    distance:
      value: 13.03
      units: km
- country: US
  region: IL
  name: Cherry
  lat: '41.4280'
  long: "-89.2132"
  closest_rate_centers:
  - name: Ladd
    distance:
      value: 5.42
      units: km
  - name: Spring Valley
    distance:
      value: 11.13
      units: km
  - name: La Moille
    distance:
      value: 12.99
      units: km
- country: US
  region: IL
  name: Cherry Valley
  lat: '42.2223'
  long: "-88.9715"
  closest_rate_centers:
  - name: Cherry Valley
    distance:
      value: 2.28
      units: km
  - name: New Milford
    distance:
      value: 8.89
      units: km
  - name: Belvidere
    distance:
      value: 11.4
      units: km
- country: US
  region: IL
  name: Chester
  lat: '37.9200'
  long: "-89.8260"
  closest_rate_centers:
  - name: Chester
    distance:
      value: 0.5
      units: km
  - name: Kaskaskia
    distance:
      value: 8.01
      units: km
  - name: Ellis Grove
    distance:
      value: 12.18
      units: km
- country: US
  region: IL
  name: Chesterfield
  lat: '39.2566'
  long: "-90.0668"
  closest_rate_centers:
  - name: Chesterfield-Rockbridge
    distance:
      value: 0.48
      units: km
  - name: Medora
    distance:
      value: 11.23
      units: km
  - name: Hettick
    distance:
      value: 11.32
      units: km
- country: US
  region: IL
  name: Chestnut
  lat: '40.0537'
  long: "-89.1871"
  closest_rate_centers:
  - name: Chestnut
    distance:
      value: 0.55
      units: km
  - name: Latham
    distance:
      value: 9.48
      units: km
  - name: Mount Pulaski
    distance:
      value: 9.85
      units: km
- country: US
  region: IL
  name: Chicago
  lat: '41.8375'
  long: "-87.6866"
  closest_rate_centers:
  - name: Cicero
    distance:
      value: 5.52
      units: km
  - name: Chicago Zone 01-Superior
    distance:
      value: 6.65
      units: km
  - name: Chicago Zone 07-Oakland
    distance:
      value: 6.65
      units: km
  - name: Chicago Zone 07-Hyde Park
    distance:
      value: 6.65
      units: km
  - name: Chicago Zone 06-Lawndale
    distance:
      value: 6.65
      units: km
  - name: Chicago Zone 06-Lafayette
    distance:
      value: 6.65
      units: km
  - name: Chicago Zone 01-Monroe
    distance:
      value: 6.65
      units: km
  - name: Chicago Zone 01-Lakeshore
    distance:
      value: 6.65
      units: km
  - name: Chicago Zone 01-Illinois Dearborn
    distance:
      value: 6.65
      units: km
  - name: Chicago Zone 01-Franklin
    distance:
      value: 6.65
      units: km
  - name: Chicago Zone 06-Kedzie
    distance:
      value: 6.65
      units: km
  - name: Chicago Zone 05-Merrimac
    distance:
      value: 6.65
      units: km
  - name: Chicago Zone 05-Austin
    distance:
      value: 6.65
      units: km
  - name: Chicago Zone 04-Lakeview
    distance:
      value: 6.65
      units: km
  - name: Chicago Zone 04-Humboldt
    distance:
      value: 6.65
      units: km
  - name: Chicago Zone 01-Calumet
    distance:
      value: 6.65
      units: km
  - name: Chicago Zone 01-Canal
    distance:
      value: 6.65
      units: km
  - name: Chicago Zone 03-Newcastle
    distance:
      value: 6.65
      units: km
  - name: Chicago Zone 03-Kildare
    distance:
      value: 6.65
      units: km
  - name: Chicago Zone 11-O'Hare
    distance:
      value: 6.65
      units: km
  - name: Chicago Zone 02-Rogers Park
    distance:
      value: 6.65
      units: km
  - name: Chicago Zone 10-Pullman
    distance:
      value: 6.65
      units: km
  - name: Chicago Zone 02-Irving
    distance:
      value: 6.65
      units: km
  - name: Chicago Zone 02-Edgewater
    distance:
      value: 6.65
      units: km
  - name: Chicago Zone 10-Beverly
    distance:
      value: 6.65
      units: km
  - name: Chicago Zone 09-South Chicago
    distance:
      value: 6.65
      units: km
  - name: Chicago Zone 01-Wabash
    distance:
      value: 6.65
      units: km
  - name: Chicago Zone 09-Mitchell
    distance:
      value: 6.65
      units: km
  - name: Chicago Zone 08-Prospect
    distance:
      value: 6.65
      units: km
  - name: Chicago Zone 08-Portsmouth
    distance:
      value: 6.65
      units: km
  - name: Chicago Zone 07-Stewart
    distance:
      value: 6.65
      units: km
  - name: Berwyn
    distance:
      value: 8.73
      units: km
- country: US
  region: IL
  name: Chicago Heights
  lat: '41.5100'
  long: "-87.6345"
  closest_rate_centers:
  - name: Chicago Heights East
    distance:
      value: 0.49
      units: km
  - name: Park Forest
    distance:
      value: 0.49
      units: km
  - name: Chicago Heights
    distance:
      value: 0.49
      units: km
  - name: Homewood
    distance:
      value: 6.07
      units: km
  - name: Thornton
    distance:
      value: 7.04
      units: km
- country: US
  region: IL
  name: Chicago Ridge
  lat: '41.7034'
  long: "-87.7795"
  closest_rate_centers:
  - name: Hickory Hills
    distance:
      value: 3.02
      units: km
  - name: Oak Lawn
    distance:
      value: 3.02
      units: km
  - name: Palos Park
    distance:
      value: 5.73
      units: km
  - name: Summit
    distance:
      value: 8.36
      units: km
- country: US
  region: IL
  name: Chillicothe
  lat: '40.9158'
  long: "-89.5020"
  closest_rate_centers:
  - name: Chillicothe
    distance:
      value: 1.03
      units: km
  - name: Spring Bay
    distance:
      value: 10.01
      units: km
  - name: Edelstein
    distance:
      value: 11.69
      units: km
- country: US
  region: IL
  name: Chrisman
  lat: '39.8044'
  long: "-87.6749"
  closest_rate_centers:
  - name: Chrisman
    distance:
      value: 0.35
      units: km
  - name: Ridge Farm
    distance:
      value: 10.57
      units: km
  - name: Metcalf
    distance:
      value: 11.56
      units: km
- country: US
  region: IL
  name: Christopher
  lat: '37.9707'
  long: "-89.0531"
  closest_rate_centers:
  - name: Christopher
    distance:
      value: 0.6
      units: km
  - name: Zeigler
    distance:
      value: 7.34
      units: km
  - name: Royalton
    distance:
      value: 11.54
      units: km
- country: US
  region: IL
  name: Cicero
  lat: '41.8445'
  long: "-87.7593"
  closest_rate_centers:
  - name: Cicero
    distance:
      value: 0.63
      units: km
  - name: Berwyn
    distance:
      value: 2.68
      units: km
  - name: Riverside
    distance:
      value: 5.14
      units: km
- country: US
  region: IL
  name: Cisco
  lat: '40.0117'
  long: "-88.7254"
  closest_rate_centers:
  - name: Cisco
    distance:
      value: 0.37
      units: km
  - name: Argenta
    distance:
      value: 8.54
      units: km
  - name: Weldon
    distance:
      value: 11.96
      units: km
- country: US
  region: IL
  name: Cisne
  lat: '38.5141'
  long: "-88.4371"
  closest_rate_centers:
  - name: Cisne
    distance:
      value: 0.53
      units: km
  - name: Geff
    distance:
      value: 8.35
      units: km
  - name: Crisp
    distance:
      value: 16.23
      units: km
- country: US
  region: IL
  name: Cissna Park
  lat: '40.5670'
  long: "-87.8922"
  closest_rate_centers:
  - name: Cissna Park
    distance:
      value: 0.57
      units: km
  - name: Rankin
    distance:
      value: 11.03
      units: km
  - name: Buckley
    distance:
      value: 13.03
      units: km
- country: US
  region: IL
  name: Claremont
  lat: '38.7176'
  long: "-87.9728"
  closest_rate_centers:
  - name: Claremont
    distance:
      value: 0.57
      units: km
  - name: Calhoun
    distance:
      value: 9.52
      units: km
  - name: Olney
    distance:
      value: 9.55
      units: km
- country: US
  region: IL
  name: Clarendon Hills
  lat: '41.7981'
  long: "-87.9568"
  closest_rate_centers:
  - name: Hinsdale
    distance:
      value: 2.32
      units: km
  - name: Oak Brook
    distance:
      value: 2.32
      units: km
  - name: Downers Grove
    distance:
      value: 3.52
      units: km
  - name: Western Springs
    distance:
      value: 5.17
      units: km
- country: US
  region: IL
  name: Clay City
  lat: '38.6858'
  long: "-88.3486"
  closest_rate_centers:
  - name: Clay City
    distance:
      value: 0.78
      units: km
  - name: Sailor Springs
    distance:
      value: 9.03
      units: km
  - name: Noble
    distance:
      value: 11.04
      units: km
- country: US
  region: IL
  name: Clayton
  lat: '40.0301'
  long: "-90.9580"
  closest_rate_centers:
  - name: Clayton
    distance:
      value: 0.48
      units: km
  - name: Camp Point
    distance:
      value: 9.47
      units: km
  - name: Golden
    distance:
      value: 9.87
      units: km
- country: US
  region: IL
  name: Clear Lake
  lat: '39.8139'
  long: "-89.5682"
  closest_rate_centers:
  - name: Riverton
    distance:
      value: 4.68
      units: km
  - name: Springfield
    distance:
      value: 6.99
      units: km
  - name: Rochester
    distance:
      value: 7.81
      units: km
- country: US
  region: IL
  name: Cleveland
  lat: '41.5032'
  long: "-90.3171"
  closest_rate_centers:
  - name: Green River
    distance:
      value: 2.7
      units: km
  - name: Hampton
    distance:
      value: 8.4
      units: km
  - name: East Moline
    distance:
      value: 10.52
      units: km
- country: US
  region: IL
  name: Clifton
  lat: '40.9348'
  long: "-87.9343"
  closest_rate_centers:
  - name: Clifton
    distance:
      value: 0.31
      units: km
  - name: Ashkum
    distance:
      value: 6.64
      units: km
  - name: Chebanse
    distance:
      value: 8.06
      units: km
- country: US
  region: IL
  name: Clinton
  lat: '40.1468'
  long: "-88.9633"
  closest_rate_centers:
  - name: Clinton
    distance:
      value: 1.63
      units: km
  - name: Kenney
    distance:
      value: 11.56
      units: km
  - name: Maroa
    distance:
      value: 11.91
      units: km
- country: US
  region: IL
  name: Coal City
  lat: '41.2772'
  long: "-88.2803"
  closest_rate_centers:
  - name: Coal City
    distance:
      value: 0.92
      units: km
  - name: Braidwood
    distance:
      value: 5.5
      units: km
  - name: Gardner
    distance:
      value: 10.61
      units: km
- country: US
  region: IL
  name: Coal Valley
  lat: '41.4416'
  long: "-90.4462"
  closest_rate_centers:
  - name: East Moline
    distance:
      value: 8.22
      units: km
  - name: Moline
    distance:
      value: 9.3
      units: km
  - name: Orion
    distance:
      value: 11.39
      units: km
- country: US
  region: IL
  name: Coalton
  lat: '39.2848'
  long: "-89.3030"
  closest_rate_centers:
  - name: Nokomis
    distance:
      value: 2.38
      units: km
  - name: Witt
    distance:
      value: 4.95
      units: km
  - name: Irving
    distance:
      value: 12.7
      units: km
- country: US
  region: IL
  name: Coatsburg
  lat: '40.0327'
  long: "-91.1604"
  closest_rate_centers:
  - name: Coatsburg
    distance:
      value: 0.09
      units: km
  - name: Columbus
    distance:
      value: 4.65
      units: km
  - name: Camp Point
    distance:
      value: 8.02
      units: km
- country: US
  region: IL
  name: Cobden
  lat: '37.5335'
  long: "-89.2545"
  closest_rate_centers:
  - name: Cobden
    distance:
      value: 0.3
      units: km
  - name: Anna
    distance:
      value: 8.06
      units: km
  - name: Dongola
    distance:
      value: 20.94
      units: km
- country: US
  region: IL
  name: Coffeen
  lat: '39.0883'
  long: "-89.3898"
  closest_rate_centers:
  - name: Coffeen
    distance:
      value: 0.61
      units: km
  - name: Donnellson
    distance:
      value: 9.86
      units: km
  - name: Fillmore
    distance:
      value: 10.31
      units: km
- country: US
  region: IL
  name: Colchester
  lat: '40.4256'
  long: "-90.7922"
  closest_rate_centers:
  - name: Colchester
    distance:
      value: 0.14
      units: km
  - name: Macomb
    distance:
      value: 11.07
      units: km
  - name: Blandinsville
    distance:
      value: 15.71
      units: km
- country: US
  region: IL
  name: Coleta
  lat: '41.9021'
  long: "-89.7998"
  closest_rate_centers:
  - name: Coleta
    distance:
      value: 0.39
      units: km
  - name: Milledgeville
    distance:
      value: 7.62
      units: km
  - name: Sterling
    distance:
      value: 14.75
      units: km
- country: US
  region: IL
  name: Colfax
  lat: '40.5666'
  long: "-88.6160"
  closest_rate_centers:
  - name: Colfax
    distance:
      value: 0.95
      units: km
  - name: Cooksville
    distance:
      value: 9.58
      units: km
  - name: Cropsey
    distance:
      value: 12.5
      units: km
- country: US
  region: IL
  name: Collinsville
  lat: '38.6770'
  long: "-90.0063"
  closest_rate_centers:
  - name: Collinsville
    distance:
      value: 2.14
      units: km
  - name: Glen Carbon
    distance:
      value: 8.37
      units: km
  - name: Edgemont
    distance:
      value: 10.74
      units: km
- country: US
  region: IL
  name: Colona
  lat: '41.4678'
  long: "-90.3446"
  closest_rate_centers:
  - name: Green River
    distance:
      value: 2.65
      units: km
  - name: East Moline
    distance:
      value: 9.72
      units: km
  - name: Hampton
    distance:
      value: 10.56
      units: km
- country: US
  region: IL
  name: Colp
  lat: '37.8074'
  long: "-89.0786"
  closest_rate_centers:
  - name: Herrin
    distance:
      value: 4.26
      units: km
  - name: Carterville
    distance:
      value: 4.56
      units: km
  - name: Hurst
    distance:
      value: 6.72
      units: km
- country: US
  region: IL
  name: Columbia
  lat: '38.4581'
  long: "-90.2156"
  closest_rate_centers:
  - name: Columbia
    distance:
      value: 1.91
      units: km
  - name: Dupo
    distance:
      value: 6.46
      units: km
  - name: Westview
    distance:
      value: 9.43
      units: km
- country: US
  region: IL
  name: Columbus
  lat: '39.9883'
  long: "-91.1456"
  closest_rate_centers:
  - name: Columbus
    distance:
      value: 0.45
      units: km
  - name: Coatsburg
    distance:
      value: 5.18
      units: km
  - name: Camp Point
    distance:
      value: 9.15
      units: km
- country: US
  region: IL
  name: Como
  lat: '41.7662'
  long: "-89.7657"
  closest_rate_centers:
  - name: Sterling
    distance:
      value: 6.51
      units: km
  - name: Nelson
    distance:
      value: 14.38
      units: km
  - name: Lyndon
    distance:
      value: 14.56
      units: km
- country: US
  region: IL
  name: Compton
  lat: '41.6942'
  long: "-89.0858"
  closest_rate_centers:
  - name: Compton
    distance:
      value: 0.36
      units: km
  - name: West Brooklyn
    distance:
      value: 5.44
      units: km
  - name: Paw Paw
    distance:
      value: 8.68
      units: km
- country: US
  region: IL
  name: Concord
  lat: '39.8157'
  long: "-90.3705"
  closest_rate_centers:
  - name: Concord
    distance:
      value: 0.47
      units: km
  - name: Arenzville
    distance:
      value: 6.62
      units: km
  - name: Chapin
    distance:
      value: 7.45
      units: km
- country: US
  region: IL
  name: Congerville
  lat: '40.6168'
  long: "-89.2051"
  closest_rate_centers:
  - name: Congerville
    distance:
      value: 0.18
      units: km
  - name: Goodfield
    distance:
      value: 6.55
      units: km
  - name: Carlock
    distance:
      value: 7.39
      units: km
- country: US
  region: IL
  name: Cooksville
  lat: '40.5428'
  long: "-88.7146"
  closest_rate_centers:
  - name: Cooksville
    distance:
      value: 0.86
      units: km
  - name: Colfax
    distance:
      value: 7.82
      units: km
  - name: Ellsworth
    distance:
      value: 10.66
      units: km
- country: US
  region: IL
  name: Coral
  lat: '42.2180'
  long: "-88.5661"
  closest_rate_centers:
  - name: Union
    distance:
      value: 2.72
      units: km
  - name: Marengo
    distance:
      value: 5.22
      units: km
  - name: Huntley
    distance:
      value: 12.54
      units: km
- country: US
  region: IL
  name: Cordova
  lat: '41.6775'
  long: "-90.3218"
  closest_rate_centers:
  - name: Cordova
    distance:
      value: 0.46
      units: km
  - name: Port Byron
    distance:
      value: 7.86
      units: km
  - name: Hillsdale
    distance:
      value: 14.24
      units: km
- country: US
  region: IL
  name: Cornell
  lat: '40.9920'
  long: "-88.7299"
  closest_rate_centers:
  - name: Cornell
    distance:
      value: 0.2
      units: km
  - name: Graymont
    distance:
      value: 13.62
      units: km
  - name: Long Point
    distance:
      value: 13.73
      units: km
- country: US
  region: IL
  name: Cornland
  lat: '39.9376'
  long: "-89.4015"
  closest_rate_centers:
  - name: Buffalo
    distance:
      value: 9.76
      units: km
  - name: Elkhart
    distance:
      value: 11.48
      units: km
  - name: Williamsville
    distance:
      value: 12.59
      units: km
- country: US
  region: IL
  name: Cortland
  lat: '41.9255'
  long: "-88.6794"
  closest_rate_centers:
  - name: De Kalb
    distance:
      value: 5.74
      units: km
  - name: Maple Park
    distance:
      value: 7.05
      units: km
  - name: Sycamore
    distance:
      value: 7.38
      units: km
- country: US
  region: IL
  name: Coulterville
  lat: '38.1850'
  long: "-89.6045"
  closest_rate_centers:
  - name: Coulterville
    distance:
      value: 0.46
      units: km
  - name: Tilden
    distance:
      value: 7.9
      units: km
  - name: Sparta
    distance:
      value: 10.98
      units: km
- country: US
  region: IL
  name: Country Club Hills
  lat: '41.5636'
  long: "-87.7251"
  closest_rate_centers:
  - name: Tinley Park
    distance:
      value: 5.09
      units: km
  - name: Homewood
    distance:
      value: 5.11
      units: km
  - name: Oak Forest South
    distance:
      value: 5.48
      units: km
- country: US
  region: IL
  name: Countryside
  lat: '41.7741'
  long: "-87.8752"
  closest_rate_centers:
  - name: Western Springs
    distance:
      value: 4.32
      units: km
  - name: Willow Springs
    distance:
      value: 4.59
      units: km
  - name: La Grange
    distance:
      value: 4.6
      units: km
- country: US
  region: IL
  name: Cowden
  lat: '39.2493'
  long: "-88.8593"
  closest_rate_centers:
  - name: Cowden
    distance:
      value: 0.51
      units: km
  - name: Beecher City
    distance:
      value: 9.49
      units: km
  - name: Herrick
    distance:
      value: 10.93
      units: km
- country: US
  region: IL
  name: Coyne Center
  lat: '41.4006'
  long: "-90.5627"
  closest_rate_centers:
  - name: Preemption
    distance:
      value: 9.72
      units: km
  - name: Sherrard
    distance:
      value: 10.24
      units: km
  - name: Reynolds
    distance:
      value: 11.79
      units: km
- country: US
  region: IL
  name: Crab Orchard
  lat: '37.7249'
  long: "-88.8059"
  closest_rate_centers:
  - name: Paulton
    distance:
      value: 5.03
      units: km
  - name: Marion
    distance:
      value: 10.99
      units: km
  - name: Creal Springs
    distance:
      value: 11.91
      units: km
- country: US
  region: IL
  name: Crainville
  lat: '37.7511'
  long: "-89.0600"
  closest_rate_centers:
  - name: Carterville
    distance:
      value: 2.44
      units: km
  - name: Herrin
    distance:
      value: 6.37
      units: km
  - name: Marion
    distance:
      value: 11.55
      units: km
- country: US
  region: IL
  name: Creal Springs
  lat: '37.6198'
  long: "-88.8371"
  closest_rate_centers:
  - name: Creal Springs
    distance:
      value: 0.16
      units: km
  - name: Stonefort
    distance:
      value: 11.53
      units: km
  - name: Goreville
    distance:
      value: 13.6
      units: km
- country: US
  region: IL
  name: Crescent City
  lat: '40.7716'
  long: "-87.8564"
  closest_rate_centers:
  - name: Crescent City
    distance:
      value: 0.32
      units: km
  - name: Watseka
    distance:
      value: 10.18
      units: km
  - name: Gilman
    distance:
      value: 11.49
      units: km
- country: US
  region: IL
  name: Crest Hill
  lat: '41.5723'
  long: "-88.1124"
  closest_rate_centers:
  - name: Lockport
    distance:
      value: 5.38
      units: km
  - name: Romeoville
    distance:
      value: 5.38
      units: km
  - name: Joliet West
    distance:
      value: 5.61
      units: km
  - name: Joliet
    distance:
      value: 5.61
      units: km
  - name: Plainfield
    distance:
      value: 8.64
      units: km
- country: US
  region: IL
  name: Creston
  lat: '41.9335'
  long: "-88.9742"
  closest_rate_centers:
  - name: Creston
    distance:
      value: 0.5
      units: km
  - name: Rochelle
    distance:
      value: 8.49
      units: km
  - name: Malta
    distance:
      value: 9.1
      units: km
- country: US
  region: IL
  name: Crestwood
  lat: '41.6454'
  long: "-87.7397"
  closest_rate_centers:
  - name: Oak Forest South
    distance:
      value: 3.71
      units: km
  - name: Blue Island
    distance:
      value: 5.12
      units: km
  - name: Palos Park
    distance:
      value: 7.91
      units: km
- country: US
  region: IL
  name: Crete
  lat: '41.4401'
  long: "-87.6235"
  closest_rate_centers:
  - name: Crete
    distance:
      value: 1.23
      units: km
  - name: Chicago Heights East
    distance:
      value: 7.34
      units: km
  - name: Chicago Heights
    distance:
      value: 7.34
      units: km
  - name: Park Forest
    distance:
      value: 7.34
      units: km
  - name: Governors Park
    distance:
      value: 10.94
      units: km
- country: US
  region: IL
  name: Creve Coeur
  lat: '40.6426'
  long: "-89.5981"
  closest_rate_centers:
  - name: North Pekin
    distance:
      value: 3.01
      units: km
  - name: Peoria
    distance:
      value: 5.64
      units: km
  - name: Groveland
    distance:
      value: 7.55
      units: km
- country: US
  region: IL
  name: Crossville
  lat: '38.1626'
  long: "-88.0643"
  closest_rate_centers:
  - name: Crossville
    distance:
      value: 0.57
      units: km
  - name: Carmi
    distance:
      value: 11.79
      units: km
  - name: Grayville
    distance:
      value: 12.72
      units: km
- country: US
  region: IL
  name: Crystal Lake
  lat: '42.2333'
  long: "-88.3351"
  closest_rate_centers:
  - name: Crystal Lake
    distance:
      value: 1.57
      units: km
  - name: Cary
    distance:
      value: 7.78
      units: km
  - name: Algonquin
    distance:
      value: 8.12
      units: km
- country: US
  region: IL
  name: Crystal Lawns
  lat: '41.5685'
  long: "-88.1638"
  closest_rate_centers:
  - name: Plainfield
    distance:
      value: 5.76
      units: km
  - name: Joliet
    distance:
      value: 8.25
      units: km
  - name: Joliet West
    distance:
      value: 8.25
      units: km
  - name: Romeoville
    distance:
      value: 9.59
      units: km
  - name: Lockport
    distance:
      value: 9.59
      units: km
- country: US
  region: IL
  name: Cuba
  lat: '40.4936'
  long: "-90.1933"
  closest_rate_centers:
  - name: Cuba
    distance:
      value: 0.53
      units: km
  - name: Fiatt
    distance:
      value: 7.51
      units: km
  - name: Smithfield
    distance:
      value: 8.72
      units: km
- country: US
  region: IL
  name: Cullom
  lat: '40.8784'
  long: "-88.2699"
  closest_rate_centers:
  - name: Cullom
    distance:
      value: 0.12
      units: km
  - name: Kempton
    distance:
      value: 7.08
      units: km
  - name: Saunemin
    distance:
      value: 11.85
      units: km
- country: US
  region: IL
  name: Curran
  lat: '39.7420'
