---
cities:
- country: US
  region: IL
  name: Abingdon
  lat: '40.8038'
  long: "-90.4009"
  nearby_rate_centers:
  - name: ABINGDON
    distance:
      value: 0.61
      units: km
  - name: CAMERON
    distance:
      value: 13.63
      units: km
  - name: LONDON ML
    distance:
      value: 15.13
      units: km
- country: US
  region: IL
  name: Adair
  lat: '40.4183'
  long: "-90.4974"
  nearby_rate_centers:
  - name: ADAIR
    distance:
      value: 1.1
      units: km
  - name: TABLEGROVE
    distance:
      value: 8.42
      units: km
  - name: BARDOLPH
    distance:
      value: 10.52
      units: km
- country: US
  region: IL
  name: Adams
  lat: '39.8708'
  long: "-91.1998"
  nearby_rate_centers:
  - name: BURTON
    distance:
      value: 5.48
      units: km
  - name: PAYSON
    distance:
      value: 6.98
      units: km
  - name: LIBERTY
    distance:
      value: 7.73
      units: km
- country: US
  region: IL
  name: Addieville
  lat: '38.3913'
  long: "-89.4865"
  nearby_rate_centers:
  - name: ADDIEVILLE
    distance:
      value: 0.27
      units: km
  - name: OKAWVILLE
    distance:
      value: 7.66
      units: km
  - name: NASHVILLE
    distance:
      value: 10.45
      units: km
- country: US
  region: IL
  name: Addison
  lat: '41.9313'
  long: "-88.0085"
  nearby_rate_centers:
  - name: ITASCA
    distance:
      value: 4.64
      units: km
  - name: LOMBARD
    distance:
      value: 5.34
      units: km
  - name: ELMHURST
    distance:
      value: 6.39
      units: km
- country: US
  region: IL
  name: Adeline
  lat: '42.1406'
  long: "-89.4919"
  nearby_rate_centers:
  - name: FORRESTON
    distance:
      value: 7.08
      units: km
  - name: LEAF RIVER
    distance:
      value: 7.45
      units: km
  - name: GERMAN VLY
    distance:
      value: 8.64
      units: km
- country: US
  region: IL
  name: Albany
  lat: '41.7861'
  long: "-90.2163"
  nearby_rate_centers:
  - name: ALBANY
    distance:
      value: 0.54
      units: km
  - name: FULTON
    distance:
      value: 10.9
      units: km
  - name: CORDOVA
    distance:
      value: 14.47
      units: km
- country: US
  region: IL
  name: Albers
  lat: '38.5452'
  long: "-89.6142"
  nearby_rate_centers:
  - name: ALBERS
    distance:
      value: 0.51
      units: km
  - name: GERMANTOWN
    distance:
      value: 6.47
      units: km
  - name: AVISTON
    distance:
      value: 7.56
      units: km
- country: US
  region: IL
  name: Albion
  lat: '38.3766'
  long: "-88.0580"
  nearby_rate_centers:
  - name: ALBION
    distance:
      value: 0.26
      units: km
  - name: BROWNS
    distance:
      value: 7.1
      units: km
  - name: BELLMONT
    distance:
      value: 12.85
      units: km
- country: US
  region: IL
  name: Alden
  lat: '42.4588'
  long: "-88.5184"
  nearby_rate_centers:
  - name: HEBRON
    distance:
      value: 7.02
      units: km
  - name: HARVARD
    distance:
      value: 8.39
      units: km
  - name: WOODSTOCK
    distance:
      value: 16.57
      units: km
- country: US
  region: IL
  name: Aledo
  lat: '41.1990'
  long: "-90.7459"
  nearby_rate_centers:
  - name: ALEDO
    distance:
      value: 0.33
      units: km
  - name: JOY
    distance:
      value: 11.13
      units: km
  - name: SEATON
    distance:
      value: 11.69
      units: km
- country: US
  region: IL
  name: Alexander
  lat: '39.7218'
  long: "-90.0368"
  nearby_rate_centers:
  - name: ALEXANDER
    distance:
      value: 0.01
      units: km
  - name: NEW BERLIN
    distance:
      value: 10.94
      units: km
  - name: FRANKLIN
    distance:
      value: 11.74
      units: km
- country: US
  region: IL
  name: Alexis
  lat: '41.0630'
  long: "-90.5555"
  nearby_rate_centers:
  - name: ALEXIS
    distance:
      value: 0.15
      units: km
  - name: NOHENDERSN
    distance:
      value: 7.34
      units: km
  - name: RIO
    distance:
      value: 14.17
      units: km
  - name: Rio (Oneida Telephone)
    distance:
      value: 14.17
      units: km
- country: US
  region: IL
  name: Algonquin
  lat: '42.1629'
  long: "-88.3159"
  nearby_rate_centers:
  - name: ALGONQUIN
    distance:
      value: 2.2
      units: km
  - name: DUNDEE
    distance:
      value: 7.75
      units: km
  - name: POPLAR CRE
    distance:
      value: 7.75
      units: km
  - name: CARY
    distance:
      value: 8.1
      units: km
- country: US
  region: IL
  name: Alhambra
  lat: '38.8878'
  long: "-89.7362"
  nearby_rate_centers:
  - name: ALHAMBRA
    distance:
      value: 0.61
      units: km
  - name: GRANTFORK
    distance:
      value: 8.51
      units: km
  - name: HAMEL
    distance:
      value: 9.22
      units: km
- country: US
  region: IL
  name: Allendale
  lat: '38.5276'
  long: "-87.7103"
  nearby_rate_centers:
  - name: ALLENDALE
    distance:
      value: 0.16
      units: km
  - name: STFRNCISVL
    distance:
      value: 9.13
      units: km
  - name: MT CARMEL
    distance:
      value: 13.58
      units: km
- country: US
  region: IL
  name: Allenville
  lat: '39.5583'
  long: "-88.5387"
  nearby_rate_centers:
  - name: SULLIVAN
    distance:
      value: 7.68
      units: km
  - name: KIRKSVILLE
    distance:
      value: 11.35
      units: km
  - name: GAYS
    distance:
      value: 12.09
      units: km
- country: US
  region: IL
  name: Allerton
  lat: '39.9161'
  long: "-87.9353"
  nearby_rate_centers:
  - name: BROADLANDS
    distance:
      value: 5.22
      units: km
  - name: SIDELL
    distance:
      value: 9.17
      units: km
  - name: NEWMAN
    distance:
      value: 13.21
      units: km
- country: US
  region: IL
  name: Alma
  lat: '38.7229'
  long: "-88.9118"
  nearby_rate_centers:
  - name: KINMUNDY
    distance:
      value: 7.78
      units: km
  - name: SALEM
    distance:
      value: 10.77
      units: km
  - name: IUKA
    distance:
      value: 16.0
      units: km
- country: US
  region: IL
  name: Alpha
  lat: '41.1915'
  long: "-90.3805"
  nearby_rate_centers:
  - name: ALPHA
    distance:
      value: 0.44
      units: km
  - name: NEWWINDSOR
    distance:
      value: 5.37
      units: km
  - name: WOODHULL
    distance:
      value: 6.12
      units: km
- country: US
  region: IL
  name: Alsey
  lat: '39.5592'
  long: "-90.4328"
  nearby_rate_centers:
  - name: WINCHESTER
    distance:
      value: 8.68
      units: km
  - name: MANCHESTER
    distance:
      value: 9.44
      units: km
  - name: PATTERSON
    distance:
      value: 9.8
      units: km
- country: US
  region: IL
  name: Alsip
  lat: '41.6701'
  long: "-87.7368"
  nearby_rate_centers:
  - name: BLUEISLAND
    distance:
      value: 5.04
      units: km
  - name: HICKORYHLS
    distance:
      value: 5.72
      units: km
  - name: OAK LAWN
    distance:
      value: 5.72
      units: km
  - name: OAK FOR SO
    distance:
      value: 6.4
      units: km
- country: US
  region: IL
  name: Altamont
  lat: '39.0566'
  long: "-88.7477"
  nearby_rate_centers:
  - name: ALTAMONT
    distance:
      value: 0.7
      units: km
  - name: ST ELMO
    distance:
      value: 9.3
      units: km
  - name: BEECHER CY
    distance:
      value: 14.91
      units: km
- country: US
  region: IL
  name: Alto Pass
  lat: '37.5737'
  long: "-89.3192"
  nearby_rate_centers:
  - name: COBDEN
    distance:
      value: 7.25
      units: km
  - name: ANNA
    distance:
      value: 14.01
      units: km
  - name: CARBONDALE
    distance:
      value: 19.42
      units: km
- country: US
  region: IL
  name: Alton
  lat: '38.9037'
  long: "-90.1520"
  nearby_rate_centers:
  - name: ALTON
    distance:
      value: 3.0
      units: km
  - name: WOOD RIVER
    distance:
      value: 6.76
      units: km
  - name: BETHALTO
    distance:
      value: 9.45
      units: km
- country: US
  region: IL
  name: Altona
  lat: '41.1150'
  long: "-90.1648"
  nearby_rate_centers:
  - name: ALTONA
    distance:
      value: 0.39
      units: km
  - name: ONEIDA
    distance:
      value: 6.96
      units: km
  - name: BISHOPHILL
    distance:
      value: 10.57
      units: km
- country: US
  region: IL
  name: Alvan
  lat: '40.3070'
  long: "-87.6069"
  nearby_rate_centers:
  - name: ALVIN
    distance:
      value: 0.2
      units: km
  - name: BISMARCK
    distance:
      value: 4.94
      units: km
  - name: HENNING
    distance:
      value: 7.67
      units: km
- country: US
  region: IL
  name: Amboy
  lat: '41.7287'
  long: "-89.3685"
  nearby_rate_centers:
  - name: AMBOY
    distance:
      value: 3.0
      units: km
  - name: FRANKLIGRV
    distance:
      value: 14.17
      units: km
  - name: SUBLETTE
    distance:
      value: 14.98
      units: km
- country: US
  region: IL
  name: Anchor
  lat: '40.5681'
  long: "-88.5385"
  nearby_rate_centers:
  - name: CROPSEY
    distance:
      value: 6.91
      units: km
  - name: COLFAX
    distance:
      value: 7.5
      units: km
  - name: SIBLEY
    distance:
      value: 13.47
      units: km
- country: US
  region: IL
  name: Andalusia
  lat: '41.4372'
  long: "-90.7165"
  nearby_rate_centers:
  - name: EDGINGTON
    distance:
      value: 6.82
      units: km
  - name: REYNOLDS
    distance:
      value: 12.3
      units: km
  - name: ROCKISLAND
    distance:
      value: 14.11
      units: km
- country: US
  region: IL
  name: Andover
  lat: '41.2949'
  long: "-90.2907"
  nearby_rate_centers:
  - name: Andover (Cambridge Telephone)
    distance:
      value: 0.27
      units: km
  - name: ANDOVER
    distance:
      value: 0.27
      units: km
  - name: OSCO
    distance:
      value: 6.33
      units: km
  - name: CAMBRIDGE
    distance:
      value: 8.51
      units: km
- country: US
  region: IL
  name: Andres
  lat: '41.3711'
  long: "-87.8816"
  nearby_rate_centers:
  - name: PEOTONE
    distance:
      value: 8.79
      units: km
  - name: MANHATTAN
    distance:
      value: 10.12
      units: km
  - name: GOVRNORSPK
    distance:
      value: 12.02
      units: km
- country: US
  region: IL
  name: Anna
  lat: '37.4612'
  long: "-89.2388"
  nearby_rate_centers:
  - name: ANNA
    distance:
      value: 0.78
      units: km
  - name: COBDEN
    distance:
      value: 8.36
      units: km
  - name: DONGOLA
    distance:
      value: 13.11
      units: km
- country: US
  region: IL
  name: Annapolis
  lat: '39.1431'
  long: "-87.8172"
  nearby_rate_centers:
  - name: ANNAPOLIS
    distance:
      value: 0.71
      units: km
  - name: HUTSONVL
    distance:
      value: 13.87
      units: km
  - name: WEST UNION
    distance:
      value: 16.04
      units: km
- country: US
  region: IL
  name: Annawan
  lat: '41.3958'
  long: "-89.8882"
  nearby_rate_centers:
  - name: ANNAWAN
    distance:
      value: 1.78
      units: km
  - name: MINERAL
    distance:
      value: 4.66
      units: km
  - name: ATKINSON
    distance:
      value: 10.81
      units: km
- country: US
  region: IL
  name: Antioch
  lat: '42.4742'
  long: "-88.0721"
  nearby_rate_centers:
  - name: ANTIOCH
    distance:
      value: 2.18
      units: km
  - name: LAKE VILLA
    distance:
      value: 6.13
      units: km
  - name: FOX LAKE
    distance:
      value: 12.47
      units: km
- country: US
  region: IL
  name: Apple Canyon Lake
  lat: '42.4302'
  long: "-90.1642"
  nearby_rate_centers:
  - name: SCALESMOND
    distance:
      value: 8.92
      units: km
  - name: APPLERIVER
    distance:
      value: 9.2
      units: km
  - name: ELIZABETH
    distance:
      value: 13.57
      units: km
- country: US
  region: IL
  name: Apple River
  lat: '42.5022'
  long: "-90.0937"
  nearby_rate_centers:
  - name: APPLERIVER
    distance:
      value: 0.69
      units: km
  - name: WARREN
    distance:
      value: 8.42
      units: km
  - name: SCALESMOND
    distance:
      value: 13.33
      units: km
- country: US
  region: IL
  name: Arbury Hills
  lat: '41.5353'
  long: "-87.8461"
  nearby_rate_centers:
  - name: MOKENA
    distance:
      value: 3.15
      units: km
  - name: FRANKFORT
    distance:
      value: 4.25
      units: km
  - name: TINLEYPARK
    distance:
      value: 6.92
      units: km
- country: US
  region: IL
  name: Arcola
  lat: '39.6833'
  long: "-88.3013"
  nearby_rate_centers:
  - name: ARCOLA
    distance:
      value: 0.45
      units: km
  - name: HUMBOLDT
    distance:
      value: 8.88
      units: km
  - name: TUSCOLA
    distance:
      value: 12.72
      units: km
- country: US
  region: IL
  name: Arenzville
  lat: '39.8805'
  long: "-90.3706"
  nearby_rate_centers:
  - name: ARENZVILLE
    distance:
      value: 0.58
      units: km
  - name: CONCORD
    distance:
      value: 6.79
      units: km
  - name: CHAPIN
    distance:
      value: 14.41
      units: km
- country: US
  region: IL
  name: Argenta
  lat: '39.9855'
  long: "-88.8197"
  nearby_rate_centers:
  - name: ARGENTA
    distance:
      value: 0.22
      units: km
  - name: OREANA
    distance:
      value: 6.54
      units: km
  - name: CISCO
    distance:
      value: 8.32
      units: km
- country: US
  region: IL
  name: Argyle
  lat: '42.3548'
  long: "-88.9392"
  nearby_rate_centers:
  - name: ROCK CUT
    distance:
      value: 1.46
      units: km
  - name: ROSCOE
    distance:
      value: 9.05
      units: km
  - name: POPLAR GRV
    distance:
      value: 9.95
      units: km
- country: US
  region: IL
  name: Arlington
  lat: '41.4716'
  long: "-89.2478"
  nearby_rate_centers:
  - name: LA MOILLE
    distance:
      value: 7.38
      units: km
  - name: LADD
    distance:
      value: 10.46
      units: km
  - name: DOVER
    distance:
      value: 12.93
      units: km
- country: US
  region: IL
  name: Arlington Heights
  lat: '42.0955'
  long: "-87.9826"
  nearby_rate_centers:
  - name: ARLIGTNHTS
    distance:
      value: 0.66
      units: km
  - name: SCHAUMBG N
    distance:
      value: 5.88
      units: km
  - name: PALATINE
    distance:
      value: 5.88
      units: km
  - name: ELK GROVE
    distance:
      value: 7.54
      units: km
- country: US
  region: IL
  name: Armington
  lat: '40.3397'
  long: "-89.3144"
  nearby_rate_centers:
  - name: MINIERAGTN
    distance:
      value: 10.51
      units: km
  - name: ATLANTA
    distance:
      value: 10.97
      units: km
  - name: MCLEAN
    distance:
      value: 11.8
      units: km
- country: US
  region: IL
  name: Aroma Park
  lat: '41.0788'
  long: "-87.8011"
  nearby_rate_centers:
  - name: KANKAKEE
    distance:
      value: 6.99
      units: km
  - name: ST ANNE
    distance:
      value: 8.85
      units: km
  - name: CHEBANSE
    distance:
      value: 12.26
      units: km
- country: US
  region: IL
  name: Arrowsmith
  lat: '40.4493'
  long: "-88.6321"
  nearby_rate_centers:
  - name: ARROWSMITH
    distance:
      value: 0.49
      units: km
  - name: ELLSWORTH
    distance:
      value: 7.54
      units: km
  - name: SAYBROOK
    distance:
      value: 8.9
      units: km
- country: US
  region: IL
  name: Arthur
  lat: '39.7144'
  long: "-88.4696"
  nearby_rate_centers:
  - name: ARTHUR
    distance:
      value: 0.39
      units: km
  - name: ATWOOD
    distance:
      value: 9.62
      units: km
  - name: HAMMOND
    distance:
      value: 13.44
      units: km
- country: US
  region: IL
  name: Ashkum
  lat: '40.8783'
  long: "-87.9533"
  nearby_rate_centers:
  - name: ASHKUM
    distance:
      value: 0.31
      units: km
  - name: DANFORTH
    distance:
      value: 6.42
      units: km
  - name: CLIFTON
    distance:
      value: 6.58
      units: km
- country: US
  region: IL
  name: Ashland
  lat: '39.8886'
  long: "-90.0078"
  nearby_rate_centers:
  - name: ASHLAND
    distance:
      value: 0.27
      units: km
  - name: PLEASANTPL
    distance:
      value: 8.23
      units: km
  - name: TALLULA
    distance:
      value: 8.97
      units: km
- country: US
  region: IL
  name: Ashley
  lat: '38.3288'
  long: "-89.1893"
  nearby_rate_centers:
  - name: ASHLEY
    distance:
      value: 0.52
      units: km
  - name: DUBOIS
    distance:
      value: 11.72
      units: km
  - name: IRVINGTON
    distance:
      value: 12.84
      units: km
- country: US
  region: IL
  name: Ashmore
  lat: '39.5306'
  long: "-88.0201"
  nearby_rate_centers:
  - name: ASHMORE
    distance:
      value: 0.51
      units: km
  - name: KANSAS
    distance:
      value: 7.24
      units: km
  - name: WESTFIELD
    distance:
      value: 7.99
      units: km
- country: US
  region: IL
  name: Ashton
  lat: '41.8682'
  long: "-89.2225"
  nearby_rate_centers:
  - name: ASHTON
    distance:
      value: 0.23
      units: km
  - name: FRANKLIGRV
    distance:
      value: 6.75
      units: km
  - name: ROCHELLE
    distance:
      value: 13.7
      units: km
- country: US
  region: IL
  name: Assumption
  lat: '39.5180'
  long: "-89.0478"
  nearby_rate_centers:
  - name: ASSUMPTION
    distance:
      value: 0.47
      units: km
  - name: MOWEAQUA
    distance:
      value: 12.65
      units: km
  - name: OWANECO
    distance:
      value: 12.9
      units: km
- country: US
  region: IL
  name: Astoria
  lat: '40.2279'
  long: "-90.3565"
  nearby_rate_centers:
  - name: ASTORIA
    distance:
      value: 0.32
      units: km
  - name: SUMMUM
    distance:
      value: 7.96
      units: km
  - name: VERMONT
    distance:
      value: 9.87
      units: km
- country: US
  region: IL
  name: Athens
  lat: '39.9618'
  long: "-89.7217"
  nearby_rate_centers:
  - name: ATHENS
    distance:
      value: 0.51
      units: km
  - name: CANTRALL
    distance:
      value: 4.7
      units: km
  - name: PETERSBURG
    distance:
      value: 12.24
      units: km
- country: US
  region: IL
  name: Atkinson
  lat: '41.4168'
  long: "-90.0087"
  nearby_rate_centers:
  - name: ATKINSON
    distance:
      value: 0.69
      units: km
  - name: ANNAWAN
    distance:
      value: 8.69
      units: km
  - name: GENESEO
    distance:
      value: 12.86
      units: km
- country: US
  region: IL
  name: Atlanta
  lat: '40.2638'
  long: "-89.2309"
  nearby_rate_centers:
  - name: ATLANTA
    distance:
      value: 0.67
      units: km
  - name: MCLEAN
    distance:
      value: 7.71
      units: km
  - name: WAYNESVL
    distance:
      value: 9.18
      units: km
- country: US
  region: IL
  name: Atwood
  lat: '39.7992'
  long: "-88.4626"
  nearby_rate_centers:
  - name: ATWOOD
    distance:
      value: 0.62
      units: km
  - name: ARTHUR
    distance:
      value: 9.08
      units: km
  - name: HAMMOND
    distance:
      value: 10.57
      units: km
- country: US
  region: IL
  name: Auburn
  lat: '39.5763'
  long: "-89.7440"
  nearby_rate_centers:
  - name: AUBURN
    distance:
      value: 2.0
      units: km
  - name: DIVERNON
    distance:
      value: 7.87
      units: km
  - name: VIRDEN
    distance:
      value: 8.83
      units: km
- country: US
  region: IL
  name: Augusta
  lat: '40.2307'
  long: "-90.9500"
  nearby_rate_centers:
  - name: AUGUSTA
    distance:
      value: 0.81
      units: km
  - name: PLYMOUTH
    distance:
      value: 6.86
      units: km
  - name: BOWEN
    distance:
      value: 9.56
      units: km
- country: US
  region: IL
  name: Aurora
  lat: '41.7638'
  long: "-88.2902"
  nearby_rate_centers:
  - name: AURORA EAS
    distance:
      value: 2.29
      units: km
  - name: AURORA
    distance:
      value: 2.29
      units: km
  - name: BATAVIA
    distance:
      value: 10.44
      units: km
  - name: OSWEGO
    distance:
      value: 10.5
      units: km
- country: US
  region: IL
  name: Ava
  lat: '37.8886'
  long: "-89.4965"
  nearby_rate_centers:
  - name: AVA
    distance:
      value: 0.39
      units: km
  - name: GLENN
    distance:
      value: 12.02
      units: km
  - name: PERCY
    distance:
      value: 17.76
      units: km
- country: US
  region: IL
  name: Aviston
  lat: '38.6162'
  long: "-89.6087"
  nearby_rate_centers:
  - name: AVISTON
    distance:
      value: 0.56
      units: km
  - name: TRENTON
    distance:
      value: 6.61
      units: km
  - name: BREESE
    distance:
      value: 7.25
      units: km
- country: US
  region: IL
  name: Avon
  lat: '40.6620'
  long: "-90.4352"
  nearby_rate_centers:
  - name: AVON
    distance:
      value: 0.55
      units: km
  - name: PRAIRIE CY
    distance:
      value: 4.61
      units: km
  - name: ELLISVILLE
    distance:
      value: 11.85
      units: km
- country: US
  region: IL
  name: Baileyville
  lat: '42.1984'
  long: "-89.5946"
  nearby_rate_centers:
  - name: FORRESTON
    distance:
      value: 8.17
      units: km
  - name: GERMAN VLY
    distance:
      value: 10.27
      units: km
  - name: FREEPORT
    distance:
      value: 10.82
      units: km
- country: US
  region: IL
  name: Baldwin
  lat: '38.1838'
  long: "-89.8451"
  nearby_rate_centers:
  - name: BALDWIN
    distance:
      value: 0.27
      units: km
  - name: MARISSA
    distance:
      value: 9.66
      units: km
  - name: EVANSVILLE
    distance:
      value: 12.83
      units: km
- country: US
  region: IL
  name: Banner
  lat: '40.5126'
  long: "-89.9156"
  nearby_rate_centers:
  - name: TALBOTT
    distance:
      value: 10.87
      units: km
  - name: CANTON
    distance:
      value: 11.01
      units: km
  - name: GLASFORD
    distance:
      value: 11.26
      units: km
- country: US
  region: IL
  name: Bannockburn
  lat: '42.1932'
  long: "-87.8695"
  nearby_rate_centers:
  - name: DEERFIELD
    distance:
      value: 2.96
      units: km
  - name: HIGHLANDPK
    distance:
      value: 6.19
      units: km
  - name: WHEELING
    distance:
      value: 6.89
      units: km
- country: US
  region: IL
  name: Bardolph
  lat: '40.4959'
  long: "-90.5631"
  nearby_rate_centers:
  - name: BARDOLPH
    distance:
      value: 0.44
      units: km
  - name: BUSHNELL
    distance:
      value: 8.1
      units: km
  - name: MACOMB
    distance:
      value: 9.89
      units: km
- country: US
  region: IL
  name: Barrington
  lat: '42.1515'
  long: "-88.1281"
  nearby_rate_centers:
  - name: BARRNGTN S
    distance:
      value: 0.48
      units: km
  - name: BARRINGTON
    distance:
      value: 0.48
      units: km
  - name: LAKEZURICH
    distance:
      value: 5.67
      units: km
  - name: PALATINE
    distance:
      value: 7.68
      units: km
  - name: SCHAUMBG N
    distance:
      value: 7.68
      units: km
- country: US
  region: IL
  name: Barrington Hills
  lat: '42.1399'
  long: "-88.2034"
  nearby_rate_centers:
  - name: BARRNGTN S
    distance:
      value: 5.99
      units: km
  - name: BARRINGTON
    distance:
      value: 5.99
      units: km
  - name: DUNDEE
    distance:
      value: 7.43
      units: km
  - name: POPLAR CRE
    distance:
      value: 7.43
      units: km
  - name: ALGONQUIN
    distance:
      value: 7.82
      units: km
- country: US
  region: IL
  name: Barry
  lat: '39.6982'
  long: "-91.0399"
  nearby_rate_centers:
  - name: BARRY
    distance:
      value: 0.78
      units: km
  - name: NEW CANTON
    distance:
      value: 8.6
      units: km
  - name: BAYLIS
    distance:
      value: 11.78
      units: km
- country: US
  region: IL
  name: Barstow
  lat: '41.5162'
  long: "-90.3566"
  nearby_rate_centers:
  - name: HAMPTON
    distance:
      value: 5.24
      units: km
  - name: GREENRIVER
    distance:
      value: 5.33
      units: km
  - name: EASTMOLINE
    distance:
      value: 7.14
      units: km
- country: US
  region: IL
  name: Bartelso
  lat: '38.5371'
  long: "-89.4672"
  nearby_rate_centers:
  - name: BARTELSO
    distance:
      value: 0.39
      units: km
  - name: GERMANTOWN
    distance:
      value: 6.81
      units: km
  - name: BECKEMEYER
    distance:
      value: 8.37
      units: km
- country: US
  region: IL
  name: Bartlett
  lat: '41.9804'
  long: "-88.2071"
  nearby_rate_centers:
  - name: BARTLETT
    distance:
      value: 2.01
      units: km
  - name: ELGIN
    distance:
      value: 9.13
      units: km
  - name: SCHAUMBURG
    distance:
      value: 10.01
      units: km
  - name: ROSELLE
    distance:
      value: 10.01
      units: km
  - name: WILLOCREST
    distance:
      value: 10.01
      units: km
- country: US
  region: IL
  name: Bartonville
  lat: '40.6397'
  long: "-89.6607"
  nearby_rate_centers:
  - name: NORTHPEKIN
    distance:
      value: 4.07
      units: km
  - name: PEORIA
    distance:
      value: 8.3
      units: km
  - name: PEKIN
    distance:
      value: 8.65
      units: km
- country: US
  region: IL
  name: Basco
  lat: '40.3278'
  long: "-91.1996"
  nearby_rate_centers:
  - name: BASCO
    distance:
      value: 0.34
      units: km
  - name: ELVASTON
    distance:
      value: 8.43
      units: km
  - name: CARTHAGE
    distance:
      value: 11.03
      units: km
- country: US
  region: IL
  name: Batavia
  lat: '41.8479'
  long: "-88.3109"
  nearby_rate_centers:
  - name: BATAVIA
    distance:
      value: 1.03
      units: km
  - name: GENEVA
    distance:
      value: 4.67
      units: km
  - name: ST CHARLES
    distance:
      value: 7.22
      units: km
- country: US
  region: IL
  name: Batchtown
  lat: '39.0331'
  long: "-90.6533"
  nearby_rate_centers:
  - name: BATCHTOWN
    distance:
      value: 0.4
      units: km
  - name: BRUSSELS
    distance:
      value: 10.71
      units: km
  - name: HARDIN
    distance:
      value: 13.65
      units: km
- country: US
  region: IL
  name: Bath
  lat: '40.1905'
  long: "-90.1425"
  nearby_rate_centers:
  - name: BATH
    distance:
      value: 0.53
      units: km
  - name: KILBOURNE
    distance:
      value: 11.86
      units: km
  - name: HAVANA
    distance:
      value: 13.91
      units: km
- country: US
  region: IL
  name: Bay View Gardens
  lat: '40.8102'
  long: "-89.5272"
  nearby_rate_centers:
  - name: SPRING BAY
    distance:
      value: 1.92
      units: km
  - name: MOSSVILLE
    distance:
      value: 3.69
      units: km
  - name: GERMATNHLS
    distance:
      value: 6.23
      units: km
- country: US
  region: IL
  name: Baylis
  lat: '39.7294'
  long: "-90.9094"
  nearby_rate_centers:
  - name: BAYLIS
    distance:
      value: 0.18
      units: km
  - name: FISHHOOK
    distance:
      value: 8.38
      units: km
  - name: BARRY
    distance:
      value: 12.18
      units: km
- country: US
  region: IL
  name: Beach Park
  lat: '42.4260'
  long: "-87.8583"
  nearby_rate_centers:
  - name: ZION
    distance:
      value: 3.2
      units: km
  - name: N CHICAGO
    distance:
      value: 7.32
      units: km
  - name: WAUKEGAN
    distance:
      value: 7.32
      units: km
  - name: GRAYSLAKE
    distance:
      value: 16.98
      units: km
- country: US
  region: IL
  name: Beardstown
  lat: '39.9993'
  long: "-90.4178"
  nearby_rate_centers:
  - name: BEARDSTOWN
    distance:
      value: 2.4
      units: km
  - name: ARENZVILLE
    distance:
      value: 14.37
      units: km
  - name: RUSHVILLE
    distance:
      value: 18.22
      units: km
- country: US
  region: IL
  name: Beason
  lat: '40.1428'
  long: "-89.1928"
  nearby_rate_centers:
  - name: BEASON
    distance:
      value: 0.64
      units: km
  - name: CHESTNUT
    distance:
      value: 9.49
      units: km
  - name: KENNEY
    distance:
      value: 10.08
      units: km
- country: US
  region: IL
  name: Beaverville
  lat: '40.9534'
  long: "-87.6546"
  nearby_rate_centers:
  - name: BEAVERVL
    distance:
      value: 0.71
      units: km
  - name: MARTINTON
    distance:
      value: 7.54
      units: km
  - name: DONOVAN
    distance:
      value: 8.5
      units: km
- country: US
  region: IL
  name: Beckemeyer
  lat: '38.6058'
  long: "-89.4321"
  nearby_rate_centers:
  - name: BECKEMEYER
    distance:
      value: 0.47
      units: km
  - name: CARLYLE
    distance:
      value: 5.61
      units: km
  - name: BREESE
    distance:
      value: 8.14
      units: km
- country: US
  region: IL
  name: Bedford Park
  lat: '41.7669'
  long: "-87.7915"
  nearby_rate_centers:
  - name: SUMMIT
    distance:
      value: 1.76
      units: km
  - name: HICKORYHLS
    distance:
      value: 6.15
      units: km
  - name: OAK LAWN
    distance:
      value: 6.15
      units: km
  - name: RIVERSIDE
    distance:
      value: 7.47
      units: km
- country: US
  region: IL
  name: Beecher
  lat: '41.3500'
  long: "-87.6172"
  nearby_rate_centers:
  - name: BEECHER
    distance:
      value: 1.88
      units: km
  - name: CRETE
    distance:
      value: 10.14
      units: km
  - name: GRANT PARK
    distance:
      value: 12.04
      units: km
- country: US
  region: IL
  name: Beecher City
  lat: '39.1867'
  long: "-88.7877"
  nearby_rate_centers:
  - name: BEECHER CY
    distance:
      value: 0.45
      units: km
  - name: COWDEN
    distance:
      value: 9.32
      units: km
  - name: SHUMWAY
    distance:
      value: 11.82
      units: km
- country: US
  region: IL
  name: Belgium
  lat: '40.0607'
  long: "-87.6328"
  nearby_rate_centers:
  - name: WESTVILLE
    distance:
      value: 1.95
      units: km
  - name: CATLIN
    distance:
      value: 6.43
      units: km
  - name: DANVILLE
    distance:
      value: 6.91
      units: km
- country: US
  region: IL
  name: Belknap
  lat: '37.3224'
  long: "-88.9405"
  nearby_rate_centers:
  - name: KARNAK
    distance:
      value: 4.38
      units: km
  - name: CYPRESS
    distance:
      value: 8.36
      units: km
  - name: VIENNA
    distance:
      value: 11.26
      units: km
- country: US
  region: IL
  name: Belle Prairie City
  lat: '38.2235'
  long: "-88.5556"
  nearby_rate_centers:
  - name: BELLEPRARI
    distance:
      value: 0.42
      units: km
  - name: BLAIRSVL
    distance:
      value: 10.75
      units: km
  - name: DAHLGREN
    distance:
      value: 11.28
      units: km
- country: US
  region: IL
  name: Belle Rive
  lat: '38.2317'
  long: "-88.7405"
  nearby_rate_centers:
  - name: BELLE RIVE
    distance:
      value: 0.13
      units: km
  - name: DAHLGREN
    distance:
      value: 6.65
      units: km
  - name: BLUFORD
    distance:
      value: 10.53
      units: km
- country: US
  region: IL
  name: Belleville
  lat: '38.5164'
  long: "-89.9900"
  nearby_rate_centers:
  - name: BELLEVILLE
    distance:
      value: 1.44
      units: km
  - name: Belleville-Pioneer
    distance:
      value: 1.44
      units: km
  - name: EDGEMONT
    distance:
      value: 10.92
      units: km
  - name: O FALLON
    distance:
      value: 11.14
      units: km
- country: US
  region: IL
  name: Bellevue
  lat: '40.6877'
  long: "-89.6731"
  nearby_rate_centers:
  - name: PEORIA
    distance:
      value: 6.87
      units: km
  - name: NORTHPEKIN
    distance:
      value: 8.71
      units: km
  - name: HANNA CITY
    distance:
      value: 10.26
      units: km
- country: US
  region: IL
  name: Bellflower
  lat: '40.3404'
  long: "-88.5258"
  nearby_rate_centers:
  - name: BELLFLOWER
    distance:
      value: 0.33
      units: km
  - name: FOOSLAND
    distance:
      value: 8.36
      units: km
  - name: SAYBROOK
    distance:
      value: 9.83
      units: km
- country: US
  region: IL
  name: Bellmont
  lat: '38.3830'
  long: "-87.9106"
  nearby_rate_centers:
  - name: BELLMONT
    distance:
      value: 0.22
      units: km
  - name: BROWNS
    distance:
      value: 5.81
      units: km
  - name: ALBION
    distance:
      value: 12.61
      units: km
- country: US
  region: IL
  name: Bellwood
  lat: '41.8829'
  long: "-87.8762"
  nearby_rate_centers:
  - name: BELLWOOD
    distance:
      value: 1.09
      units: km
  - name: HILLSIDE
    distance:
      value: 1.09
      units: km
  - name: MAYWOOD
    distance:
      value: 3.34
      units: km
  - name: FOREST
    distance:
      value: 5.37
      units: km
- country: US
  region: IL
  name: Belvidere
  lat: '42.2543'
  long: "-88.8649"
  nearby_rate_centers:
  - name: BELVIDERE
    distance:
      value: 1.98
      units: km
  - name: CHERRY VLY
    distance:
      value: 7.44
      units: km
  - name: GARDENPRRI
    distance:
      value: 11.52
      units: km
- country: US
  region: IL
  name: Bement
  lat: '39.9230'
  long: "-88.5724"
  nearby_rate_centers:
  - name: BEMENT
    distance:
      value: 0.74
      units: km
  - name: IVESDALE
    distance:
      value: 9.8
      units: km
  - name: MONTICELLO
    distance:
      value: 11.28
      units: km
- country: US
  region: IL
  name: Benld
  lat: '39.0930'
  long: "-89.8023"
  nearby_rate_centers:
  - name: BENLD
    distance:
      value: 0.6
      units: km
  - name: GILLESPIE
    distance:
      value: 4.14
      units: km
  - name: DORCHESTER
    distance:
      value: 6.98
      units: km
- country: US
  region: IL
  name: Bensenville
  lat: '41.9579'
  long: "-87.9442"
  nearby_rate_centers:
  - name: BENSENVL
    distance:
      value: 0.52
      units: km
  - name: ITASCA
    distance:
      value: 6.28
      units: km
  - name: ELMHURST
    distance:
      value: 6.31
      units: km
- country: US
  region: IL
  name: Benson
  lat: '40.8505'
  long: "-89.1211"
  nearby_rate_centers:
  - name: BENSON
    distance:
      value: 0.26
      units: km
  - name: ROANOKE
    distance:
      value: 8.7
      units: km
  - name: MINONK
    distance:
      value: 9.18
      units: km
- country: US
  region: IL
  name: Bentley
  lat: '40.3440'
  long: "-91.1118"
  nearby_rate_centers:
  - name: BASCO
    distance:
      value: 7.32
      units: km
  - name: CARTHAGE
    distance:
      value: 8.04
      units: km
  - name: ELVASTON
    distance:
      value: 12.81
      units: km
- country: US
  region: IL
  name: Benton
  lat: '38.0109'
  long: "-88.9179"
  nearby_rate_centers:
  - name: BENTON
    distance:
      value: 0.72
      units: km
  - name: EWING
    distance:
      value: 10.93
      units: km
  - name: WFRANKFORT
    distance:
      value: 11.89
      units: km
- country: US
  region: IL
  name: Berkeley
  lat: '41.8891'
  long: "-87.9115"
  nearby_rate_centers:
  - name: ELMHURST
    distance:
      value: 2.92
      units: km
  - name: BELLWOOD
    distance:
      value: 3.99
      units: km
  - name: HILLSIDE
    distance:
      value: 3.99
      units: km
  - name: SCHILLERPK
    distance:
      value: 6.15
      units: km
- country: US
  region: IL
  name: Berlin
  lat: '39.7569'
  long: "-89.9024"
  nearby_rate_centers:
  - name: NEW BERLIN
    distance:
      value: 3.69
      units: km
  - name: LOAMI
    distance:
      value: 10.69
      units: km
  - name: ALEXANDER
    distance:
      value: 12.13
      units: km
- country: US
  region: IL
  name: Berwyn
  lat: '41.8433'
  long: "-87.7909"
  nearby_rate_centers:
  - name: BERWYN
    distance:
      value: 0.87
      units: km
  - name: RIVERSIDE
    distance:
      value: 2.68
      units: km
  - name: CICERO
    distance:
      value: 3.23
      units: km
- country: US
  region: IL
  name: Bethalto
  lat: '38.9015'
  long: "-90.0466"
  nearby_rate_centers:
  - name: BETHALTO
    distance:
      value: 0.39
      units: km
  - name: WOOD RIVER
    distance:
      value: 6.1
      units: km
  - name: ALTON
    distance:
      value: 11.8
      units: km
- country: US
  region: IL
  name: Bethany
  lat: '39.6443'
  long: "-88.7411"
  nearby_rate_centers:
  - name: BETHANY
    distance:
      value: 0.04
      units: km
  - name: DALTONCITY
    distance:
      value: 9.11
      units: km
  - name: KIRKSVILLE
    distance:
      value: 10.34
      units: km
- country: US
  region: IL
  name: Beverly
  lat: '39.7946'
  long: "-90.9900"
  nearby_rate_centers:
  - name: FISHHOOK
    distance:
      value: 8.8
      units: km
  - name: BAYLIS
    distance:
      value: 10.18
      units: km
  - name: BARRY
    distance:
      value: 12.32
      units: km
- country: US
  region: IL
  name: Big Foot Prairie
  lat: '42.4915'
  long: "-88.6007"
  nearby_rate_centers:
  - name: HARVARD
    distance:
      value: 7.78
      units: km
  - name: SO SHARON
    distance:
      value: 10.44
      units: km
  - name: HEBRON
    distance:
      value: 13.88
      units: km
- country: US
  region: IL
  name: Big Rock
  lat: '41.7668'
  long: "-88.5265"
  nearby_rate_centers:
  - name: BIG ROCK
    distance:
      value: 1.4
      units: km
  - name: SUGARGROVE
    distance:
      value: 6.37
      units: km
  - name: KANEVILLE
    distance:
      value: 7.78
      units: km
- country: US
  region: IL
  name: Biggsville
  lat: '40.8536'
  long: "-90.8621"
  nearby_rate_centers:
  - name: BIGGSVILLE
    distance:
      value: 0.15
      units: km
  - name: KIRKWOOD
    distance:
      value: 9.33
      units: km
  - name: SMITHSHIRE
    distance:
      value: 9.63
      units: km
- country: US
  region: IL
  name: Bingham
  lat: '39.1122'
  long: "-89.2137"
  nearby_rate_centers:
  - name: FILLMORE
    distance:
      value: 5.3
      units: km
  - name: RAMSEY
    distance:
      value: 9.48
      units: km
  - name: COFFEEN
    distance:
      value: 15.98
      units: km
- country: US
  region: IL
  name: Bishop Hill
  lat: '41.1998'
  long: "-90.1175"
  nearby_rate_centers:
  - name: BISHOPHILL
    distance:
      value: 0.35
      units: km
  - name: GALVA
    distance:
      value: 7.56
      units: km
  - name: ALTONA
    distance:
      value: 10.49
      units: km
- country: US
  region: IL
  name: Bismarck
  lat: '40.2594'
  long: "-87.6112"
  nearby_rate_centers:
  - name: BISMARCK
    distance:
      value: 0.41
      units: km
  - name: ALVIN
    distance:
      value: 5.43
      units: km
  - name: HENNING
    distance:
      value: 9.07
      units: km
- country: US
  region: IL
  name: Blairsville
  lat: '37.8107'
  long: "-89.1239"
  nearby_rate_centers:
  - name: HURST
    distance:
      value: 3.35
      units: km
  - name: CARTERVL
    distance:
      value: 6.26
      units: km
  - name: ROYALTON
    distance:
      value: 7.56
      units: km
- country: US
  region: IL
  name: Blandinsville
  lat: '40.5540'
  long: "-90.8683"
  nearby_rate_centers:
  - name: BLANDINSVL
    distance:
      value: 0.29
      units: km
  - name: LA HARPE
    distance:
      value: 9.06
      units: km
  - name: FOUNTAGREN
    distance:
      value: 12.19
      units: km
- country: US
  region: IL
  name: Bloomfield
  lat: '40.0174'
  long: "-91.3028"
  nearby_rate_centers:
  - name: FOWLER
    distance:
      value: 3.57
      units: km
  - name: MENDON
    distance:
      value: 8.05
      units: km
  - name: URSA
    distance:
      value: 8.6
      units: km
- country: US
  region: IL
  name: Bloomingdale
  lat: '41.9497'
  long: "-88.0895"
  nearby_rate_centers:
  - name: ROSELLE
    distance:
      value: 3.8
      units: km
  - name: SCHAUMBURG
    distance:
      value: 3.8
      units: km
  - name: WILLOCREST
    distance:
      value: 3.8
      units: km
  - name: ITASCA
    distance:
      value: 6.47
      units: km
  - name: GLEN ELLYN
    distance:
      value: 8.43
      units: km
- country: US
  region: IL
  name: Bloomington
  lat: '40.4757'
  long: "-88.9703"
  nearby_rate_centers:
  - name: BLOOMINGTN
    distance:
      value: 2.23
      units: km
  - name: TOWANDA
    distance:
      value: 11.51
      units: km
  - name: DOWNS
    distance:
      value: 12.21
      units: km
- country: US
  region: IL
  name: Blue Island
  lat: '41.6578'
  long: "-87.6811"
  nearby_rate_centers:
  - name: BLUEISLAND
    distance:
      value: 0.32
      units: km
  - name: RIVERDALE
    distance:
      value: 5.51
      units: km
  - name: HARVEY
    distance:
      value: 5.58
      units: km
- country: US
  region: IL
  name: Blue Mound
  lat: '39.7004'
  long: "-89.1185"
  nearby_rate_centers:
  - name: BLUE MOUND
    distance:
      value: 0.46
      units: km
  - name: STONINGTON
    distance:
      value: 9.45
      units: km
  - name: MACON
    distance:
      value: 10.35
      units: km
- country: US
  region: IL
  name: Bluffs
  lat: '39.7494'
  long: "-90.5352"
  nearby_rate_centers:
  - name: BLUFFS
    distance:
      value: 0.32
      units: km
  - name: MEREDOSIA
    distance:
      value: 8.73
      units: km
  - name: CHAPIN
    distance:
      value: 11.41
      units: km
- country: US
  region: IL
  name: Bluford
  lat: '38.3257'
  long: "-88.7350"
  nearby_rate_centers:
  - name: BLUFORD
    distance:
      value: 0.93
      units: km
  - name: BELLE RIVE
    distance:
      value: 10.52
      units: km
  - name: HARMONY
    distance:
      value: 10.61
      units: km
- country: US
  region: IL
  name: Bolingbrook
  lat: '41.6901'
  long: "-88.1021"
  nearby_rate_centers:
  - name: LEMONT
    distance:
      value: 9.7
      units: km
  - name: LEMONT NOR
    distance:
      value: 9.7
      units: km
  - name: BOLINGBROK
    distance:
      value: 9.7
      units: km
  - name: NAPERVILLE
    distance:
      value: 10.17
      units: km
  - name: NAPERVL NE
    distance:
      value: 10.17
      units: km
  - name: LOCKPORT
    distance:
      value: 11.99
      units: km
  - name: ROMEOVLLE
    distance:
      value: 11.99
      units: km
- country: US
  region: IL
  name: Bondville
  lat: '40.1115'
  long: "-88.3682"
  nearby_rate_centers:
  - name: BONDVILLE
    distance:
      value: 0.28
      units: km
  - name: SEYMOUR
    distance:
      value: 5.02
      units: km
  - name: MAHOMET
    distance:
      value: 9.92
      units: km
- country: US
  region: IL
  name: Bone Gap
  lat: '38.4449'
  long: "-87.9976"
  nearby_rate_centers:
  - name: BROWNS
    distance:
      value: 7.92
      units: km
  - name: WEST SALEM
    distance:
      value: 8.66
      units: km
  - name: ALBION
    distance:
      value: 9.09
      units: km
- country: US
  region: IL
  name: Bonfield
  lat: '41.1450'
  long: "-88.0542"
  nearby_rate_centers:
  - name: HERSCHER
    distance:
      value: 11.3
      units: km
  - name: KANKAKEE
    distance:
      value: 16.29
      units: km
  - name: REDDICK
    distance:
      value: 17.12
      units: km
- country: US
  region: IL
  name: Bonnie
  lat: '38.2030'
  long: "-88.9068"
  nearby_rate_centers:
  - name: INA
    distance:
      value: 5.7
      units: km
  - name: WALTONVL
    distance:
      value: 11.85
      units: km
  - name: MT VERNON
    distance:
      value: 12.22
      units: km
- country: US
  region: IL
  name: Bonnie Brae
  lat: '41.5999'
  long: "-88.0343"
  nearby_rate_centers:
  - name: ROMEOVLLE
    distance:
      value: 1.89
      units: km
  - name: LOCKPORT
    distance:
      value: 1.89
      units: km
  - name: LEMONT NOR
    distance:
      value: 8.52
      units: km
  - name: LEMONT
    distance:
      value: 8.52
      units: km
  - name: BOLINGBROK
    distance:
      value: 8.52
      units: km
  - name: JOLIET
    distance:
      value: 8.93
      units: km
  - name: JOLIET WES
    distance:
      value: 8.93
      units: km
- country: US
  region: IL
  name: Boody
  lat: '39.7644'
  long: "-89.0467"
  nearby_rate_centers:
  - name: ELWIN
    distance:
      value: 6.08
      units: km
  - name: MACON
    distance:
      value: 7.36
      units: km
  - name: BLUE MOUND
    distance:
      value: 9.52
      units: km
- country: US
  region: IL
  name: Boulder Hill
  lat: '41.7113'
  long: "-88.3353"
  nearby_rate_centers:
  - name: OSWEGO
    distance:
      value: 3.59
      units: km
  - name: AURORA EAS
    distance:
      value: 5.21
      units: km
  - name: AURORA
    distance:
      value: 5.21
      units: km
  - name: SUGARGROVE
    distance:
      value: 11.04
      units: km
- country: US
  region: IL
  name: Bourbonnais
  lat: '41.1830'
  long: "-87.8784"
  nearby_rate_centers:
  - name: KANKAKEE
    distance:
      value: 6.95
      units: km
  - name: MANTENO
    distance:
      value: 8.48
      units: km
  - name: PEOTONE
    distance:
      value: 17.76
      units: km
- country: US
  region: IL
  name: Bowen
  lat: '40.2321'
  long: "-91.0633"
  nearby_rate_centers:
  - name: BOWEN
    distance:
      value: 0.12
      units: km
  - name: AUGUSTA
    distance:
      value: 10.32
      units: km
  - name: PLYMOUTH
    distance:
      value: 13.59
      units: km
- country: US
  region: IL
  name: Braceville
  lat: '41.2280'
  long: "-88.2464"
  nearby_rate_centers:
  - name: BRAIDWOOD
    distance:
      value: 4.61
      units: km
  - name: GARDNER
    distance:
      value: 7.03
      units: km
  - name: COAL CITY
    distance:
      value: 7.08
      units: km
- country: US
  region: IL
  name: Bradford
  lat: '41.1772'
  long: "-89.6583"
  nearby_rate_centers:
  - name: BRADFORD
    distance:
      value: 0.5
      units: km
  - name: CASTLETON
    distance:
      value: 7.57
      units: km
  - name: CAMPGROVE
    distance:
      value: 11.27
      units: km
- country: US
  region: IL
  name: Bradley
  lat: '41.1641'
  long: "-87.8452"
  nearby_rate_centers:
  - name: KANKAKEE
    distance:
      value: 4.92
      units: km
  - name: MANTENO
    distance:
      value: 9.74
      units: km
  - name: MOMENCE
    distance:
      value: 15.38
      units: km
  - name: HOPKINS PK
    distance:
      value: 15.38
      units: km
- country: US
  region: IL
  name: Braidwood
  lat: '41.2695'
  long: "-88.2235"
  nearby_rate_centers:
  - name: BRAIDWOOD
    distance:
      value: 0.87
      units: km
  - name: COAL CITY
    distance:
      value: 5.39
      units: km
  - name: WILMINGTON
    distance:
      value: 7.81
      units: km
- country: US
  region: IL
  name: Breese
  lat: '38.6138'
  long: "-89.5230"
  nearby_rate_centers:
  - name: BREESE
    distance:
      value: 0.24
      units: km
  - name: GERMANTOWN
    distance:
      value: 6.52
      units: km
  - name: AVISTON
    distance:
      value: 7.04
      units: km
- country: US
  region: IL
  name: Bridgeport
  lat: '38.7096'
  long: "-87.7590"
  nearby_rate_centers:
  - name: BRIDGEPORT
    distance:
      value: 0.37
      units: km
  - name: LAWRENCEVL
    distance:
      value: 7.05
      units: km
  - name: SUMNER
    distance:
      value: 8.83
      units: km
- country: US
  region: IL
  name: Bridgeview
  lat: '41.7403'
  long: "-87.8067"
  nearby_rate_centers:
  - name: SUMMIT
    distance:
      value: 3.88
      units: km
  - name: OAK LAWN
    distance:
      value: 5.11
      units: km
  - name: HICKORYHLS
    distance:
      value: 5.11
      units: km
  - name: WILLOW SPG
    distance:
      value: 5.67
      units: km
- country: US
  region: IL
  name: Brighton
  lat: '39.0406'
  long: "-90.1408"
  nearby_rate_centers:
  - name: BRIGHTON
    distance:
      value: 0.13
      units: km
  - name: WOODBURN
    distance:
      value: 11.18
      units: km
  - name: SHIPMAN
    distance:
      value: 11.73
      units: km
- country: US
  region: IL
  name: Brimfield
  lat: '40.8379'
  long: "-89.8827"
  nearby_rate_centers:
  - name: BRIMFIELD
    distance:
      value: 0.26
      units: km
  - name: ELMWOOD
    distance:
      value: 9.94
      units: km
  - name: YATES CITY
    distance:
      value: 12.38
      units: km
- country: US
  region: IL
  name: Broadlands
  lat: '39.9087'
  long: "-87.9971"
  nearby_rate_centers:
  - name: BROADLANDS
    distance:
      value: 0.38
      units: km
  - name: NEWMAN
    distance:
      value: 11.6
      units: km
  - name: SIDELL
    distance:
      value: 14.43
      units: km
- country: US
  region: IL
  name: Broadview
  lat: '41.8583'
  long: "-87.8562"
  nearby_rate_centers:
  - name: BELLWOOD
    distance:
      value: 3.07
      units: km
  - name: HILLSIDE
    distance:
      value: 3.07
      units: km
  - name: MAYWOOD
    distance:
      value: 3.4
      units: km
  - name: BROOKFIELD
    distance:
      value: 4.21
      units: km
- country: US
  region: IL
  name: Broadwell
  lat: '40.0668'
  long: "-89.4429"
  nearby_rate_centers:
  - name: ELKHART
    distance:
      value: 6.29
      units: km
  - name: LINCOLN
    distance:
      value: 11.34
      units: km
  - name: MDLTNNWHLD
    distance:
      value: 14.12
      units: km
- country: US
  region: IL
  name: Brocton
  lat: '39.7154'
  long: "-87.9336"
  nearby_rate_centers:
  - name: BROCTON
    distance:
      value: 0.62
      units: km
  - name: REDMON
    distance:
      value: 9.81
      units: km
  - name: OAKLAND
    distance:
      value: 10.43
      units: km
- country: US
  region: IL
  name: Brookfield
  lat: '41.8245'
  long: "-87.8470"
  nearby_rate_centers:
  - name: BROOKFIELD
    distance:
      value: 0.38
      units: km
  - name: LA GRANGE
    distance:
      value: 2.27
      units: km
  - name: RIVERSIDE
    distance:
      value: 2.46
      units: km
- country: US
  region: IL
  name: Brooklyn
  lat: '38.6542'
  long: "-90.1679"
  nearby_rate_centers:
  - name: E ST LOUIS
    distance:
      value: 3.43
      units: km
  - name: GRANITE CY
    distance:
      value: 5.6
      units: km
  - name: EDGEMONT
    distance:
      value: 11.0
      units: km
- country: US
  region: IL
  name: Brookport
  lat: '37.1261'
  long: "-88.6276"
  nearby_rate_centers:
  - name: BROOKPORT
    distance:
      value: 0.5
      units: km
  - name: METROPOLIS
    distance:
      value: 9.73
      units: km
  - name: JOPPA
    distance:
      value: 21.42
      units: km
- country: US
  region: IL
  name: Broughton
  lat: '37.9345'
  long: "-88.4624"
  nearby_rate_centers:
  - name: BROUGHTON
    distance:
      value: 0.11
      units: km
  - name: DALE
    distance:
      value: 7.4
      units: km
  - name: ELDORADO
    distance:
      value: 12.42
      units: km
- country: US
  region: IL
  name: Browning
  lat: '40.1270'
  long: "-90.3730"
  nearby_rate_centers:
  - name: ASTORIA
    distance:
      value: 11.62
      units: km
  - name: BEARDSTOWN
    distance:
      value: 13.21
      units: km
  - name: RUSHVILLE
    distance:
      value: 15.89
      units: km
- country: US
  region: IL
  name: Browns
  lat: '38.3775'
  long: "-87.9831"
  nearby_rate_centers:
  - name: BROWNS
    distance:
      value: 0.61
      units: km
  - name: ALBION
    distance:
      value: 6.27
      units: km
  - name: BELLMONT
    distance:
      value: 6.34
      units: km
- country: US
  region: IL
  name: Brownstown
  lat: '38.9942'
  long: "-88.9554"
  nearby_rate_centers:
  - name: BROWNSTOWN
    distance:
      value: 0.55
      units: km
  - name: SEFTON
    distance:
      value: 8.12
      units: km
  - name: ST ELMO
    distance:
      value: 9.94
      units: km
- country: US
  region: IL
  name: Brussels
  lat: '38.9483'
  long: "-90.5887"
  nearby_rate_centers:
  - name: BRUSSELS
    distance:
      value: 0.26
      units: km
  - name: BATCHTOWN
    distance:
      value: 11.05
      units: km
  - name: GRAFTON
    distance:
      value: 13.71
      units: km
- country: US
  region: IL
  name: Bryant
  lat: '40.4655'
  long: "-90.0948"
  nearby_rate_centers:
  - name: LEWISTOWN
    distance:
      value: 8.7
      units: km
  - name: CUBA
    distance:
      value: 8.92
      units: km
  - name: CANTON
    distance:
      value: 11.93
      units: km
- country: US
  region: IL
  name: Buckingham
  lat: '41.0467'
  long: "-88.1749"
  nearby_rate_centers:
  - name: CABERY
    distance:
      value: 6.03
      units: km
  - name: HERSCHER
    distance:
      value: 6.44
      units: km
  - name: REDDICK
    distance:
      value: 8.47
      units: km
- country: US
  region: IL
  name: Buckley
  lat: '40.5973'
  long: "-88.0378"
  nearby_rate_centers:
  - name: BUCKLEY
    distance:
      value: 0.28
      units: km
  - name: LODA
    distance:
      value: 9.37
      units: km
  - name: THAWVILLE
    distance:
      value: 11.2
      units: km
- country: US
  region: IL
  name: Buckner
  lat: '37.9807'
  long: "-89.0152"
  nearby_rate_centers:
  - name: CHRISTOPHR
    distance:
      value: 3.74
      units: km
  - name: ZEIGLER
    distance:
      value: 8.99
      units: km
  - name: BENTON
    distance:
      value: 9.28
      units: km
- country: US
  region: IL
  name: Buda
  lat: '41.3290'
  long: "-89.6793"
  nearby_rate_centers:
  - name: BUDA
    distance:
      value: 0.73
      units: km
  - name: SHEFFIELD
    distance:
      value: 6.11
      units: km
  - name: WYANET
    distance:
      value: 8.54
      units: km
- country: US
  region: IL
  name: Buffalo
  lat: '39.8499'
  long: "-89.4091"
  nearby_rate_centers:
  - name: BUFFALO
    distance:
      value: 0.17
      units: km
  - name: RIVERTON
    distance:
      value: 11.22
      units: km
  - name: ILLIOPOLIS
    distance:
      value: 14.52
      units: km
- country: US
  region: IL
  name: Buffalo Grove
  lat: '42.1675'
  long: "-87.9615"
  nearby_rate_centers:
  - name: HALF DAY
    distance:
      value: 3.49
      units: km
  - name: WHEELING
    distance:
      value: 5.06
      units: km
  - name: ARLIGTNHTS
    distance:
      value: 8.85
      units: km
- country: US
  region: IL
  name: Buffalo Prairie
  lat: '41.3408'
  long: "-90.8482"
  nearby_rate_centers:
  - name: ILLINOISCY
    distance:
      value: 7.55
      units: km
  - name: EDGINGTON
    distance:
      value: 8.73
      units: km
  - name: ELIZA
    distance:
      value: 10.91
      units: km
- country: US
  region: IL
  name: Bull Valley
  lat: '42.3227'
  long: "-88.3633"
  nearby_rate_centers:
  - name: WOODSTOCK
    distance:
      value: 7.08
      units: km
  - name: WONDERLAKE
    distance:
      value: 7.77
      units: km
  - name: MCHENRY
    distance:
      value: 7.91
      units: km
- country: US
  region: IL
  name: Bulpitt
  lat: '39.5919'
  long: "-89.4258"
  nearby_rate_centers:
  - name: KINCAID
    distance:
      value: 0.79
      units: km
  - name: EDINBURG
    distance:
      value: 8.34
      units: km
  - name: TAYLORVL
    distance:
      value: 12.52
      units: km
- country: US
  region: IL
  name: Buncombe
  lat: '37.4713'
  long: "-88.9747"
  nearby_rate_centers:
  - name: VIENNA
    distance:
      value: 8.86
      units: km
  - name: GOREVILLE
    distance:
      value: 9.34
      units: km
  - name: CYPRESS
    distance:
      value: 12.13
      units: km
- country: US
  region: IL
  name: Bunker Hill
  lat: '39.0416'
  long: "-89.9511"
  nearby_rate_centers:
  - name: BUNKERHILL
    distance:
      value: 0.25
      units: km
  - name: WOODBURN
    distance:
      value: 5.24
      units: km
  - name: DORCHESTER
    distance:
      value: 7.56
      units: km
- country: US
  region: IL
  name: Burbank
  lat: '41.7444'
  long: "-87.7686"
  nearby_rate_centers:
  - name: OAK LAWN
    distance:
      value: 3.03
      units: km
  - name: HICKORYHLS
    distance:
      value: 3.03
      units: km
  - name: SUMMIT
    distance:
      value: 4.82
      units: km
  - name: WILLOW SPG
    distance:
      value: 8.86
      units: km
- country: US
  region: IL
  name: Burlington
  lat: '42.0416'
  long: "-88.5508"
  nearby_rate_centers:
  - name: HAMPSHIRE
    distance:
      value: 6.67
      units: km
  - name: PLATO CTR
    distance:
      value: 10.12
      units: km
  - name: SYCAMORE
    distance:
      value: 12.96
      units: km
- country: US
  region: IL
  name: Burnham
  lat: '41.6375'
  long: "-87.5447"
  nearby_rate_centers:
  - name: CALUMET CY
    distance:
      value: 2.44
      units: km
  - name: RIVERDALE
    distance:
      value: 6.06
      units: km
  - name: LANSING
    distance:
      value: 7.95
      units: km
- country: US
  region: IL
  name: Burnt Prairie
  lat: '38.2509'
  long: "-88.2585"
  nearby_rate_centers:
  - name: BURNTPRARI
    distance:
      value: 0.53
      units: km
  - name: FAIRFIELD
    distance:
      value: 16.88
      units: km
  - name: ENFIELD
    distance:
      value: 17.92
      units: km
- country: US
  region: IL
  name: Burr Ridge
  lat: '41.7485'
  long: "-87.9200"
  nearby_rate_centers:
  - name: WILLOW SPG
    distance:
      value: 4.17
      units: km
  - name: OAK BROOK
    distance:
      value: 6.7
      units: km
  - name: HINSDALE
    distance:
      value: 6.7
      units: km
  - name: WESTERNSPG
    distance:
      value: 7.07
      units: km
- country: US
  region: IL
  name: Burton
  lat: '39.9079'
  long: "-91.2492"
  nearby_rate_centers:
  - name: BURTON
    distance:
      value: 0.66
      units: km
  - name: PAYSON
    distance:
      value: 10.09
      units: km
  - name: FOWLER
    distance:
      value: 11.33
      units: km
- country: US
  region: IL
  name: Burtons Bridge
  lat: '42.2781'
  long: "-88.2305"
  nearby_rate_centers:
  - name: CARY
    distance:
      value: 7.32
      units: km
  - name: MCHENRY
    distance:
      value: 8.0
      units: km
  - name: WAUCONDA
    distance:
      value: 8.02
      units: km
- country: US
  region: IL
  name: Bush
  lat: '37.8427'
  long: "-89.1295"
  nearby_rate_centers:
  - name: HURST
    distance:
      value: 1.75
      units: km
  - name: ROYALTON
    distance:
      value: 4.21
      units: km
  - name: DE SOTO
    distance:
      value: 9.28
      units: km
- country: US
  region: IL
  name: Bushnell
  lat: '40.5518'
  long: "-90.5046"
  nearby_rate_centers:
  - name: BUSHNELL
    distance:
      value: 0.65
      units: km
  - name: BARDOLPH
    distance:
      value: 8.22
      units: km
  - name: PRAIRIE CY
    distance:
      value: 9.02
      units: km
- country: US
  region: IL
  name: Butler
  lat: '39.1975'
  long: "-89.5322"
  nearby_rate_centers:
  - name: HILLSBORO
    distance:
      value: 5.63
      units: km
  - name: LITCHFIELD
    distance:
      value: 10.34
      units: km
  - name: IRVING
    distance:
      value: 11.08
      units: km
- country: US
  region: IL
  name: Byron
  lat: '42.1223'
  long: "-89.2665"
  nearby_rate_centers:
  - name: BYRON
    distance:
      value: 1.12
      units: km
  - name: STILMANVLY
    distance:
      value: 7.41
      units: km
  - name: LEAF RIVER
    distance:
      value: 11.37
      units: km
- country: US
  region: IL
  name: Cabery
  lat: '40.9958'
  long: "-88.2037"
  nearby_rate_centers:
  - name: CABERY
    distance:
      value: 0.12
      units: km
  - name: STELLE
    distance:
      value: 6.61
      units: km
  - name: KEMPTON
    distance:
      value: 7.14
      units: km
- country: US
  region: IL
  name: Cable
  lat: '41.2798'
  long: "-90.5056"
  nearby_rate_centers:
  - name: SHERRARD
    distance:
      value: 4.58
      units: km
  - name: PREEMPTION
    distance:
      value: 7.32
      units: km
  - name: MATHERVL
    distance:
      value: 8.32
      units: km
- country: US
  region: IL
  name: Cahokia Heights
  lat: '38.5710'
  long: "-90.1525"
  nearby_rate_centers:
  - name: E ST LOUIS
    distance:
      value: 5.92
      units: km
  - name: EDGEMONT
    distance:
      value: 7.75
      units: km
  - name: DUPO
    distance:
      value: 8.13
      units: km
- country: US
  region: IL
  name: Cairo
  lat: '37.0062'
  long: "-89.1819"
  nearby_rate_centers:
  - name: CAIRO
    distance:
      value: 0.89
      units: km
  - name: MOUND CITY
    distance:
      value: 9.41
      units: km
  - name: MOUNDS
    distance:
      value: 12.33
      units: km
- country: US
  region: IL
  name: Caledonia
  lat: '42.3686'
  long: "-88.8939"
  nearby_rate_centers:
  - name: ROCK CUT
    distance:
      value: 5.44
      units: km
  - name: POPLAR GRV
    distance:
      value: 6.12
      units: km
  - name: ROSCOE
    distance:
      value: 10.85
      units: km
- country: US
  region: IL
  name: Calhoun
  lat: '38.6512'
  long: "-88.0440"
  nearby_rate_centers:
  - name: CALHOUN
    distance:
      value: 0.59
      units: km
  - name: PARKERSBG
    distance:
      value: 6.92
      units: km
  - name: OLNEY
    distance:
      value: 9.97
      units: km
- country: US
  region: IL
  name: Calumet City
  lat: '41.6134'
  long: "-87.5505"
  nearby_rate_centers:
  - name: CALUMET CY
    distance:
      value: 1.53
      units: km
  - name: LANSING
    distance:
      value: 5.26
      units: km
  - name: RIVERDALE
    distance:
      value: 6.58
      units: km
- country: US
  region: IL
  name: Calumet Park
  lat: '41.6650'
  long: "-87.6577"
  nearby_rate_centers:
  - name: BLUEISLAND
    distance:
      value: 2.11
      units: km
  - name: RIVERDALE
    distance:
      value: 4.01
      units: km
  - name: HARVEY
    distance:
      value: 5.61
      units: km
- country: US
  region: IL
  name: Camargo
  lat: '39.7991'
  long: "-88.1671"
  nearby_rate_centers:
  - name: VILLAGROVE
    distance:
      value: 5.71
      units: km
  - name: TUSCOLA
    distance:
      value: 9.39
      units: km
  - name: NEWMAN
    distance:
      value: 15.26
      units: km
- country: US
  region: IL
  name: Cambria
  lat: '37.7793'
  long: "-89.1189"
  nearby_rate_centers:
  - name: CARTERVL
    distance:
      value: 3.71
      units: km
  - name: HURST
    distance:
      value: 6.65
      units: km
  - name: HERRIN
    distance:
      value: 8.23
      units: km
- country: US
  region: IL
  name: Cambridge
  lat: '41.2984'
  long: "-90.1907"
  nearby_rate_centers:
  - name: CAMBRIDGE
    distance:
      value: 1.06
      units: km
  - name: Andover (Cambridge Telephone)
    distance:
      value: 8.19
      units: km
  - name: ANDOVER
    distance:
      value: 8.19
      units: km
  - name: OSCO
    distance:
      value: 9.33
      units: km
- country: US
  region: IL
  name: Camden
  lat: '40.1529'
  long: "-90.7733"
  nearby_rate_centers:
  - name: MINDALE
    distance:
      value: 5.63
      units: km
  - name: LITTLETON
    distance:
      value: 15.87
      units: km
  - name: AUGUSTA
    distance:
      value: 16.94
      units: km
- country: US
  region: IL
  name: Cameron
  lat: '40.8875'
  long: "-90.5164"
  nearby_rate_centers:
  - name: CAMERON
    distance:
      value: 0.18
      units: km
  - name: MONMOUTH
    distance:
      value: 11.11
      units: km
  - name: ABINGDON
    distance:
      value: 13.58
      units: km
- country: US
  region: IL
  name: Camp Point
  lat: '40.0383'
  long: "-91.0664"
  nearby_rate_centers:
  - name: CAMP POINT
    distance:
      value: 0.73
      units: km
  - name: COATSBURG
    distance:
      value: 8.07
      units: km
  - name: COLUMBUS
    distance:
      value: 8.56
      units: km
- country: US
  region: IL
  name: Campbell Hill
  lat: '37.9305'
  long: "-89.5515"
  nearby_rate_centers:
  - name: AVA
    distance:
      value: 6.64
      units: km
  - name: PERCY
    distance:
      value: 11.21
      units: km
  - name: STEELEVL
    distance:
      value: 12.94
      units: km
- country: US
  region: IL
  name: Campbell's Island
  lat: '41.5407'
  long: "-90.4300"
  nearby_rate_centers:
  - name: EASTMOLINE
    distance:
      value: 2.99
      units: km
  - name: HAMPTON
    distance:
      value: 3.95
      units: km
  - name: MOLINE
    distance:
      value: 8.11
      units: km
- country: US
  region: IL
  name: Campton Hills
  lat: '41.9498'
  long: "-88.4166"
  nearby_rate_centers:
  - name: ELBURN
    distance:
      value: 7.65
      units: km
  - name: PLATO CTR
    distance:
      value: 8.94
      units: km
  - name: ST CHARLES
    distance:
      value: 9.23
      units: km
- country: US
  region: IL
  name: Campus
  lat: '41.0247'
  long: "-88.3072"
  nearby_rate_centers:
  - name: CAMPUS
    distance:
      value: 0.22
      units: km
  - name: EMINGTON
    distance:
      value: 7.54
      units: km
  - name: CABERY
    distance:
      value: 9.29
      units: km
- country: US
  region: IL
  name: Candlewick Lake
  lat: '42.3525'
  long: "-88.8694"
  nearby_rate_centers:
  - name: POPLAR GRV
    distance:
      value: 4.46
      units: km
  - name: ROCK CUT
    distance:
      value: 6.89
      units: km
  - name: BELVIDERE
    distance:
      value: 10.9
      units: km
- country: US
  region: IL
  name: Canton
  lat: '40.5632'
  long: "-90.0409"
  nearby_rate_centers:
  - name: CANTON
    distance:
      value: 1.0
      units: km
  - name: FIATT
    distance:
      value: 11.58
      units: km
  - name: FAIRVIEW
    distance:
      value: 13.08
      units: km
- country: US
  region: IL
  name: Cantrall
  lat: '39.9353'
  long: "-89.6788"
  nearby_rate_centers:
  - name: CANTRALL
    distance:
      value: 0.04
      units: km
  - name: ATHENS
    distance:
      value: 5.2
      units: km
  - name: SHERMAN
    distance:
      value: 8.22
      units: km
- country: US
  region: IL
  name: Capron
  lat: '42.3986'
  long: "-88.7394"
  nearby_rate_centers:
  - name: CAPRON
    distance:
      value: 0.24
      units: km
  - name: POPLAR GRV
    distance:
      value: 7.4
      units: km
  - name: SO SHARON
    distance:
      value: 10.09
      units: km
- country: US
  region: IL
  name: Carbon Cliff
  lat: '41.4981'
  long: "-90.3917"
  nearby_rate_centers:
  - name: EASTMOLINE
    distance:
      value: 4.64
      units: km
  - name: HAMPTON
    distance:
      value: 6.57
      units: km
  - name: GREENRIVER
    distance:
      value: 6.62
      units: km
- country: US
  region: IL
  name: Carbon Hill
  lat: '41.2970'
  long: "-88.2999"
  nearby_rate_centers:
  - name: COAL CITY
    distance:
      value: 1.86
      units: km
  - name: BRAIDWOOD
    distance:
      value: 7.86
      units: km
  - name: MAZON
    distance:
      value: 11.9
      units: km
- country: US
  region: IL
  name: Carbondale
  lat: '37.7221'
  long: "-89.2237"
  nearby_rate_centers:
  - name: CARBONDALE
    distance:
      value: 0.91
      units: km
  - name: DE SOTO
    distance:
      value: 10.52
      units: km
  - name: MURPHYSBO
    distance:
      value: 11.32
      units: km
- country: US
  region: IL
  name: Carlinville
  lat: '39.2775'
  long: "-89.8762"
  nearby_rate_centers:
  - name: CARLINVL
    distance:
      value: 0.6
      units: km
  - name: HETTICK
    distance:
      value: 16.48
      units: km
  - name: CHESTERBDG
    distance:
      value: 16.48
      units: km
- country: US
  region: IL
  name: Carlock
  lat: '40.5835'
  long: "-89.1288"
  nearby_rate_centers:
  - name: CARLOCK
    distance:
      value: 0.76
      units: km
  - name: CONGERVL
    distance:
      value: 7.26
      units: km
  - name: DANVERS
    distance:
      value: 7.96
      units: km
- country: US
  region: IL
  name: Carlyle
  lat: '38.6217'
  long: "-89.3734"
  nearby_rate_centers:
  - name: CARLYLE
    distance:
      value: 1.13
      units: km
  - name: BECKEMEYER
    distance:
      value: 5.66
      units: km
  - name: BARTELSO
    distance:
      value: 12.29
      units: km
- country: US
  region: IL
  name: Carman
  lat: '40.7362'
  long: "-91.0617"
  nearby_rate_centers:
  - name: LOMAX
    distance:
      value: 6.42
      units: km
  - name: GULFPORT
    distance:
      value: 8.6
      units: km
  - name: STRONGHST
    distance:
      value: 13.72
      units: km
- country: US
  region: IL
  name: Carmi
  lat: '38.0861'
  long: "-88.1722"
  nearby_rate_centers:
  - name: CARMI
    distance:
      value: 1.07
      units: km
  - name: MAUNIE
    distance:
      value: 12.06
      units: km
  - name: CROSSVILLE
    distance:
      value: 12.43
      units: km
- country: US
  region: IL
  name: Carol Stream
  lat: '41.9181'
  long: "-88.1307"
  nearby_rate_centers:
  - name: WHEATON
    distance:
      value: 6.09
      units: km
  - name: GLEN ELLYN
    distance:
      value: 7.18
      units: km
  - name: W CHICAGO
    distance:
      value: 7.4
      units: km
- country: US
  region: IL
  name: Carpentersville
  lat: '42.1227'
  long: "-88.2896"
  nearby_rate_centers:
  - name: DUNDEE
    distance:
      value: 2.78
      units: km
  - name: POPLAR CRE
    distance:
      value: 2.78
      units: km
  - name: ALGONQUIN
    distance:
      value: 5.07
      units: km
  - name: ELGIN
    distance:
      value: 9.19
      units: km
- country: US
  region: IL
  name: Carrier Mills
  lat: '37.6886'
  long: "-88.6294"
  nearby_rate_centers:
  - name: CARRIERSML
    distance:
      value: 0.33
      units: km
  - name: HARRISBURG
    distance:
      value: 9.67
      units: km
  - name: STONEFORT
    distance:
      value: 10.24
      units: km
- country: US
  region: IL
  name: Carrollton
  lat: '39.2948'
  long: "-90.4062"
  nearby_rate_centers:
  - name: CARROLLTON
    distance:
      value: 0.66
      units: km
  - name: ELDRED
    distance:
      value: 13.04
      units: km
  - name: WHITE HALL
    distance:
      value: 16.04
      units: km
- country: US
  region: IL
  name: Carterville
  lat: '37.7630'
  long: "-89.0841"
  nearby_rate_centers:
  - name: CARTERVL
    distance:
      value: 0.53
      units: km
  - name: HERRIN
    distance:
      value: 6.52
      units: km
  - name: HURST
    distance:
      value: 9.7
      units: km
- country: US
  region: IL
  name: Carthage
  lat: '40.4142'
  long: "-91.1276"
  nearby_rate_centers:
  - name: CARTHAGE
    distance:
      value: 0.66
      units: km
  - name: FERRIS
    distance:
      value: 7.29
      units: km
  - name: ELVASTON
    distance:
      value: 10.44
      units: km
- country: US
  region: IL
  name: Cary
  lat: '42.2129'
  long: "-88.2494"
  nearby_rate_centers:
  - name: CARY
    distance:
      value: 0.39
      units: km
  - name: ALGONQUIN
    distance:
      value: 5.99
      units: km
  - name: CRYSTAL LK
    distance:
      value: 6.8
      units: km
- country: US
  region: IL
  name: Casey
  lat: '39.3031'
  long: "-87.9897"
  nearby_rate_centers:
  - name: CASEY
    distance:
      value: 0.48
      units: km
  - name: MARTINSVL
    distance:
      value: 9.65
      units: km
  - name: GREENUP
    distance:
      value: 15.65
      units: km
- country: US
  region: IL
  name: Caseyville
  lat: '38.6302'
  long: "-90.0339"
  nearby_rate_centers:
  - name: EDGEMONT
    distance:
      value: 5.06
      units: km
  - name: COLLINSVL
    distance:
      value: 7.01
      units: km
  - name: E ST LOUIS
    distance:
      value: 10.97
      units: km
- country: US
  region: IL
  name: Catlin
  lat: '40.0677'
  long: "-87.7080"
  nearby_rate_centers:
  - name: CATLIN
    distance:
      value: 0.15
      units: km
  - name: WESTVILLE
    distance:
      value: 6.19
      units: km
  - name: OAKWOOD
    distance:
      value: 8.32
      units: km
- country: US
  region: IL
  name: Cave-In-Rock
  lat: '37.4708'
  long: "-88.1659"
  nearby_rate_centers:
  - name: CAVEINROCK
    distance:
      value: 0.15
      units: km
  - name: ELIZABTHTN
    distance:
      value: 12.79
      units: km
  - name: ROSICLARE
    distance:
      value: 17.02
      units: km
- country: US
  region: IL
  name: Cedar Point
  lat: '41.2651'
  long: "-89.1260"
  nearby_rate_centers:
  - name: CEDARPOINT
    distance:
      value: 0.54
      units: km
  - name: OGLESBY
    distance:
      value: 6.34
      units: km
  - name: TONICA
    distance:
      value: 6.99
      units: km
- country: US
  region: IL
  name: Cedarville
  lat: '42.3757'
  long: "-89.6362"
  nearby_rate_centers:
  - name: CEDARVILLE
    distance:
      value: 0.63
      units: km
  - name: FREEPORT
    distance:
      value: 9.2
      units: km
  - name: DAKOTA
    distance:
      value: 9.35
      units: km
- country: US
  region: IL
  name: Central City
  lat: '38.5484'
  long: "-89.1284"
  nearby_rate_centers:
  - name: CENTRALIA
    distance:
      value: 1.71
      units: km
  - name: SANDOVAL
    distance:
      value: 7.74
      units: km
  - name: SHATTUC
    distance:
      value: 8.81
      units: km
- country: US
  region: IL
  name: Centralia
  lat: '38.5224'
  long: "-89.1232"
  nearby_rate_centers:
  - name: CENTRALIA
    distance:
      value: 1.34
      units: km
  - name: IRVINGTON
    distance:
      value: 9.54
      units: km
  - name: SANDOVAL
    distance:
      value: 10.6
      units: km
- country: US
  region: IL
  name: Cerro Gordo
  lat: '39.8892'
  long: "-88.7346"
  nearby_rate_centers:
  - name: CERROGORDO
    distance:
      value: 0.44
      units: km
  - name: LA PLACE
    distance:
      value: 10.27
      units: km
  - name: OREANA
    distance:
      value: 12.01
      units: km
- country: US
  region: IL
  name: Chadwick
  lat: '42.0142'
  long: "-89.8885"
  nearby_rate_centers:
  - name: CHADWICK
    distance:
      value: 0.37
      units: km
  - name: MILLEDGEVL
    distance:
      value: 10.9
      units: km
  - name: LANARK
    distance:
      value: 10.99
      units: km
- country: US
  region: IL
  name: Champaign
  lat: '40.1142'
  long: "-88.2737"
  nearby_rate_centers:
  - name: CHAMPAURBN
    distance:
      value: 2.25
      units: km
  - name: BONDVILLE
    distance:
      value: 8.07
      units: km
  - name: SEYMOUR
    distance:
      value: 13.06
      units: km
- country: US
  region: IL
  name: Chandlerville
  lat: '40.0470'
  long: "-90.1512"
  nearby_rate_centers:
  - name: CHANDLERVL
    distance:
      value: 0.79
      units: km
  - name: VIRGINIA
    distance:
      value: 12.08
      units: km
  - name: BATH
    distance:
      value: 16.44
      units: km
- country: US
  region: IL
  name: Channahon
  lat: '41.4210'
  long: "-88.2599"
  nearby_rate_centers:
  - name: MINOOKA
    distance:
      value: 4.1
      units: km
  - name: ELWOOD
    distance:
      value: 12.46
      units: km
  - name: COAL CITY
    distance:
      value: 15.29
      units: km
- country: US
  region: IL
  name: Channel Lake
  lat: '42.4830'
  long: "-88.1491"
  nearby_rate_centers:
  - name: ANTIOCH
    distance:
      value: 4.23
      units: km
  - name: SPRING GRV
    distance:
      value: 8.71
      units: km
  - name: LAKE VILLA
    distance:
      value: 9.21
      units: km
- country: US
  region: IL
  name: Chapin
  lat: '39.7669'
  long: "-90.4027"
  nearby_rate_centers:
  - name: CHAPIN
    distance:
      value: 1.53
      units: km
  - name: CONCORD
    distance:
      value: 6.37
      units: km
  - name: BLUFFS
    distance:
      value: 11.43
      units: km
- country: US
  region: IL
  name: Charleston
  lat: '39.4842'
  long: "-88.1781"
  nearby_rate_centers:
  - name: CHARLESTON
    distance:
      value: 1.12
      units: km
  - name: ASHMORE
    distance:
      value: 14.16
      units: km
  - name: WESTFIELD
    distance:
      value: 16.1
      units: km
- country: US
  region: IL
  name: Chatham
  lat: '39.6733'
  long: "-89.6934"
  nearby_rate_centers:
  - name: CHATHAM
    distance:
      value: 0.69
      units: km
  - name: AUBURN
    distance:
      value: 9.91
      units: km
  - name: DIVERNON
    distance:
      value: 12.71
      units: km
- country: US
  region: IL
  name: Chatsworth
  lat: '40.7293'
  long: "-88.2974"
  nearby_rate_centers:
  - name: CHATSWORTH
    distance:
      value: 2.81
      units: km
  - name: PIPER CITY
    distance:
      value: 9.52
      units: km
  - name: FORREST
    distance:
      value: 10.62
      units: km
- country: US
  region: IL
  name: Chebanse
  lat: '41.0057'
  long: "-87.9098"
  nearby_rate_centers:
  - name: CHEBANSE
    distance:
      value: 0.1
      units: km
  - name: CLIFTON
    distance:
      value: 8.06
      units: km
  - name: KANKAKEE
    distance:
      value: 13.5
      units: km
- country: US
  region: IL
  name: Chemung
  lat: '42.4162'
  long: "-88.6641"
  nearby_rate_centers:
  - name: HARVARD
    distance:
      value: 4.69
      units: km
  - name: CAPRON
    distance:
      value: 6.56
      units: km
  - name: SO SHARON
    distance:
      value: 9.64
      units: km
- country: US
  region: IL
  name: Chenoa
  lat: '40.7389'
  long: "-88.7259"
  nearby_rate_centers:
  - name: CHENOA
    distance:
      value: 0.16
      units: km
  - name: LEXINGTON
    distance:
      value: 11.72
      units: km
  - name: GRIDLEY
    distance:
      value: 13.03
      units: km
- country: US
  region: IL
  name: Cherry
  lat: '41.4280'
  long: "-89.2132"
  nearby_rate_centers:
  - name: LADD
    distance:
      value: 5.42
      units: km
  - name: SPRING VLY
    distance:
      value: 11.13
      units: km
  - name: LA MOILLE
    distance:
      value: 12.99
      units: km
- country: US
  region: IL
  name: Cherry Valley
  lat: '42.2223'
  long: "-88.9715"
  nearby_rate_centers:
  - name: CHERRY VLY
    distance:
      value: 2.28
      units: km
  - name: NEWMILFORD
    distance:
      value: 8.89
      units: km
  - name: BELVIDERE
    distance:
      value: 11.4
      units: km
- country: US
  region: IL
  name: Chester
  lat: '37.9200'
  long: "-89.8260"
  nearby_rate_centers:
  - name: CHESTER
    distance:
      value: 0.5
      units: km
  - name: KASKASKIA
    distance:
      value: 8.01
      units: km
  - name: ELLISGROVE
    distance:
      value: 12.18
      units: km
- country: US
  region: IL
  name: Chesterfield
  lat: '39.2566'
  long: "-90.0668"
  nearby_rate_centers:
  - name: CHESTERBDG
    distance:
      value: 0.48
      units: km
  - name: MEDORA
    distance:
      value: 11.23
      units: km
  - name: HETTICK
    distance:
      value: 11.32
      units: km
- country: US
  region: IL
  name: Chestnut
  lat: '40.0537'
  long: "-89.1871"
  nearby_rate_centers:
  - name: CHESTNUT
    distance:
      value: 0.55
      units: km
  - name: LATHAM
    distance:
      value: 9.48
      units: km
  - name: MT PULASKI
    distance:
      value: 9.85
      units: km
- country: US
  region: IL
  name: Chicago
  lat: '41.8375'
  long: "-87.6866"
  nearby_rate_centers:
  - name: CICERO
    distance:
      value: 5.52
      units: km
  - name: CHICAGO-SU
    distance:
      value: 6.65
      units: km
  - name: CHICAGO-OA
    distance:
      value: 6.65
      units: km
  - name: CHICAGO-HY
    distance:
      value: 6.65
      units: km
  - name: CHICAGO-LD
    distance:
      value: 6.65
      units: km
  - name: CHICAGO-LF
    distance:
      value: 6.65
      units: km
  - name: CHICAGO-MO
    distance:
      value: 6.65
      units: km
  - name: CHICAGO-LS
    distance:
      value: 6.65
      units: km
  - name: CHICAGO-IL
    distance:
      value: 6.65
      units: km
  - name: CHICAGO-FR
    distance:
      value: 6.65
      units: km
  - name: CHICGOZN06
    distance:
      value: 6.65
      units: km
  - name: CHICAGO-ME
    distance:
      value: 6.65
      units: km
  - name: CHICGOZN05
    distance:
      value: 6.65
      units: km
  - name: CHICAGO-LV
    distance:
      value: 6.65
      units: km
  - name: CHICGOZN04
    distance:
      value: 6.65
      units: km
  - name: CHICGOZN01
    distance:
      value: 6.65
      units: km
  - name: CHICAGO-CA
    distance:
      value: 6.65
      units: km
  - name: CHICAGO-NE
    distance:
      value: 6.65
      units: km
  - name: CHICGOZN03
    distance:
      value: 6.65
      units: km
  - name: CHICGOZN11
    distance:
      value: 6.65
      units: km
  - name: CHICAGO-RO
    distance:
      value: 6.65
      units: km
  - name: CHICAGO-PU
    distance:
      value: 6.65
      units: km
  - name: CHICAGO-IR
    distance:
      value: 6.65
      units: km
  - name: CHICGOZN02
    distance:
      value: 6.65
      units: km
  - name: CHICGOZN10
    distance:
      value: 6.65
      units: km
  - name: CHICGOZN09
    distance:
      value: 6.65
      units: km
  - name: CHICAGO-WA
    distance:
      value: 6.65
      units: km
  - name: CHICAGO-MI
    distance:
      value: 6.65
      units: km
  - name: CHICAGO-PR
    distance:
      value: 6.65
      units: km
  - name: CHICGOZN08
    distance:
      value: 6.65
      units: km
  - name: CHICGOZN07
    distance:
      value: 6.65
      units: km
  - name: BERWYN
    distance:
      value: 8.73
      units: km
- country: US
  region: IL
  name: Chicago Heights
  lat: '41.5100'
  long: "-87.6345"
  nearby_rate_centers:
  - name: CHICGOHTSE
    distance:
      value: 0.49
      units: km
  - name: PARKFOREST
    distance:
      value: 0.49
      units: km
  - name: CHICAGOHTS
    distance:
      value: 0.49
      units: km
  - name: HOMEWOOD
    distance:
      value: 6.07
      units: km
  - name: THORNTON
    distance:
      value: 7.04
      units: km
- country: US
  region: IL
  name: Chicago Ridge
  lat: '41.7034'
  long: "-87.7795"
  nearby_rate_centers:
  - name: HICKORYHLS
    distance:
      value: 3.02
      units: km
  - name: OAK LAWN
    distance:
      value: 3.02
      units: km
  - name: PALOS PARK
    distance:
      value: 5.73
      units: km
  - name: SUMMIT
    distance:
      value: 8.36
      units: km
- country: US
  region: IL
  name: Chillicothe
  lat: '40.9158'
  long: "-89.5020"
  nearby_rate_centers:
  - name: CHILLICOTH
    distance:
      value: 1.03
      units: km
  - name: SPRING BAY
    distance:
      value: 10.01
      units: km
  - name: EDELSTEIN
    distance:
      value: 11.69
      units: km
- country: US
  region: IL
  name: Chrisman
  lat: '39.8044'
  long: "-87.6749"
  nearby_rate_centers:
  - name: CHRISMAN
    distance:
      value: 0.35
      units: km
  - name: RIDGE FARM
    distance:
      value: 10.57
      units: km
  - name: METCALF
    distance:
      value: 11.56
      units: km
- country: US
  region: IL
  name: Christopher
  lat: '37.9707'
  long: "-89.0531"
  nearby_rate_centers:
  - name: CHRISTOPHR
    distance:
      value: 0.6
      units: km
  - name: ZEIGLER
    distance:
      value: 7.34
      units: km
  - name: ROYALTON
    distance:
      value: 11.54
      units: km
- country: US
  region: IL
  name: Cicero
  lat: '41.8445'
  long: "-87.7593"
  nearby_rate_centers:
  - name: CICERO
    distance:
      value: 0.63
      units: km
  - name: BERWYN
    distance:
      value: 2.68
      units: km
  - name: RIVERSIDE
    distance:
      value: 5.14
      units: km
- country: US
  region: IL
  name: Cisco
  lat: '40.0117'
  long: "-88.7254"
  nearby_rate_centers:
  - name: CISCO
    distance:
      value: 0.37
      units: km
  - name: ARGENTA
    distance:
      value: 8.54
      units: km
  - name: WELDON
    distance:
      value: 11.96
      units: km
- country: US
  region: IL
  name: Cisne
  lat: '38.5141'
  long: "-88.4371"
  nearby_rate_centers:
  - name: CISNE
    distance:
      value: 0.53
      units: km
  - name: GEFF
    distance:
      value: 8.35
      units: km
  - name: CRISP
    distance:
      value: 16.23
      units: km
- country: US
  region: IL
  name: Cissna Park
  lat: '40.5670'
  long: "-87.8922"
  nearby_rate_centers:
  - name: CISSNAPARK
    distance:
      value: 0.57
      units: km
  - name: RANKIN
    distance:
      value: 11.03
      units: km
  - name: BUCKLEY
    distance:
      value: 13.03
      units: km
- country: US
  region: IL
  name: Claremont
  lat: '38.7176'
  long: "-87.9728"
  nearby_rate_centers:
  - name: CLAREMONT
    distance:
      value: 0.57
      units: km
  - name: CALHOUN
    distance:
      value: 9.52
      units: km
  - name: OLNEY
    distance:
      value: 9.55
      units: km
- country: US
  region: IL
  name: Clarendon Hills
  lat: '41.7981'
  long: "-87.9568"
  nearby_rate_centers:
  - name: HINSDALE
    distance:
      value: 2.32
      units: km
  - name: OAK BROOK
    distance:
      value: 2.32
      units: km
  - name: DOWNERSGRV
    distance:
      value: 3.52
      units: km
  - name: WESTERNSPG
    distance:
      value: 5.17
      units: km
- country: US
  region: IL
  name: Clay City
  lat: '38.6858'
  long: "-88.3486"
  nearby_rate_centers:
  - name: CLAY CITY
    distance:
      value: 0.78
      units: km
  - name: SAILOR SPG
    distance:
      value: 9.03
      units: km
  - name: NOBLE
    distance:
      value: 11.04
      units: km
- country: US
  region: IL
  name: Clayton
  lat: '40.0301'
  long: "-90.9580"
  nearby_rate_centers:
  - name: CLAYTON
    distance:
      value: 0.48
      units: km
  - name: CAMP POINT
    distance:
      value: 9.47
      units: km
  - name: GOLDEN
    distance:
      value: 9.87
      units: km
- country: US
  region: IL
  name: Clear Lake
  lat: '39.8139'
  long: "-89.5682"
  nearby_rate_centers:
  - name: RIVERTON
    distance:
      value: 4.68
      units: km
  - name: SPRINGFLD
    distance:
      value: 6.99
      units: km
  - name: ROCHESTER
    distance:
      value: 7.81
      units: km
- country: US
  region: IL
  name: Cleveland
  lat: '41.5032'
  long: "-90.3171"
  nearby_rate_centers:
  - name: GREENRIVER
    distance:
      value: 2.7
      units: km
  - name: HAMPTON
    distance:
      value: 8.4
      units: km
  - name: EASTMOLINE
    distance:
      value: 10.52
      units: km
- country: US
  region: IL
  name: Clifton
  lat: '40.9348'
  long: "-87.9343"
  nearby_rate_centers:
  - name: CLIFTON
    distance:
      value: 0.31
      units: km
  - name: ASHKUM
    distance:
      value: 6.64
      units: km
  - name: CHEBANSE
    distance:
      value: 8.06
      units: km
- country: US
  region: IL
  name: Clinton
  lat: '40.1468'
  long: "-88.9633"
  nearby_rate_centers:
  - name: CLINTON
    distance:
      value: 1.63
      units: km
  - name: KENNEY
    distance:
      value: 11.56
      units: km
  - name: MAROA
    distance:
      value: 11.91
      units: km
- country: US
  region: IL
  name: Coal City
  lat: '41.2772'
  long: "-88.2803"
  nearby_rate_centers:
  - name: COAL CITY
    distance:
      value: 0.92
      units: km
  - name: BRAIDWOOD
    distance:
      value: 5.5
      units: km
  - name: GARDNER
    distance:
      value: 10.61
      units: km
- country: US
  region: IL
  name: Coal Valley
  lat: '41.4416'
  long: "-90.4462"
  nearby_rate_centers:
  - name: EASTMOLINE
    distance:
      value: 8.22
      units: km
  - name: MOLINE
    distance:
      value: 9.3
      units: km
  - name: ORION
    distance:
      value: 11.39
      units: km
- country: US
  region: IL
  name: Coalton
  lat: '39.2848'
  long: "-89.3030"
  nearby_rate_centers:
  - name: NOKOMIS
    distance:
      value: 2.38
      units: km
  - name: WITT
    distance:
      value: 4.95
      units: km
  - name: IRVING
    distance:
      value: 12.7
      units: km
- country: US
  region: IL
  name: Coatsburg
  lat: '40.0327'
  long: "-91.1604"
  nearby_rate_centers:
  - name: COATSBURG
    distance:
      value: 0.09
      units: km
  - name: COLUMBUS
    distance:
      value: 4.65
      units: km
  - name: CAMP POINT
    distance:
      value: 8.02
      units: km
- country: US
  region: IL
  name: Cobden
  lat: '37.5335'
  long: "-89.2545"
  nearby_rate_centers:
  - name: COBDEN
    distance:
      value: 0.3
      units: km
  - name: ANNA
    distance:
      value: 8.06
      units: km
  - name: DONGOLA
    distance:
      value: 20.94
      units: km
- country: US
  region: IL
  name: Coffeen
  lat: '39.0883'
  long: "-89.3898"
  nearby_rate_centers:
  - name: COFFEEN
    distance:
      value: 0.61
      units: km
  - name: DONNELLSON
    distance:
      value: 9.86
      units: km
  - name: FILLMORE
    distance:
      value: 10.31
      units: km
- country: US
  region: IL
  name: Colchester
  lat: '40.4256'
  long: "-90.7922"
  nearby_rate_centers:
  - name: COLCHESTER
    distance:
      value: 0.14
      units: km
  - name: MACOMB
    distance:
      value: 11.07
      units: km
  - name: BLANDINSVL
    distance:
      value: 15.71
      units: km
- country: US
  region: IL
  name: Coleta
  lat: '41.9021'
  long: "-89.7998"
  nearby_rate_centers:
  - name: COLETA
    distance:
      value: 0.39
      units: km
  - name: MILLEDGEVL
    distance:
      value: 7.62
      units: km
  - name: STERLING
    distance:
      value: 14.75
      units: km
- country: US
  region: IL
  name: Colfax
  lat: '40.5666'
  long: "-88.6160"
  nearby_rate_centers:
  - name: COLFAX
    distance:
      value: 0.95
      units: km
  - name: COOKSVILLE
    distance:
      value: 9.58
      units: km
  - name: CROPSEY
    distance:
      value: 12.5
      units: km
- country: US
  region: IL
  name: Collinsville
  lat: '38.6770'
  long: "-90.0063"
  nearby_rate_centers:
  - name: COLLINSVL
    distance:
      value: 2.14
      units: km
  - name: GLENCARBON
    distance:
      value: 8.37
      units: km
  - name: EDGEMONT
    distance:
      value: 10.74
      units: km
- country: US
  region: IL
  name: Colona
  lat: '41.4678'
  long: "-90.3446"
  nearby_rate_centers:
  - name: GREENRIVER
    distance:
      value: 2.65
      units: km
  - name: EASTMOLINE
    distance:
      value: 9.72
      units: km
  - name: HAMPTON
    distance:
      value: 10.56
      units: km
- country: US
  region: IL
  name: Colp
  lat: '37.8074'
  long: "-89.0786"
  nearby_rate_centers:
  - name: HERRIN
    distance:
      value: 4.26
      units: km
  - name: CARTERVL
    distance:
      value: 4.56
      units: km
  - name: HURST
    distance:
      value: 6.72
      units: km
- country: US
  region: IL
  name: Columbia
  lat: '38.4581'
  long: "-90.2156"
  nearby_rate_centers:
  - name: COLUMBIA
    distance:
      value: 1.91
      units: km
  - name: DUPO
    distance:
      value: 6.46
      units: km
  - name: WESTVIEW
    distance:
      value: 9.43
      units: km
- country: US
  region: IL
  name: Columbus
  lat: '39.9883'
  long: "-91.1456"
  nearby_rate_centers:
  - name: COLUMBUS
    distance:
      value: 0.45
      units: km
  - name: COATSBURG
    distance:
      value: 5.18
      units: km
  - name: CAMP POINT
    distance:
      value: 9.15
      units: km
- country: US
  region: IL
  name: Como
  lat: '41.7662'
  long: "-89.7657"
  nearby_rate_centers:
  - name: STERLING
    distance:
      value: 6.51
      units: km
  - name: NELSON
    distance:
      value: 14.38
      units: km
  - name: LYNDON
    distance:
      value: 14.56
      units: km
- country: US
  region: IL
  name: Compton
  lat: '41.6942'
  long: "-89.0858"
  nearby_rate_centers:
  - name: COMPTON
    distance:
      value: 0.36
      units: km
  - name: W BROOKLYN
    distance:
      value: 5.44
      units: km
  - name: PAW PAW
    distance:
      value: 8.68
      units: km
- country: US
  region: IL
  name: Concord
  lat: '39.8157'
  long: "-90.3705"
  nearby_rate_centers:
  - name: CONCORD
    distance:
      value: 0.47
      units: km
  - name: ARENZVILLE
    distance:
      value: 6.62
      units: km
  - name: CHAPIN
    distance:
      value: 7.45
      units: km
- country: US
  region: IL
  name: Congerville
  lat: '40.6168'
  long: "-89.2051"
  nearby_rate_centers:
  - name: CONGERVL
    distance:
      value: 0.18
      units: km
  - name: GOODFIELD
    distance:
      value: 6.55
      units: km
  - name: CARLOCK
    distance:
      value: 7.39
      units: km
- country: US
  region: IL
  name: Cooksville
  lat: '40.5428'
  long: "-88.7146"
  nearby_rate_centers:
  - name: COOKSVILLE
    distance:
      value: 0.86
      units: km
  - name: COLFAX
    distance:
      value: 7.82
      units: km
  - name: ELLSWORTH
    distance:
      value: 10.66
      units: km
- country: US
  region: IL
  name: Coral
  lat: '42.2180'
  long: "-88.5661"
  nearby_rate_centers:
  - name: UNION
    distance:
      value: 2.72
      units: km
  - name: MARENGO
    distance:
      value: 5.22
      units: km
  - name: HUNTLEY
    distance:
      value: 12.54
      units: km
- country: US
  region: IL
  name: Cordova
  lat: '41.6775'
  long: "-90.3218"
  nearby_rate_centers:
  - name: CORDOVA
    distance:
      value: 0.46
      units: km
  - name: PORT BYRON
    distance:
      value: 7.86
      units: km
  - name: HILLSDALE
    distance:
      value: 14.24
      units: km
- country: US
  region: IL
  name: Cornell
  lat: '40.9920'
  long: "-88.7299"
  nearby_rate_centers:
  - name: CORNELL
    distance:
      value: 0.2
      units: km
  - name: GRAYMONT
    distance:
      value: 13.62
      units: km
  - name: LONG POINT
    distance:
      value: 13.73
      units: km
- country: US
  region: IL
  name: Cornland
  lat: '39.9376'
  long: "-89.4015"
  nearby_rate_centers:
  - name: BUFFALO
    distance:
      value: 9.76
      units: km
  - name: ELKHART
    distance:
      value: 11.48
      units: km
  - name: WILLIAMSVL
    distance:
      value: 12.59
      units: km
- country: US
  region: IL
  name: Cortland
  lat: '41.9255'
  long: "-88.6794"
  nearby_rate_centers:
  - name: DE KALB
    distance:
      value: 5.74
      units: km
  - name: MAPLE PARK
    distance:
      value: 7.05
      units: km
  - name: SYCAMORE
    distance:
      value: 7.38
      units: km
- country: US
  region: IL
  name: Coulterville
  lat: '38.1850'
  long: "-89.6045"
  nearby_rate_centers:
  - name: COULTERVL
    distance:
      value: 0.46
      units: km
  - name: TILDEN
    distance:
      value: 7.9
      units: km
  - name: SPARTA
    distance:
      value: 10.98
      units: km
- country: US
  region: IL
  name: Country Club Hills
  lat: '41.5636'
  long: "-87.7251"
  nearby_rate_centers:
  - name: TINLEYPARK
    distance:
      value: 5.09
      units: km
  - name: HOMEWOOD
    distance:
      value: 5.11
      units: km
  - name: OAK FOR SO
    distance:
      value: 5.48
      units: km
- country: US
  region: IL
  name: Countryside
  lat: '41.7741'
  long: "-87.8752"
  nearby_rate_centers:
  - name: WESTERNSPG
    distance:
      value: 4.32
      units: km
  - name: WILLOW SPG
    distance:
      value: 4.59
      units: km
  - name: LA GRANGE
    distance:
      value: 4.6
      units: km
- country: US
  region: IL
  name: Cowden
  lat: '39.2493'
  long: "-88.8593"
  nearby_rate_centers:
  - name: COWDEN
    distance:
      value: 0.51
      units: km
  - name: BEECHER CY
    distance:
      value: 9.49
      units: km
  - name: HERRICK
    distance:
      value: 10.93
      units: km
- country: US
  region: IL
  name: Coyne Center
  lat: '41.4006'
  long: "-90.5627"
  nearby_rate_centers:
  - name: PREEMPTION
    distance:
      value: 9.72
      units: km
  - name: SHERRARD
    distance:
      value: 10.24
      units: km
  - name: REYNOLDS
    distance:
      value: 11.79
      units: km
- country: US
  region: IL
  name: Crab Orchard
  lat: '37.7249'
  long: "-88.8059"
  nearby_rate_centers:
  - name: PAULTON
    distance:
      value: 5.03
      units: km
  - name: MARION
    distance:
      value: 10.99
      units: km
  - name: CREAL SPG
    distance:
      value: 11.91
      units: km
- country: US
  region: IL
  name: Crainville
  lat: '37.7511'
  long: "-89.0600"
  nearby_rate_centers:
  - name: CARTERVL
    distance:
      value: 2.44
      units: km
  - name: HERRIN
    distance:
      value: 6.37
      units: km
  - name: MARION
    distance:
      value: 11.55
      units: km
- country: US
  region: IL
  name: Creal Springs
  lat: '37.6198'
  long: "-88.8371"
  nearby_rate_centers:
  - name: CREAL SPG
    distance:
      value: 0.16
      units: km
  - name: STONEFORT
    distance:
      value: 11.53
      units: km
  - name: GOREVILLE
    distance:
      value: 13.6
      units: km
- country: US
  region: IL
  name: Crescent City
  lat: '40.7716'
  long: "-87.8564"
  nearby_rate_centers:
  - name: CRESCENTCY
    distance:
      value: 0.32
      units: km
  - name: WATSEKA
    distance:
      value: 10.18
      units: km
  - name: GILMAN
    distance:
      value: 11.49
      units: km
- country: US
  region: IL
  name: Crest Hill
  lat: '41.5723'
  long: "-88.1124"
  nearby_rate_centers:
  - name: LOCKPORT
    distance:
      value: 5.38
      units: km
  - name: ROMEOVLLE
    distance:
      value: 5.38
      units: km
  - name: JOLIET WES
    distance:
      value: 5.61
      units: km
  - name: JOLIET
    distance:
      value: 5.61
      units: km
  - name: PLAINFIELD
    distance:
      value: 8.64
      units: km
- country: US
  region: IL
  name: Creston
  lat: '41.9335'
  long: "-88.9742"
  nearby_rate_centers:
  - name: CRESTON
    distance:
      value: 0.5
      units: km
  - name: ROCHELLE
    distance:
      value: 8.49
      units: km
  - name: MALTA
    distance:
      value: 9.1
      units: km
- country: US
  region: IL
  name: Crestwood
  lat: '41.6454'
  long: "-87.7397"
  nearby_rate_centers:
  - name: OAK FOR SO
    distance:
      value: 3.71
      units: km
  - name: BLUEISLAND
    distance:
      value: 5.12
      units: km
  - name: PALOS PARK
    distance:
      value: 7.91
      units: km
- country: US
  region: IL
  name: Crete
  lat: '41.4401'
  long: "-87.6235"
  nearby_rate_centers:
  - name: CRETE
    distance:
      value: 1.23
      units: km
  - name: CHICGOHTSE
    distance:
      value: 7.34
      units: km
  - name: CHICAGOHTS
    distance:
      value: 7.34
      units: km
  - name: PARKFOREST
    distance:
      value: 7.34
      units: km
  - name: GOVRNORSPK
    distance:
      value: 10.94
      units: km
- country: US
  region: IL
  name: Creve Coeur
  lat: '40.6426'
  long: "-89.5981"
  nearby_rate_centers:
  - name: NORTHPEKIN
    distance:
      value: 3.01
      units: km
  - name: PEORIA
    distance:
      value: 5.64
      units: km
  - name: GROVELAND
    distance:
      value: 7.55
      units: km
- country: US
  region: IL
  name: Crossville
  lat: '38.1626'
  long: "-88.0643"
  nearby_rate_centers:
  - name: CROSSVILLE
    distance:
      value: 0.57
      units: km
  - name: CARMI
    distance:
      value: 11.79
      units: km
  - name: GRAYVILLE
    distance:
      value: 12.72
      units: km
- country: US
  region: IL
  name: Crystal Lake
  lat: '42.2333'
  long: "-88.3351"
  nearby_rate_centers:
  - name: CRYSTAL LK
    distance:
      value: 1.57
      units: km
  - name: CARY
    distance:
      value: 7.78
      units: km
  - name: ALGONQUIN
    distance:
      value: 8.12
      units: km
- country: US
  region: IL
  name: Crystal Lawns
  lat: '41.5685'
  long: "-88.1638"
  nearby_rate_centers:
  - name: PLAINFIELD
    distance:
      value: 5.76
      units: km
  - name: JOLIET
    distance:
      value: 8.25
      units: km
  - name: JOLIET WES
    distance:
      value: 8.25
      units: km
  - name: ROMEOVLLE
    distance:
      value: 9.59
      units: km
  - name: LOCKPORT
    distance:
      value: 9.59
      units: km
- country: US
  region: IL
  name: Cuba
  lat: '40.4936'
  long: "-90.1933"
  nearby_rate_centers:
  - name: CUBA
    distance:
      value: 0.53
      units: km
  - name: FIATT
    distance:
      value: 7.51
      units: km
  - name: SMITHFIELD
    distance:
      value: 8.72
      units: km
- country: US
  region: IL
  name: Cullom
  lat: '40.8784'
  long: "-88.2699"
  nearby_rate_centers:
  - name: CULLOM
    distance:
      value: 0.12
      units: km
  - name: KEMPTON
    distance:
      value: 7.08
      units: km
  - name: SAUNEMIN
    distance:
      value: 11.85
      units: km
- country: US
  region: IL
  name: Curran
  lat: '39.7420'
  long: "-89.7785"
  nearby_rate_centers:
  - name: LOAMI
    distance:
      value: 9.46
      units: km
  - name: CHATHAM
    distance:
      value: 9.98
      units: km
  - name: NEW BERLIN
    distance:
      value: 11.32
      units: km
- country: US
  region: IL
  name: Custer Park
  lat: '41.2436'
  long: "-88.1292"
  nearby_rate_centers:
  - name: WILMINGTON
    distance:
      value: 7.24
      units: km
  - name: BRAIDWOOD
    distance:
      value: 7.67
      units: km
  - name: COAL CITY
    distance:
      value: 13.78
      units: km
- country: US
  region: IL
  name: Cutler
  lat: '38.0325'
  long: "-89.5676"
  nearby_rate_centers:
  - name: PERCY
    distance:
      value: 4.54
      units: km
  - name: STEELEVL
    distance:
      value: 8.5
      units: km
  - name: BLAIR
    distance:
      value: 15.24
      units: km
- country: US
  region: IL
  name: Cypress
  lat: '37.3655'
  long: "-89.0187"
  nearby_rate_centers:
  - name: CYPRESS
    distance:
      value: 0.3
      units: km
  - name: KARNAK
    distance:
      value: 9.04
      units: km
  - name: VIENNA
    distance:
      value: 12.04
      units: km
- country: US
  region: IL
  name: Dahlgren
  lat: '38.1980'
  long: "-88.6847"
  nearby_rate_centers:
  - name: DAHLGREN
    distance:
      value: 0.51
      units: km
  - name: BELLE RIVE
    distance:
