---
cities:
  US:
    IL:
    - name: Abingdon
      region: IL
      lat: '40.8038'
      long: "-90.4009"
      closest_rate_centers:
      - name: Abingdon
        distance:
          value: 0.61
          units: km
      - name: Cameron
        distance:
          value: 13.63
          units: km
      - name: London Mills
        distance:
          value: 15.13
          units: km
    - name: Adair
      region: IL
      lat: '40.4183'
      long: "-90.4974"
      closest_rate_centers:
      - name: Adair
        distance:
          value: 1.1
          units: km
      - name: Table Grove
        distance:
          value: 8.42
          units: km
      - name: Bardolph
        distance:
          value: 10.52
          units: km
    - name: Adams
      region: IL
      lat: '39.8708'
      long: "-91.1998"
      closest_rate_centers:
      - name: Burton
        distance:
          value: 5.48
          units: km
      - name: Payson
        distance:
          value: 6.98
          units: km
      - name: Liberty
        distance:
          value: 7.73
          units: km
    - name: Addieville
      region: IL
      lat: '38.3913'
      long: "-89.4865"
      closest_rate_centers:
      - name: Addieville
        distance:
          value: 0.27
          units: km
      - name: Okawville
        distance:
          value: 7.66
          units: km
      - name: Nashville
        distance:
          value: 10.45
          units: km
    - name: Addison
      region: IL
      lat: '41.9313'
      long: "-88.0085"
      closest_rate_centers:
      - name: Itasca
        distance:
          value: 4.64
          units: km
      - name: Lombard
        distance:
          value: 5.34
          units: km
      - name: Elmhurst
        distance:
          value: 6.39
          units: km
    - name: Adeline
      region: IL
      lat: '42.1406'
      long: "-89.4919"
      closest_rate_centers:
      - name: Forreston
        distance:
          value: 7.08
          units: km
      - name: Leaf River
        distance:
          value: 7.45
          units: km
      - name: German Valley
        distance:
          value: 8.64
          units: km
    - name: Albany
      region: IL
      lat: '41.7861'
      long: "-90.2163"
      closest_rate_centers:
      - name: Albany
        distance:
          value: 0.54
          units: km
      - name: Fulton
        distance:
          value: 10.9
          units: km
      - name: Cordova
        distance:
          value: 14.47
          units: km
    - name: Albers
      region: IL
      lat: '38.5452'
      long: "-89.6142"
      closest_rate_centers:
      - name: Albers
        distance:
          value: 0.51
          units: km
      - name: Germantown
        distance:
          value: 6.47
          units: km
      - name: Aviston
        distance:
          value: 7.56
          units: km
    - name: Albion
      region: IL
      lat: '38.3766'
      long: "-88.0580"
      closest_rate_centers:
      - name: Albion
        distance:
          value: 0.26
          units: km
      - name: Browns
        distance:
          value: 7.1
          units: km
      - name: Bellmont (Wabash)
        distance:
          value: 12.85
          units: km
    - name: Alden
      region: IL
      lat: '42.4588'
      long: "-88.5184"
      closest_rate_centers:
      - name: Hebron
        distance:
          value: 7.02
          units: km
      - name: Harvard
        distance:
          value: 8.39
          units: km
      - name: Woodstock
        distance:
          value: 16.57
          units: km
    - name: Aledo
      region: IL
      lat: '41.1990'
      long: "-90.7459"
      closest_rate_centers:
      - name: Aledo
        distance:
          value: 0.33
          units: km
      - name: Joy
        distance:
          value: 11.13
          units: km
      - name: Seaton
        distance:
          value: 11.69
          units: km
    - name: Alexander
      region: IL
      lat: '39.7218'
      long: "-90.0368"
      closest_rate_centers:
      - name: Alexander
        distance:
          value: 0.01
          units: km
      - name: New Berlin
        distance:
          value: 10.94
          units: km
      - name: Franklin
        distance:
          value: 11.74
          units: km
    - name: Alexis
      region: IL
      lat: '41.0630'
      long: "-90.5555"
      closest_rate_centers:
      - name: Alexis
        distance:
          value: 0.15
          units: km
      - name: North Henderson
        distance:
          value: 7.34
          units: km
      - name: Rio
        distance:
          value: 14.17
          units: km
      - name: Rio (Oneida Telephone)
        distance:
          value: 14.17
          units: km
    - name: Algonquin
      region: IL
      lat: '42.1629'
      long: "-88.3159"
      closest_rate_centers:
      - name: Algonquin
        distance:
          value: 2.2
          units: km
      - name: Dundee
        distance:
          value: 7.75
          units: km
      - name: Poplar Creek
        distance:
          value: 7.75
          units: km
      - name: Cary
        distance:
          value: 8.1
          units: km
    - name: Alhambra
      region: IL
      lat: '38.8878'
      long: "-89.7362"
      closest_rate_centers:
      - name: Alhambra
        distance:
          value: 0.61
          units: km
      - name: Grantfork
        distance:
          value: 8.51
          units: km
      - name: Hamel
        distance:
          value: 9.22
          units: km
    - name: Allendale
      region: IL
      lat: '38.5276'
      long: "-87.7103"
      closest_rate_centers:
      - name: Allendale
        distance:
          value: 0.16
          units: km
      - name: St Francisville
        distance:
          value: 9.13
          units: km
      - name: Mount Carmel
        distance:
          value: 13.58
          units: km
    - name: Allenville
      region: IL
      lat: '39.5583'
      long: "-88.5387"
      closest_rate_centers:
      - name: Sullivan
        distance:
          value: 7.68
          units: km
      - name: Kirksville
        distance:
          value: 11.35
          units: km
      - name: Gays
        distance:
          value: 12.09
          units: km
    - name: Allerton
      region: IL
      lat: '39.9161'
      long: "-87.9353"
      closest_rate_centers:
      - name: Broadlands
        distance:
          value: 5.22
          units: km
      - name: Sidell
        distance:
          value: 9.17
          units: km
      - name: Newman
        distance:
          value: 13.21
          units: km
    - name: Alma
      region: IL
      lat: '38.7229'
      long: "-88.9118"
      closest_rate_centers:
      - name: Kinmundy
        distance:
          value: 7.78
          units: km
      - name: Salem
        distance:
          value: 10.77
          units: km
      - name: Iuka
        distance:
          value: 16.0
          units: km
    - name: Alpha
      region: IL
      lat: '41.1915'
      long: "-90.3805"
      closest_rate_centers:
      - name: Alpha
        distance:
          value: 0.44
          units: km
      - name: New Windsor
        distance:
          value: 5.37
          units: km
      - name: Woodhull
        distance:
          value: 6.12
          units: km
    - name: Alsey
      region: IL
      lat: '39.5592'
      long: "-90.4328"
      closest_rate_centers:
      - name: Winchester
        distance:
          value: 8.68
          units: km
      - name: Manchester
        distance:
          value: 9.44
          units: km
      - name: Patterson
        distance:
          value: 9.8
          units: km
    - name: Alsip
      region: IL
      lat: '41.6701'
      long: "-87.7368"
      closest_rate_centers:
      - name: Blue Island
        distance:
          value: 5.04
          units: km
      - name: Hickory Hills
        distance:
          value: 5.72
          units: km
      - name: Oak Lawn
        distance:
          value: 5.72
          units: km
      - name: Oak Forest South
        distance:
          value: 6.4
          units: km
    - name: Altamont
      region: IL
      lat: '39.0566'
      long: "-88.7477"
      closest_rate_centers:
      - name: Altamont
        distance:
          value: 0.7
          units: km
      - name: St Elmo
        distance:
          value: 9.3
          units: km
      - name: Beecher City
        distance:
          value: 14.91
          units: km
    - name: Alto Pass
      region: IL
      lat: '37.5737'
      long: "-89.3192"
      closest_rate_centers:
      - name: Cobden
        distance:
          value: 7.25
          units: km
      - name: Anna
        distance:
          value: 14.01
          units: km
      - name: Carbondale
        distance:
          value: 19.42
          units: km
    - name: Alton
      region: IL
      lat: '38.9037'
      long: "-90.1520"
      closest_rate_centers:
      - name: Alton
        distance:
          value: 3.0
          units: km
      - name: Wood River
        distance:
          value: 6.76
          units: km
      - name: Bethalto
        distance:
          value: 9.45
          units: km
    - name: Altona
      region: IL
      lat: '41.1150'
      long: "-90.1648"
      closest_rate_centers:
      - name: Altona
        distance:
          value: 0.39
          units: km
      - name: Oneida
        distance:
          value: 6.96
          units: km
      - name: Bishop Hill
        distance:
          value: 10.57
          units: km
    - name: Alvan
      region: IL
      lat: '40.3070'
      long: "-87.6069"
      closest_rate_centers:
      - name: Alvin
        distance:
          value: 0.2
          units: km
      - name: Bismarck
        distance:
          value: 4.94
          units: km
      - name: Henning
        distance:
          value: 7.67
          units: km
    - name: Amboy
      region: IL
      lat: '41.7287'
      long: "-89.3685"
      closest_rate_centers:
      - name: Amboy
        distance:
          value: 3.0
          units: km
      - name: Franklin Grove
        distance:
          value: 14.17
          units: km
      - name: Sublette
        distance:
          value: 14.98
          units: km
    - name: Anchor
      region: IL
      lat: '40.5681'
      long: "-88.5385"
      closest_rate_centers:
      - name: Cropsey
        distance:
          value: 6.91
          units: km
      - name: Colfax
        distance:
          value: 7.5
          units: km
      - name: Sibley
        distance:
          value: 13.47
          units: km
    - name: Andalusia
      region: IL
      lat: '41.4372'
      long: "-90.7165"
      closest_rate_centers:
      - name: Edgington
        distance:
          value: 6.82
          units: km
      - name: Reynolds
        distance:
          value: 12.3
          units: km
      - name: Rock Island
        distance:
          value: 14.11
          units: km
    - name: Andover
      region: IL
      lat: '41.2949'
      long: "-90.2907"
      closest_rate_centers:
      - name: Andover (Cambridge Telephone)
        distance:
          value: 0.27
          units: km
      - name: Andover
        distance:
          value: 0.27
          units: km
      - name: Osco
        distance:
          value: 6.33
          units: km
      - name: Cambridge
        distance:
          value: 8.51
          units: km
    - name: Andres
      region: IL
      lat: '41.3711'
      long: "-87.8816"
      closest_rate_centers:
      - name: Peotone
        distance:
          value: 8.79
          units: km
      - name: Manhattan
        distance:
          value: 10.12
          units: km
      - name: Governors Park
        distance:
          value: 12.02
          units: km
    - name: Anna
      region: IL
      lat: '37.4612'
      long: "-89.2388"
      closest_rate_centers:
      - name: Anna
        distance:
          value: 0.78
          units: km
      - name: Cobden
        distance:
          value: 8.36
          units: km
      - name: Dongola
        distance:
          value: 13.11
          units: km
    - name: Annapolis
      region: IL
      lat: '39.1431'
      long: "-87.8172"
      closest_rate_centers:
      - name: Annapolis
        distance:
          value: 0.71
          units: km
      - name: Hutsonville
        distance:
          value: 13.87
          units: km
      - name: West Union
        distance:
          value: 16.04
          units: km
    - name: Annawan
      region: IL
      lat: '41.3958'
      long: "-89.8882"
      closest_rate_centers:
      - name: Annawan
        distance:
          value: 1.78
          units: km
      - name: Mineral
        distance:
          value: 4.66
          units: km
      - name: Atkinson
        distance:
          value: 10.81
          units: km
    - name: Antioch
      region: IL
      lat: '42.4742'
      long: "-88.0721"
      closest_rate_centers:
      - name: Antioch
        distance:
          value: 2.18
          units: km
      - name: Lake Villa
        distance:
          value: 6.13
          units: km
      - name: Fox Lake
        distance:
          value: 12.47
          units: km
    - name: Apple Canyon Lake
      region: IL
      lat: '42.4302'
      long: "-90.1642"
      closest_rate_centers:
      - name: Scales Mound
        distance:
          value: 8.92
          units: km
      - name: Apple River
        distance:
          value: 9.2
          units: km
      - name: Elizabeth
        distance:
          value: 13.57
          units: km
    - name: Apple River
      region: IL
      lat: '42.5022'
      long: "-90.0937"
      closest_rate_centers:
      - name: Apple River
        distance:
          value: 0.69
          units: km
      - name: Warren
        distance:
          value: 8.42
          units: km
      - name: Scales Mound
        distance:
          value: 13.33
          units: km
    - name: Arbury Hills
      region: IL
      lat: '41.5353'
      long: "-87.8461"
      closest_rate_centers:
      - name: Mokena
        distance:
          value: 3.15
          units: km
      - name: Frankfort
        distance:
          value: 4.25
          units: km
      - name: Tinley Park
        distance:
          value: 6.92
          units: km
    - name: Arcola
      region: IL
      lat: '39.6833'
      long: "-88.3013"
      closest_rate_centers:
      - name: Arcola
        distance:
          value: 0.45
          units: km
      - name: Humboldt
        distance:
          value: 8.88
          units: km
      - name: Tuscola
        distance:
          value: 12.72
          units: km
    - name: Arenzville
      region: IL
      lat: '39.8805'
      long: "-90.3706"
      closest_rate_centers:
      - name: Arenzville
        distance:
          value: 0.58
          units: km
      - name: Concord
        distance:
          value: 6.79
          units: km
      - name: Chapin
        distance:
          value: 14.41
          units: km
    - name: Argenta
      region: IL
      lat: '39.9855'
      long: "-88.8197"
      closest_rate_centers:
      - name: Argenta
        distance:
          value: 0.22
          units: km
      - name: Oreana
        distance:
          value: 6.54
          units: km
      - name: Cisco
        distance:
          value: 8.32
          units: km
    - name: Argyle
      region: IL
      lat: '42.3548'
      long: "-88.9392"
      closest_rate_centers:
      - name: Rock Cut
        distance:
          value: 1.46
          units: km
      - name: Roscoe
        distance:
          value: 9.05
          units: km
      - name: Poplar Grove
        distance:
          value: 9.95
          units: km
    - name: Arlington
      region: IL
      lat: '41.4716'
      long: "-89.2478"
      closest_rate_centers:
      - name: La Moille
        distance:
          value: 7.38
          units: km
      - name: Ladd
        distance:
          value: 10.46
          units: km
      - name: Dover
        distance:
          value: 12.93
          units: km
    - name: Arlington Heights
      region: IL
      lat: '42.0955'
      long: "-87.9826"
      closest_rate_centers:
      - name: Arlington Heights
        distance:
          value: 0.66
          units: km
      - name: Schaumburg North
        distance:
          value: 5.88
          units: km
      - name: Palatine
        distance:
          value: 5.88
          units: km
      - name: Elk Grove
        distance:
          value: 7.54
          units: km
    - name: Armington
      region: IL
      lat: '40.3397'
      long: "-89.3144"
      closest_rate_centers:
      - name: Minier Armington
        distance:
          value: 10.51
          units: km
      - name: Atlanta
        distance:
          value: 10.97
          units: km
      - name: McLean
        distance:
          value: 11.8
          units: km
    - name: Aroma Park
      region: IL
      lat: '41.0788'
      long: "-87.8011"
      closest_rate_centers:
      - name: Kankakee
        distance:
          value: 6.99
          units: km
      - name: St Anne
        distance:
          value: 8.85
          units: km
      - name: Chebanse
        distance:
          value: 12.26
          units: km
    - name: Arrowsmith
      region: IL
      lat: '40.4493'
      long: "-88.6321"
      closest_rate_centers:
      - name: Arrowsmith
        distance:
          value: 0.49
          units: km
      - name: Ellsworth
        distance:
          value: 7.54
          units: km
      - name: Saybrook
        distance:
          value: 8.9
          units: km
    - name: Arthur
      region: IL
      lat: '39.7144'
      long: "-88.4696"
      closest_rate_centers:
      - name: Arthur
        distance:
          value: 0.39
          units: km
      - name: Atwood
        distance:
          value: 9.62
          units: km
      - name: Hammond
        distance:
          value: 13.44
          units: km
    - name: Ashkum
      region: IL
      lat: '40.8783'
      long: "-87.9533"
      closest_rate_centers:
      - name: Ashkum
        distance:
          value: 0.31
          units: km
      - name: Danforth
        distance:
          value: 6.42
          units: km
      - name: Clifton
        distance:
          value: 6.58
          units: km
    - name: Ashland
      region: IL
      lat: '39.8886'
      long: "-90.0078"
      closest_rate_centers:
      - name: Ashland
        distance:
          value: 0.27
          units: km
      - name: Pleasant Plains
        distance:
          value: 8.23
          units: km
      - name: Tallula
        distance:
          value: 8.97
          units: km
    - name: Ashley
      region: IL
      lat: '38.3288'
      long: "-89.1893"
      closest_rate_centers:
      - name: Ashley
        distance:
          value: 0.52
          units: km
      - name: Dubois
        distance:
          value: 11.72
          units: km
      - name: Irvington
        distance:
          value: 12.84
          units: km
    - name: Ashmore
      region: IL
      lat: '39.5306'
      long: "-88.0201"
      closest_rate_centers:
      - name: Ashmore
        distance:
          value: 0.51
          units: km
      - name: Kansas
        distance:
          value: 7.24
          units: km
      - name: Westfield
        distance:
          value: 7.99
          units: km
    - name: Ashton
      region: IL
      lat: '41.8682'
      long: "-89.2225"
      closest_rate_centers:
      - name: Ashton
        distance:
          value: 0.23
          units: km
      - name: Franklin Grove
        distance:
          value: 6.75
          units: km
      - name: Rochelle
        distance:
          value: 13.7
          units: km
    - name: Assumption
      region: IL
      lat: '39.5180'
      long: "-89.0478"
      closest_rate_centers:
      - name: Assumption
        distance:
          value: 0.47
          units: km
      - name: Moweaqua
        distance:
          value: 12.65
          units: km
      - name: Owaneco
        distance:
          value: 12.9
          units: km
    - name: Astoria
      region: IL
      lat: '40.2279'
      long: "-90.3565"
      closest_rate_centers:
      - name: Astoria
        distance:
          value: 0.32
          units: km
      - name: Summum
        distance:
          value: 7.96
          units: km
      - name: Vermont
        distance:
          value: 9.87
          units: km
    - name: Athens
      region: IL
      lat: '39.9618'
      long: "-89.7217"
      closest_rate_centers:
      - name: Athens
        distance:
          value: 0.51
          units: km
      - name: Cantrall
        distance:
          value: 4.7
          units: km
      - name: Petersburg
        distance:
          value: 12.24
          units: km
    - name: Atkinson
      region: IL
      lat: '41.4168'
      long: "-90.0087"
      closest_rate_centers:
      - name: Atkinson
        distance:
          value: 0.69
          units: km
      - name: Annawan
        distance:
          value: 8.69
          units: km
      - name: Geneseo
        distance:
          value: 12.86
          units: km
    - name: Atlanta
      region: IL
      lat: '40.2638'
      long: "-89.2309"
      closest_rate_centers:
      - name: Atlanta
        distance:
          value: 0.67
          units: km
      - name: McLean
        distance:
          value: 7.71
          units: km
      - name: Waynesville
        distance:
          value: 9.18
          units: km
    - name: Atwood
      region: IL
      lat: '39.7992'
      long: "-88.4626"
      closest_rate_centers:
      - name: Atwood
        distance:
          value: 0.62
          units: km
      - name: Arthur
        distance:
          value: 9.08
          units: km
      - name: Hammond
        distance:
          value: 10.57
          units: km
    - name: Auburn
      region: IL
      lat: '39.5763'
      long: "-89.7440"
      closest_rate_centers:
      - name: Auburn
        distance:
          value: 2.0
          units: km
      - name: Divernon
        distance:
          value: 7.87
          units: km
      - name: Virden
        distance:
          value: 8.83
          units: km
    - name: Augusta
      region: IL
      lat: '40.2307'
      long: "-90.9500"
      closest_rate_centers:
      - name: Augusta
        distance:
          value: 0.81
          units: km
      - name: Plymouth
        distance:
          value: 6.86
          units: km
      - name: Bowen
        distance:
          value: 9.56
          units: km
    - name: Aurora
      region: IL
      lat: '41.7638'
      long: "-88.2902"
      closest_rate_centers:
      - name: Aurora East
        distance:
          value: 2.29
          units: km
      - name: Aurora
        distance:
          value: 2.29
          units: km
      - name: Batavia
        distance:
          value: 10.44
          units: km
      - name: Oswego
        distance:
          value: 10.5
          units: km
    - name: Ava
      region: IL
      lat: '37.8886'
      long: "-89.4965"
      closest_rate_centers:
      - name: Ava
        distance:
          value: 0.39
          units: km
      - name: Glenn
        distance:
          value: 12.02
          units: km
      - name: Percy
        distance:
          value: 17.76
          units: km
    - name: Aviston
      region: IL
      lat: '38.6162'
      long: "-89.6087"
      closest_rate_centers:
      - name: Aviston
        distance:
          value: 0.56
          units: km
      - name: Trenton
        distance:
          value: 6.61
          units: km
      - name: Breese
        distance:
          value: 7.25
          units: km
    - name: Avon
      region: IL
      lat: '40.6620'
      long: "-90.4352"
      closest_rate_centers:
      - name: Avon
        distance:
          value: 0.55
          units: km
      - name: Prairie City
        distance:
          value: 4.61
          units: km
      - name: Ellisville
        distance:
          value: 11.85
          units: km
    - name: Baileyville
      region: IL
      lat: '42.1984'
      long: "-89.5946"
      closest_rate_centers:
      - name: Forreston
        distance:
          value: 8.17
          units: km
      - name: German Valley
        distance:
          value: 10.27
          units: km
      - name: Freeport
        distance:
          value: 10.82
          units: km
    - name: Baldwin
      region: IL
      lat: '38.1838'
      long: "-89.8451"
      closest_rate_centers:
      - name: Baldwin
        distance:
          value: 0.27
          units: km
      - name: Marissa
        distance:
          value: 9.66
          units: km
      - name: Evansville
        distance:
          value: 12.83
          units: km
    - name: Banner
      region: IL
      lat: '40.5126'
      long: "-89.9156"
      closest_rate_centers:
      - name: Talbott
        distance:
          value: 10.87
          units: km
      - name: Canton
        distance:
          value: 11.01
          units: km
      - name: Glasford
        distance:
          value: 11.26
          units: km
    - name: Bannockburn
      region: IL
      lat: '42.1932'
      long: "-87.8695"
      closest_rate_centers:
      - name: Deerfield
        distance:
          value: 2.96
          units: km
      - name: Highland Park
        distance:
          value: 6.19
          units: km
      - name: Wheeling
        distance:
          value: 6.89
          units: km
    - name: Bardolph
      region: IL
      lat: '40.4959'
      long: "-90.5631"
      closest_rate_centers:
      - name: Bardolph
        distance:
          value: 0.44
          units: km
      - name: Bushnell
        distance:
          value: 8.1
          units: km
      - name: Macomb
        distance:
          value: 9.89
          units: km
    - name: Barrington
      region: IL
      lat: '42.1515'
      long: "-88.1281"
      closest_rate_centers:
      - name: Barrington South
        distance:
          value: 0.48
          units: km
      - name: Barrington
        distance:
          value: 0.48
          units: km
      - name: Lake Zurich
        distance:
          value: 5.67
          units: km
      - name: Palatine
        distance:
          value: 7.68
          units: km
      - name: Schaumburg North
        distance:
          value: 7.68
          units: km
    - name: Barrington Hills
      region: IL
      lat: '42.1399'
      long: "-88.2034"
      closest_rate_centers:
      - name: Barrington South
        distance:
          value: 5.99
          units: km
      - name: Barrington
        distance:
          value: 5.99
          units: km
      - name: Dundee
        distance:
          value: 7.43
          units: km
      - name: Poplar Creek
        distance:
          value: 7.43
          units: km
      - name: Algonquin
        distance:
          value: 7.82
          units: km
    - name: Barry
      region: IL
      lat: '39.6982'
      long: "-91.0399"
      closest_rate_centers:
      - name: Barry
        distance:
          value: 0.78
          units: km
      - name: New Canton
        distance:
          value: 8.6
          units: km
      - name: Baylis
        distance:
          value: 11.78
          units: km
    - name: Barstow
      region: IL
      lat: '41.5162'
      long: "-90.3566"
      closest_rate_centers:
      - name: Hampton
        distance:
          value: 5.24
          units: km
      - name: Green River
        distance:
          value: 5.33
          units: km
      - name: East Moline
        distance:
          value: 7.14
          units: km
    - name: Bartelso
      region: IL
      lat: '38.5371'
      long: "-89.4672"
      closest_rate_centers:
      - name: Bartelso
        distance:
          value: 0.39
          units: km
      - name: Germantown
        distance:
          value: 6.81
          units: km
      - name: Beckemeyer
        distance:
          value: 8.37
          units: km
    - name: Bartlett
      region: IL
      lat: '41.9804'
      long: "-88.2071"
      closest_rate_centers:
      - name: Bartlett
        distance:
          value: 2.01
          units: km
      - name: Elgin
        distance:
          value: 9.13
          units: km
      - name: Schaumburg
        distance:
          value: 10.01
          units: km
      - name: Roselle
        distance:
          value: 10.01
          units: km
      - name: Willowcrest
        distance:
          value: 10.01
          units: km
    - name: Bartonville
      region: IL
      lat: '40.6397'
      long: "-89.6607"
      closest_rate_centers:
      - name: North Pekin
        distance:
          value: 4.07
          units: km
      - name: Peoria
        distance:
          value: 8.3
          units: km
      - name: Pekin
        distance:
          value: 8.65
          units: km
    - name: Basco
      region: IL
      lat: '40.3278'
      long: "-91.1996"
      closest_rate_centers:
      - name: Basco
        distance:
          value: 0.34
          units: km
      - name: Elvaston
        distance:
          value: 8.43
          units: km
      - name: Carthage
        distance:
          value: 11.03
          units: km
    - name: Batavia
      region: IL
      lat: '41.8479'
      long: "-88.3109"
      closest_rate_centers:
      - name: Batavia
        distance:
          value: 1.03
          units: km
      - name: Geneva
        distance:
          value: 4.67
          units: km
      - name: St Charles
        distance:
          value: 7.22
          units: km
    - name: Batchtown
      region: IL
      lat: '39.0331'
      long: "-90.6533"
      closest_rate_centers:
      - name: Batchtown
        distance:
          value: 0.4
          units: km
      - name: Brussels
        distance:
          value: 10.71
          units: km
      - name: Hardin
        distance:
          value: 13.65
          units: km
    - name: Bath
      region: IL
      lat: '40.1905'
      long: "-90.1425"
      closest_rate_centers:
      - name: Bath
        distance:
          value: 0.53
          units: km
      - name: Kilbourne
        distance:
          value: 11.86
          units: km
      - name: Havana
        distance:
          value: 13.91
          units: km
    - name: Bay View Gardens
      region: IL
      lat: '40.8102'
      long: "-89.5272"
      closest_rate_centers:
      - name: Spring Bay
        distance:
          value: 1.92
          units: km
      - name: Mossville
        distance:
          value: 3.69
          units: km
      - name: Germantown Hills
        distance:
          value: 6.23
          units: km
    - name: Baylis
      region: IL
      lat: '39.7294'
      long: "-90.9094"
      closest_rate_centers:
      - name: Baylis
        distance:
          value: 0.18
          units: km
      - name: Fishhook
        distance:
          value: 8.38
          units: km
      - name: Barry
        distance:
          value: 12.18
          units: km
    - name: Beach Park
      region: IL
      lat: '42.4260'
      long: "-87.8583"
      closest_rate_centers:
      - name: Zion
        distance:
          value: 3.2
          units: km
      - name: North Chicago
        distance:
          value: 7.32
          units: km
      - name: Waukegan
        distance:
          value: 7.32
          units: km
      - name: Grayslake
        distance:
          value: 16.98
          units: km
    - name: Beardstown
      region: IL
      lat: '39.9993'
      long: "-90.4178"
      closest_rate_centers:
      - name: Beardstown
        distance:
          value: 2.4
          units: km
      - name: Arenzville
        distance:
          value: 14.37
          units: km
      - name: Rushville
        distance:
          value: 18.22
          units: km
    - name: Beason
      region: IL
      lat: '40.1428'
      long: "-89.1928"
      closest_rate_centers:
      - name: Beason
        distance:
          value: 0.64
          units: km
      - name: Chestnut
        distance:
          value: 9.49
          units: km
      - name: Kenney
        distance:
          value: 10.08
          units: km
    - name: Beaverville
      region: IL
      lat: '40.9534'
      long: "-87.6546"
      closest_rate_centers:
      - name: Beaverville
        distance:
          value: 0.71
          units: km
      - name: Martinton
        distance:
          value: 7.54
          units: km
      - name: Donovan
        distance:
          value: 8.5
          units: km
    - name: Beckemeyer
      region: IL
      lat: '38.6058'
      long: "-89.4321"
      closest_rate_centers:
      - name: Beckemeyer
        distance:
          value: 0.47
          units: km
      - name: Carlyle
        distance:
          value: 5.61
          units: km
      - name: Breese
        distance:
          value: 8.14
          units: km
    - name: Bedford Park
      region: IL
      lat: '41.7669'
      long: "-87.7915"
      closest_rate_centers:
      - name: Summit
        distance:
          value: 1.76
          units: km
      - name: Hickory Hills
        distance:
          value: 6.15
          units: km
      - name: Oak Lawn
        distance:
          value: 6.15
          units: km
      - name: Riverside
        distance:
          value: 7.47
          units: km
    - name: Beecher
      region: IL
      lat: '41.3500'
      long: "-87.6172"
      closest_rate_centers:
      - name: Beecher
        distance:
          value: 1.88
          units: km
      - name: Crete
        distance:
          value: 10.14
          units: km
      - name: Grant Park
        distance:
          value: 12.04
          units: km
    - name: Beecher City
      region: IL
      lat: '39.1867'
      long: "-88.7877"
      closest_rate_centers:
      - name: Beecher City
        distance:
          value: 0.45
          units: km
      - name: Cowden
        distance:
          value: 9.32
          units: km
      - name: Shumway
        distance:
          value: 11.82
          units: km
    - name: Belgium
      region: IL
      lat: '40.0607'
      long: "-87.6328"
      closest_rate_centers:
      - name: Westville
        distance:
          value: 1.95
          units: km
      - name: Catlin
        distance:
          value: 6.43
          units: km
      - name: Danville
        distance:
          value: 6.91
          units: km
    - name: Belknap
      region: IL
      lat: '37.3224'
      long: "-88.9405"
      closest_rate_centers:
      - name: Karnak
        distance:
          value: 4.38
          units: km
      - name: Cypress
        distance:
          value: 8.36
          units: km
      - name: Vienna
        distance:
          value: 11.26
          units: km
    - name: Belle Prairie City
      region: IL
      lat: '38.2235'
      long: "-88.5556"
      closest_rate_centers:
      - name: Belle Prairie
        distance:
          value: 0.42
          units: km
      - name: Blairsville (Hamilton)
        distance:
          value: 10.75
          units: km
      - name: Dahlgren
        distance:
          value: 11.28
          units: km
    - name: Belle Rive
      region: IL
      lat: '38.2317'
      long: "-88.7405"
      closest_rate_centers:
      - name: Belle Rive
        distance:
          value: 0.13
          units: km
      - name: Dahlgren
        distance:
          value: 6.65
          units: km
      - name: Bluford
        distance:
          value: 10.53
          units: km
    - name: Belleville
      region: IL
      lat: '38.5164'
      long: "-89.9900"
      closest_rate_centers:
      - name: Belleville-Adams
        distance:
          value: 1.44
          units: km
      - name: Belleville-Pioneer
        distance:
          value: 1.44
          units: km
      - name: Edgemont
        distance:
          value: 10.92
          units: km
      - name: O'Fallon
        distance:
          value: 11.14
          units: km
    - name: Bellevue
      region: IL
      lat: '40.6877'
      long: "-89.6731"
      closest_rate_centers:
      - name: Peoria
        distance:
          value: 6.87
          units: km
      - name: North Pekin
        distance:
          value: 8.71
          units: km
      - name: Hanna City
        distance:
          value: 10.26
          units: km
    - name: Bellflower
      region: IL
      lat: '40.3404'
      long: "-88.5258"
      closest_rate_centers:
      - name: Bellflower
        distance:
          value: 0.33
          units: km
      - name: Foosland
        distance:
          value: 8.36
          units: km
      - name: Saybrook
        distance:
          value: 9.83
          units: km
    - name: Bellmont
      region: IL
      lat: '38.3830'
      long: "-87.9106"
      closest_rate_centers:
      - name: Bellmont (Wabash)
        distance:
          value: 0.22
          units: km
      - name: Browns
        distance:
          value: 5.81
          units: km
      - name: Albion
        distance:
          value: 12.61
          units: km
    - name: Bellwood
      region: IL
      lat: '41.8829'
      long: "-87.8762"
      closest_rate_centers:
      - name: Bellwood
        distance:
          value: 1.09
          units: km
      - name: Hillside
        distance:
          value: 1.09
          units: km
      - name: Maywood
        distance:
          value: 3.34
          units: km
      - name: Forest (Cook)
        distance:
          value: 5.37
          units: km
    - name: Belvidere
      region: IL
      lat: '42.2543'
      long: "-88.8649"
      closest_rate_centers:
      - name: Belvidere
        distance:
          value: 1.98
          units: km
      - name: Cherry Valley
        distance:
          value: 7.44
          units: km
      - name: Garden Prairie
        distance:
          value: 11.52
          units: km
    - name: Bement
      region: IL
      lat: '39.9230'
      long: "-88.5724"
      closest_rate_centers:
      - name: Bement
        distance:
          value: 0.74
          units: km
      - name: Ivesdale
        distance:
          value: 9.8
          units: km
      - name: Monticello
        distance:
          value: 11.28
          units: km
    - name: Benld
      region: IL
      lat: '39.0930'
      long: "-89.8023"
      closest_rate_centers:
      - name: Benld
        distance:
          value: 0.6
          units: km
      - name: Gillespie
        distance:
          value: 4.14
          units: km
      - name: Dorchester
        distance:
          value: 6.98
          units: km
    - name: Bensenville
      region: IL
      lat: '41.9579'
      long: "-87.9442"
      closest_rate_centers:
      - name: Bensenville
        distance:
          value: 0.52
          units: km
      - name: Itasca
        distance:
          value: 6.28
          units: km
      - name: Elmhurst
        distance:
          value: 6.31
          units: km
    - name: Benson
      region: IL
      lat: '40.8505'
      long: "-89.1211"
      closest_rate_centers:
      - name: Benson
        distance:
          value: 0.26
          units: km
      - name: Roanoke
        distance:
          value: 8.7
          units: km
      - name: Minonk
        distance:
          value: 9.18
          units: km
    - name: Bentley
      region: IL
      lat: '40.3440'
      long: "-91.1118"
      closest_rate_centers:
      - name: Basco
        distance:
          value: 7.32
          units: km
      - name: Carthage
        distance:
          value: 8.04
          units: km
      - name: Elvaston
        distance:
          value: 12.81
          units: km
    - name: Benton
      region: IL
      lat: '38.0109'
      long: "-88.9179"
      closest_rate_centers:
      - name: Benton
        distance:
          value: 0.72
          units: km
      - name: Ewing
        distance:
          value: 10.93
          units: km
      - name: West Frankfort
        distance:
          value: 11.89
          units: km
    - name: Berkeley
      region: IL
      lat: '41.8891'
      long: "-87.9115"
      closest_rate_centers:
      - name: Elmhurst
        distance:
          value: 2.92
          units: km
      - name: Bellwood
        distance:
          value: 3.99
          units: km
      - name: Hillside
        distance:
          value: 3.99
          units: km
      - name: Schiller Park
        distance:
          value: 6.15
          units: km
    - name: Berlin
      region: IL
      lat: '39.7569'
      long: "-89.9024"
      closest_rate_centers:
      - name: New Berlin
        distance:
          value: 3.69
          units: km
      - name: Loami
        distance:
          value: 10.69
          units: km
      - name: Alexander
        distance:
          value: 12.13
          units: km
    - name: Berwyn
      region: IL
      lat: '41.8433'
      long: "-87.7909"
      closest_rate_centers:
      - name: Berwyn
        distance:
          value: 0.87
          units: km
      - name: Riverside
        distance:
          value: 2.68
          units: km
      - name: Cicero
        distance:
          value: 3.23
          units: km
    - name: Bethalto
      region: IL
      lat: '38.9015'
      long: "-90.0466"
      closest_rate_centers:
      - name: Bethalto
        distance:
          value: 0.39
          units: km
      - name: Wood River
        distance:
          value: 6.1
          units: km
      - name: Alton
        distance:
          value: 11.8
          units: km
    - name: Bethany
      region: IL
      lat: '39.6443'
      long: "-88.7411"
      closest_rate_centers:
      - name: Bethany
        distance:
          value: 0.04
          units: km
      - name: Dalton City
        distance:
          value: 9.11
          units: km
      - name: Kirksville
        distance:
          value: 10.34
          units: km
    - name: Beverly
      region: IL
      lat: '39.7946'
      long: "-90.9900"
      closest_rate_centers:
      - name: Fishhook
        distance:
          value: 8.8
          units: km
      - name: Baylis
        distance:
          value: 10.18
          units: km
      - name: Barry
        distance:
          value: 12.32
          units: km
    - name: Big Foot Prairie
      region: IL
      lat: '42.4915'
      long: "-88.6007"
      closest_rate_centers:
      - name: Harvard
        distance:
          value: 7.78
          units: km
      - name: South Sharon
        distance:
          value: 10.44
          units: km
      - name: Hebron
        distance:
          value: 13.88
          units: km
    - name: Big Rock
      region: IL
      lat: '41.7668'
      long: "-88.5265"
      closest_rate_centers:
      - name: Big Rock
        distance:
          value: 1.4
          units: km
      - name: Sugar Grove
        distance:
          value: 6.37
          units: km
      - name: Kaneville
        distance:
          value: 7.78
          units: km
    - name: Biggsville
      region: IL
      lat: '40.8536'
      long: "-90.8621"
      closest_rate_centers:
      - name: Biggsville
        distance:
          value: 0.15
          units: km
      - name: Kirkwood
        distance:
          value: 9.33
          units: km
      - name: Smithshire
        distance:
          value: 9.63
          units: km
    - name: Bingham
      region: IL
      lat: '39.1122'
      long: "-89.2137"
      closest_rate_centers:
      - name: Fillmore
        distance:
          value: 5.3
          units: km
      - name: Ramsey
        distance:
          value: 9.48
          units: km
      - name: Coffeen
        distance:
          value: 15.98
          units: km
    - name: Bishop Hill
      region: IL
      lat: '41.1998'
      long: "-90.1175"
      closest_rate_centers:
      - name: Bishop Hill
        distance:
          value: 0.35
          units: km
      - name: Galva
        distance:
          value: 7.56
          units: km
      - name: Altona
        distance:
          value: 10.49
          units: km
    - name: Bismarck
      region: IL
      lat: '40.2594'
      long: "-87.6112"
      closest_rate_centers:
      - name: Bismarck
        distance:
          value: 0.41
          units: km
      - name: Alvin
        distance:
          value: 5.43
          units: km
      - name: Henning
        distance:
          value: 9.07
          units: km
    - name: Blairsville
      region: IL
      lat: '37.8107'
      long: "-89.1239"
      closest_rate_centers:
      - name: Hurst
        distance:
          value: 3.35
          units: km
      - name: Carterville
        distance:
          value: 6.26
          units: km
      - name: Royalton
        distance:
          value: 7.56
          units: km
    - name: Blandinsville
      region: IL
      lat: '40.5540'
      long: "-90.8683"
      closest_rate_centers:
      - name: Blandinsville
        distance:
          value: 0.29
          units: km
      - name: La Harpe
        distance:
          value: 9.06
          units: km
      - name: Fountain Green
        distance:
          value: 12.19
          units: km
    - name: Bloomfield
      region: IL
      lat: '40.0174'
      long: "-91.3028"
      closest_rate_centers:
      - name: Fowler
        distance:
          value: 3.57
          units: km
      - name: Mendon
        distance:
          value: 8.05
          units: km
      - name: Ursa
        distance:
          value: 8.6
          units: km
    - name: Bloomingdale
      region: IL
      lat: '41.9497'
      long: "-88.0895"
      closest_rate_centers:
      - name: Roselle
        distance:
          value: 3.8
          units: km
      - name: Schaumburg
        distance:
          value: 3.8
          units: km
      - name: Willowcrest
        distance:
          value: 3.8
          units: km
      - name: Itasca
        distance:
          value: 6.47
          units: km
      - name: Glen Ellyn
        distance:
          value: 8.43
          units: km
    - name: Bloomington
      region: IL
      lat: '40.4757'
      long: "-88.9703"
      closest_rate_centers:
      - name: Bloomington
        distance:
          value: 2.23
          units: km
      - name: Towanda
        distance:
          value: 11.51
          units: km
      - name: Downs
        distance:
          value: 12.21
          units: km
    - name: Blue Island
      region: IL
      lat: '41.6578'
      long: "-87.6811"
      closest_rate_centers:
      - name: Blue Island
        distance:
          value: 0.32
          units: km
      - name: Riverdale
        distance:
          value: 5.51
          units: km
      - name: Harvey
        distance:
          value: 5.58
          units: km
    - name: Blue Mound
      region: IL
      lat: '39.7004'
      long: "-89.1185"
      closest_rate_centers:
      - name: Blue Mound
        distance:
          value: 0.46
          units: km
      - name: Stonington
        distance:
          value: 9.45
          units: km
      - name: Macon
        distance:
          value: 10.35
          units: km
    - name: Bluffs
      region: IL
      lat: '39.7494'
      long: "-90.5352"
      closest_rate_centers:
      - name: Bluffs
        distance:
          value: 0.32
          units: km
      - name: Meredosia
        distance:
          value: 8.73
          units: km
      - name: Chapin
        distance:
          value: 11.41
          units: km
    - name: Bluford
      region: IL
      lat: '38.3257'
      long: "-88.7350"
      closest_rate_centers:
      - name: Bluford
        distance:
          value: 0.93
          units: km
      - name: Belle Rive
        distance:
          value: 10.52
          units: km
      - name: Harmony (Jefferson)
        distance:
          value: 10.61
          units: km
    - name: Bolingbrook
      region: IL
      lat: '41.6901'
      long: "-88.1021"
      closest_rate_centers:
      - name: Lemont
        distance:
          value: 9.7
          units: km
      - name: Lemont North
        distance:
          value: 9.7
          units: km
      - name: Bolingbrook
        distance:
          value: 9.7
          units: km
      - name: Naperville
        distance:
          value: 10.17
          units: km
      - name: Naperville Northeast
        distance:
          value: 10.17
          units: km
      - name: Lockport
        distance:
          value: 11.99
          units: km
      - name: Romeoville
        distance:
          value: 11.99
          units: km
    - name: Bondville
      region: IL
      lat: '40.1115'
      long: "-88.3682"
      closest_rate_centers:
      - name: Bondville
        distance:
          value: 0.28
          units: km
      - name: Seymour
        distance:
          value: 5.02
          units: km
      - name: Mahomet
        distance:
          value: 9.92
          units: km
    - name: Bone Gap
      region: IL
      lat: '38.4449'
      long: "-87.9976"
      closest_rate_centers:
      - name: Browns
        distance:
          value: 7.92
          units: km
      - name: West Salem
        distance:
          value: 8.66
          units: km
      - name: Albion
        distance:
          value: 9.09
          units: km
    - name: Bonfield
      region: IL
      lat: '41.1450'
      long: "-88.0542"
      closest_rate_centers:
      - name: Herscher
        distance:
          value: 11.3
          units: km
      - name: Kankakee
        distance:
          value: 16.29
          units: km
      - name: Reddick
        distance:
          value: 17.12
          units: km
    - name: Bonnie
      region: IL
      lat: '38.2030'
      long: "-88.9068"
      closest_rate_centers:
      - name: Ina
        distance:
          value: 5.7
          units: km
      - name: Waltonville
        distance:
          value: 11.85
          units: km
      - name: Mount Vernon
        distance:
          value: 12.22
          units: km
    - name: Bonnie Brae
      region: IL
      lat: '41.5999'
      long: "-88.0343"
      closest_rate_centers:
      - name: Romeoville
        distance:
          value: 1.89
          units: km
      - name: Lockport
        distance:
          value: 1.89
          units: km
      - name: Lemont North
        distance:
          value: 8.52
          units: km
      - name: Lemont
        distance:
          value: 8.52
          units: km
      - name: Bolingbrook
        distance:
          value: 8.52
          units: km
      - name: Joliet
        distance:
          value: 8.93
          units: km
      - name: Joliet West
        distance:
          value: 8.93
          units: km
    - name: Boody
      region: IL
      lat: '39.7644'
      long: "-89.0467"
      closest_rate_centers:
      - name: Elwin
        distance:
          value: 6.08
          units: km
      - name: Macon
        distance:
          value: 7.36
          units: km
      - name: Blue Mound
        distance:
          value: 9.52
          units: km
    - name: Boulder Hill
      region: IL
      lat: '41.7113'
      long: "-88.3353"
      closest_rate_centers:
      - name: Oswego
        distance:
          value: 3.59
          units: km
      - name: Aurora East
        distance:
          value: 5.21
          units: km
      - name: Aurora
        distance:
          value: 5.21
          units: km
      - name: Sugar Grove
        distance:
          value: 11.04
          units: km
    - name: Bourbonnais
      region: IL
      lat: '41.1830'
      long: "-87.8784"
      closest_rate_centers:
      - name: Kankakee
        distance:
          value: 6.95
          units: km
      - name: Manteno
        distance:
          value: 8.48
          units: km
      - name: Peotone
        distance:
          value: 17.76
          units: km
    - name: Bowen
      region: IL
      lat: '40.2321'
      long: "-91.0633"
      closest_rate_centers:
      - name: Bowen
        distance:
          value: 0.12
          units: km
      - name: Augusta
        distance:
          value: 10.32
          units: km
      - name: Plymouth
        distance:
          value: 13.59
          units: km
    - name: Braceville
      region: IL
      lat: '41.2280'
      long: "-88.2464"
      closest_rate_centers:
      - name: Braidwood
        distance:
          value: 4.61
          units: km
      - name: Gardner
        distance:
          value: 7.03
          units: km
      - name: Coal City
        distance:
          value: 7.08
          units: km
    - name: Bradford
      region: IL
      lat: '41.1772'
      long: "-89.6583"
      closest_rate_centers:
      - name: Bradford
        distance:
          value: 0.5
          units: km
      - name: Castleton
        distance:
          value: 7.57
          units: km
      - name: Campgrove
        distance:
          value: 11.27
          units: km
    - name: Bradley
      region: IL
      lat: '41.1641'
      long: "-87.8452"
      closest_rate_centers:
      - name: Kankakee
        distance:
          value: 4.92
          units: km
      - name: Manteno
        distance:
          value: 9.74
          units: km
      - name: Momence
        distance:
          value: 15.38
          units: km
      - name: Hopkins Park
        distance:
          value: 15.38
          units: km
    - name: Braidwood
      region: IL
      lat: '41.2695'
      long: "-88.2235"
      closest_rate_centers:
      - name: Braidwood
        distance:
          value: 0.87
          units: km
      - name: Coal City
        distance:
          value: 5.39
          units: km
      - name: Wilmington
        distance:
          value: 7.81
          units: km
    - name: Breese
      region: IL
      lat: '38.6138'
      long: "-89.5230"
      closest_rate_centers:
      - name: Breese
        distance:
          value: 0.24
          units: km
      - name: Germantown
        distance:
          value: 6.52
          units: km
      - name: Aviston
        distance:
          value: 7.04
          units: km
    - name: Bridgeport
      region: IL
      lat: '38.7096'
      long: "-87.7590"
      closest_rate_centers:
      - name: Bridgeport
        distance:
          value: 0.37
          units: km
      - name: Lawrenceville
        distance:
          value: 7.05
          units: km
      - name: Sumner
        distance:
          value: 8.83
          units: km
    - name: Bridgeview
      region: IL
      lat: '41.7403'
      long: "-87.8067"
      closest_rate_centers:
      - name: Summit
        distance:
          value: 3.88
          units: km
      - name: Oak Lawn
        distance:
          value: 5.11
          units: km
      - name: Hickory Hills
        distance:
          value: 5.11
          units: km
      - name: Willow Springs
        distance:
          value: 5.67
          units: km
    - name: Brighton
      region: IL
      lat: '39.0406'
      long: "-90.1408"
      closest_rate_centers:
      - name: Brighton
        distance:
          value: 0.13
          units: km
      - name: Woodburn
        distance:
          value: 11.18
          units: km
      - name: Shipman
        distance:
          value: 11.73
          units: km
    - name: Brimfield
      region: IL
      lat: '40.8379'
      long: "-89.8827"
      closest_rate_centers:
      - name: Brimfield
        distance:
          value: 0.26
          units: km
      - name: Elmwood
        distance:
          value: 9.94
          units: km
      - name: Yates City
        distance:
          value: 12.38
          units: km
    - name: Broadlands
      region: IL
      lat: '39.9087'
      long: "-87.9971"
      closest_rate_centers:
      - name: Broadlands
        distance:
          value: 0.38
          units: km
      - name: Newman
        distance:
          value: 11.6
          units: km
      - name: Sidell
        distance:
          value: 14.43
          units: km
    - name: Broadview
      region: IL
      lat: '41.8583'
      long: "-87.8562"
      closest_rate_centers:
      - name: Bellwood
        distance:
          value: 3.07
          units: km
      - name: Hillside
        distance:
          value: 3.07
          units: km
      - name: Maywood
        distance:
          value: 3.4
          units: km
      - name: Brookfield
        distance:
          value: 4.21
          units: km
    - name: Broadwell
      region: IL
      lat: '40.0668'
      long: "-89.4429"
      closest_rate_centers:
      - name: Elkhart
        distance:
          value: 6.29
          units: km
      - name: Lincoln
        distance:
          value: 11.34
          units: km
      - name: Middletown-New Holland
        distance:
          value: 14.12
          units: km
    - name: Brocton
      region: IL
      lat: '39.7154'
      long: "-87.9336"
      closest_rate_centers:
      - name: Brocton
        distance:
          value: 0.62
          units: km
      - name: Redmon
        distance:
          value: 9.81
          units: km
      - name: Oakland
        distance:
          value: 10.43
          units: km
    - name: Brookfield
      region: IL
      lat: '41.8245'
      long: "-87.8470"
      closest_rate_centers:
      - name: Brookfield
        distance:
          value: 0.38
          units: km
      - name: La Grange
        distance:
          value: 2.27
          units: km
      - name: Riverside
        distance:
          value: 2.46
          units: km
    - name: Brooklyn
      region: IL
      lat: '38.6542'
      long: "-90.1679"
      closest_rate_centers:
      - name: East St Louis
        distance:
          value: 3.43
          units: km
      - name: Granite City
        distance:
          value: 5.6
          units: km
      - name: Edgemont
        distance:
          value: 11.0
          units: km
    - name: Brookport
      region: IL
      lat: '37.1261'
      long: "-88.6276"
      closest_rate_centers:
      - name: Brookport
        distance:
          value: 0.5
          units: km
      - name: Metropolis
        distance:
          value: 9.73
          units: km
      - name: Joppa
        distance:
          value: 21.42
          units: km
    - name: Broughton
      region: IL
      lat: '37.9345'
      long: "-88.4624"
      closest_rate_centers:
      - name: Broughton
        distance:
          value: 0.11
          units: km
      - name: Dale
        distance:
          value: 7.4
          units: km
      - name: Eldorado
        distance:
          value: 12.42
          units: km
    - name: Browning
      region: IL
      lat: '40.1270'
      long: "-90.3730"
      closest_rate_centers:
      - name: Astoria
        distance:
          value: 11.62
          units: km
      - name: Beardstown
        distance:
          value: 13.21
          units: km
      - name: Rushville
        distance:
          value: 15.89
          units: km
    - name: Browns
      region: IL
      lat: '38.3775'
      long: "-87.9831"
      closest_rate_centers:
      - name: Browns
        distance:
          value: 0.61
          units: km
      - name: Albion
        distance:
          value: 6.27
          units: km
      - name: Bellmont (Wabash)
        distance:
          value: 6.34
          units: km
    - name: Brownstown
      region: IL
      lat: '38.9942'
      long: "-88.9554"
      closest_rate_centers:
      - name: Brownstown
        distance:
          value: 0.55
          units: km
      - name: Sefton
        distance:
          value: 8.12
          units: km
      - name: St Elmo
        distance:
          value: 9.94
          units: km
    - name: Brussels
      region: IL
      lat: '38.9483'
      long: "-90.5887"
      closest_rate_centers:
      - name: Brussels
        distance:
          value: 0.26
          units: km
      - name: Batchtown
        distance:
          value: 11.05
          units: km
      - name: Grafton
        distance:
          value: 13.71
          units: km
    - name: Bryant
      region: IL
      lat: '40.4655'
      long: "-90.0948"
      closest_rate_centers:
      - name: Lewistown
        distance:
          value: 8.7
          units: km
      - name: Cuba
        distance:
          value: 8.92
          units: km
      - name: Canton
        distance:
          value: 11.93
          units: km
    - name: Buckingham
      region: IL
      lat: '41.0467'
      long: "-88.1749"
      closest_rate_centers:
      - name: Cabery
        distance:
          value: 6.03
          units: km
      - name: Herscher
        distance:
          value: 6.44
          units: km
      - name: Reddick
        distance:
          value: 8.47
          units: km
    - name: Buckley
      region: IL
      lat: '40.5973'
      long: "-88.0378"
      closest_rate_centers:
      - name: Buckley
        distance:
          value: 0.28
          units: km
      - name: Loda
        distance:
          value: 9.37
          units: km
      - name: Thawville
        distance:
          value: 11.2
          units: km
    - name: Buckner
      region: IL
      lat: '37.9807'
      long: "-89.0152"
      closest_rate_centers:
      - name: Christopher
        distance:
          value: 3.74
          units: km
      - name: Zeigler
        distance:
          value: 8.99
          units: km
      - name: Benton
        distance:
          value: 9.28
          units: km
    - name: Buda
      region: IL
      lat: '41.3290'
      long: "-89.6793"
      closest_rate_centers:
      - name: Buda
        distance:
          value: 0.73
          units: km
      - name: Sheffield
        distance:
          value: 6.11
          units: km
      - name: Wyanet
        distance:
          value: 8.54
          units: km
    - name: Buffalo
      region: IL
      lat: '39.8499'
      long: "-89.4091"
      closest_rate_centers:
      - name: Buffalo
        distance:
          value: 0.17
          units: km
      - name: Riverton
        distance:
          value: 11.22
          units: km
      - name: Illiopolis
        distance:
          value: 14.52
          units: km
    - name: Buffalo Grove
      region: IL
      lat: '42.1675'
      long: "-87.9615"
      closest_rate_centers:
      - name: Half Day
        distance:
          value: 3.49
          units: km
      - name: Wheeling
        distance:
          value: 5.06
          units: km
      - name: Arlington Heights
        distance:
          value: 8.85
          units: km
    - name: Buffalo Prairie
      region: IL
      lat: '41.3408'
      long: "-90.8482"
      closest_rate_centers:
      - name: Illinois City
        distance:
          value: 7.55
          units: km
      - name: Edgington
        distance:
          value: 8.73
          units: km
      - name: Eliza
        distance:
          value: 10.91
          units: km
    - name: Bull Valley
      region: IL
      lat: '42.3227'
      long: "-88.3633"
      closest_rate_centers:
      - name: Woodstock
        distance:
          value: 7.08
          units: km
      - name: Wonder Lake
        distance:
          value: 7.77
          units: km
      - name: McHenry
        distance:
          value: 7.91
          units: km
    - name: Bulpitt
      region: IL
      lat: '39.5919'
      long: "-89.4258"
      closest_rate_centers:
      - name: Kincaid
        distance:
          value: 0.79
          units: km
      - name: Edinburg
        distance:
          value: 8.34
          units: km
      - name: Taylorville
        distance:
          value: 12.52
          units: km
    - name: Buncombe
      region: IL
      lat: '37.4713'
      long: "-88.9747"
      closest_rate_centers:
      - name: Vienna
        distance:
          value: 8.86
          units: km
      - name: Goreville
        distance:
          value: 9.34
          units: km
      - name: Cypress
        distance:
          value: 12.13
          units: km
    - name: Bunker Hill
      region: IL
      lat: '39.0416'
      long: "-89.9511"
      closest_rate_centers:
      - name: Bunker Hill
        distance:
          value: 0.25
          units: km
      - name: Woodburn
        distance:
          value: 5.24
          units: km
      - name: Dorchester
        distance:
          value: 7.56
          units: km
    - name: Burbank
      region: IL
      lat: '41.7444'
      long: "-87.7686"
      closest_rate_centers:
      - name: Oak Lawn
        distance:
          value: 3.03
          units: km
      - name: Hickory Hills
        distance:
          value: 3.03
          units: km
      - name: Summit
        distance:
          value: 4.82
          units: km
      - name: Willow Springs
        distance:
          value: 8.86
          units: km
    - name: Burlington
      region: IL
      lat: '42.0416'
      long: "-88.5508"
      closest_rate_centers:
      - name: Hampshire
        distance:
          value: 6.67
          units: km
      - name: Plato Center
        distance:
          value: 10.12
          units: km
      - name: Sycamore
        distance:
          value: 12.96
          units: km
    - name: Burnham
      region: IL
      lat: '41.6375'
      long: "-87.5447"
      closest_rate_centers:
      - name: Calumet City
        distance:
          value: 2.44
          units: km
      - name: Riverdale
        distance:
          value: 6.06
          units: km
      - name: Lansing
        distance:
          value: 7.95
          units: km
    - name: Burnt Prairie
      region: IL
      lat: '38.2509'
      long: "-88.2585"
      closest_rate_centers:
      - name: Burnt Prairie
        distance:
          value: 0.53
          units: km
      - name: Fairfield
        distance:
          value: 16.88
          units: km
      - name: Enfield
        distance:
          value: 17.92
          units: km
    - name: Burr Ridge
      region: IL
      lat: '41.7485'
      long: "-87.9200"
      closest_rate_centers:
      - name: Willow Springs
        distance:
          value: 4.17
          units: km
      - name: Oak Brook
        distance:
          value: 6.7
          units: km
      - name: Hinsdale
        distance:
          value: 6.7
          units: km
      - name: Western Springs
        distance:
          value: 7.07
          units: km
    - name: Burton
      region: IL
      lat: '39.9079'
      long: "-91.2492"
      closest_rate_centers:
      - name: Burton
        distance:
          value: 0.66
          units: km
      - name: Payson
        distance:
          value: 10.09
          units: km
      - name: Fowler
        distance:
          value: 11.33
          units: km
    - name: Burtons Bridge
      region: IL
      lat: '42.2781'
      long: "-88.2305"
      closest_rate_centers:
      - name: Cary
        distance:
          value: 7.32
          units: km
      - name: McHenry
        distance:
          value: 8.0
          units: km
      - name: Wauconda
        distance:
          value: 8.02
          units: km
    - name: Bush
      region: IL
      lat: '37.8427'
      long: "-89.1295"
      closest_rate_centers:
      - name: Hurst
        distance:
          value: 1.75
          units: km
      - name: Royalton
        distance:
          value: 4.21
          units: km
      - name: De Soto
        distance:
          value: 9.28
          units: km
    - name: Bushnell
      region: IL
      lat: '40.5518'
      long: "-90.5046"
      closest_rate_centers:
      - name: Bushnell
        distance:
          value: 0.65
          units: km
      - name: Bardolph
        distance:
          value: 8.22
          units: km
      - name: Prairie City
        distance:
          value: 9.02
          units: km
    - name: Butler
      region: IL
      lat: '39.1975'
      long: "-89.5322"
      closest_rate_centers:
      - name: Hillsboro
        distance:
          value: 5.63
          units: km
      - name: Litchfield
        distance:
          value: 10.34
          units: km
      - name: Irving
        distance:
          value: 11.08
          units: km
    - name: Byron
      region: IL
      lat: '42.1223'
      long: "-89.2665"
      closest_rate_centers:
      - name: Byron
        distance:
          value: 1.12
          units: km
      - name: Stillman Valley
        distance:
          value: 7.41
          units: km
      - name: Leaf River
        distance:
          value: 11.37
          units: km
    - name: Cabery
      region: IL
      lat: '40.9958'
      long: "-88.2037"
      closest_rate_centers:
      - name: Cabery
        distance:
          value: 0.12
          units: km
      - name: Stelle
        distance:
          value: 6.61
          units: km
      - name: Kempton
        distance:
          value: 7.14
          units: km
    - name: Cable
      region: IL
      lat: '41.2798'
      long: "-90.5056"
      closest_rate_centers:
      - name: Sherrard
        distance:
          value: 4.58
          units: km
      - name: Preemption
        distance:
          value: 7.32
          units: km
      - name: Matherville
        distance:
          value: 8.32
          units: km
    - name: Cahokia Heights
      region: IL
      lat: '38.5710'
      long: "-90.1525"
      closest_rate_centers:
      - name: East St Louis
        distance:
          value: 5.92
          units: km
      - name: Edgemont
        distance:
          value: 7.75
          units: km
      - name: Dupo
        distance:
          value: 8.13
          units: km
    - name: Cairo
      region: IL
      lat: '37.0062'
      long: "-89.1819"
      closest_rate_centers:
      - name: Cairo
        distance:
          value: 0.89
          units: km
      - name: Mound City
        distance:
          value: 9.41
          units: km
      - name: Mounds
        distance:
          value: 12.33
          units: km
    - name: Caledonia
      region: IL
      lat: '42.3686'
      long: "-88.8939"
      closest_rate_centers:
      - name: Rock Cut
        distance:
          value: 5.44
          units: km
      - name: Poplar Grove
        distance:
          value: 6.12
          units: km
      - name: Roscoe
        distance:
          value: 10.85
          units: km
    - name: Calhoun
      region: IL
      lat: '38.6512'
      long: "-88.0440"
      closest_rate_centers:
      - name: Calhoun
        distance:
          value: 0.59
          units: km
      - name: Parkersburg
        distance:
          value: 6.92
          units: km
      - name: Olney
        distance:
          value: 9.97
          units: km
    - name: Calumet City
      region: IL
      lat: '41.6134'
      long: "-87.5505"
      closest_rate_centers:
      - name: Calumet City
        distance:
          value: 1.53
          units: km
      - name: Lansing
        distance:
          value: 5.26
          units: km
      - name: Riverdale
        distance:
          value: 6.58
          units: km
    - name: Calumet Park
      region: IL
      lat: '41.6650'
      long: "-87.6577"
      closest_rate_centers:
      - name: Blue Island
        distance:
          value: 2.11
          units: km
      - name: Riverdale
        distance:
          value: 4.01
          units: km
      - name: Harvey
        distance:
          value: 5.61
          units: km
    - name: Camargo
      region: IL
      lat: '39.7991'
      long: "-88.1671"
      closest_rate_centers:
      - name: Villa Grove
        distance:
          value: 5.71
          units: km
      - name: Tuscola
        distance:
          value: 9.39
          units: km
      - name: Newman
        distance:
          value: 15.26
          units: km
    - name: Cambria
      region: IL
      lat: '37.7793'
      long: "-89.1189"
      closest_rate_centers:
      - name: Carterville
        distance:
          value: 3.71
          units: km
      - name: Hurst
        distance:
          value: 6.65
          units: km
      - name: Herrin
        distance:
          value: 8.23
          units: km
    - name: Cambridge
      region: IL
      lat: '41.2984'
      long: "-90.1907"
      closest_rate_centers:
      - name: Cambridge
        distance:
          value: 1.06
          units: km
      - name: Andover (Cambridge Telephone)
        distance:
          value: 8.19
          units: km
      - name: Andover
        distance:
          value: 8.19
          units: km
      - name: Osco
        distance:
          value: 9.33
          units: km
    - name: Camden
      region: IL
      lat: '40.1529'
      long: "-90.7733"
      closest_rate_centers:
      - name: Mindale
        distance:
          value: 5.63
          units: km
      - name: Littleton
        distance:
          value: 15.87
          units: km
      - name: Augusta
        distance:
          value: 16.94
          units: km
    - name: Cameron
      region: IL
      lat: '40.8875'
      long: "-90.5164"
      closest_rate_centers:
      - name: Cameron
        distance:
          value: 0.18
          units: km
      - name: Monmouth
        distance:
          value: 11.11
          units: km
      - name: Abingdon
        distance:
          value: 13.58
          units: km
    - name: Camp Point
      region: IL
      lat: '40.0383'
      long: "-91.0664"
      closest_rate_centers:
      - name: Camp Point
        distance:
          value: 0.73
          units: km
      - name: Coatsburg
        distance:
          value: 8.07
          units: km
      - name: Columbus
        distance:
          value: 8.56
          units: km
    - name: Campbell Hill
      region: IL
      lat: '37.9305'
      long: "-89.5515"
      closest_rate_centers:
      - name: Ava
        distance:
          value: 6.64
          units: km
      - name: Percy
        distance:
          value: 11.21
          units: km
      - name: Steeleville
        distance:
          value: 12.94
          units: km
    - name: Campbell's Island
      region: IL
      lat: '41.5407'
      long: "-90.4300"
      closest_rate_centers:
      - name: East Moline
        distance:
          value: 2.99
          units: km
      - name: Hampton
        distance:
          value: 3.95
          units: km
      - name: Moline
        distance:
          value: 8.11
          units: km
    - name: Campton Hills
      region: IL
      lat: '41.9498'
      long: "-88.4166"
      closest_rate_centers:
      - name: Elburn
        distance:
          value: 7.65
          units: km
      - name: Plato Center
        distance:
          value: 8.94
          units: km
      - name: St Charles
        distance:
          value: 9.23
          units: km
    - name: Campus
      region: IL
      lat: '41.0247'
      long: "-88.3072"
      closest_rate_centers:
      - name: Campus
        distance:
          value: 0.22
          units: km
      - name: Emington
        distance:
          value: 7.54
          units: km
      - name: Cabery
        distance:
          value: 9.29
          units: km
    - name: Candlewick Lake
      region: IL
      lat: '42.3525'
      long: "-88.8694"
      closest_rate_centers:
      - name: Poplar Grove
        distance:
          value: 4.46
          units: km
      - name: Rock Cut
        distance:
          value: 6.89
          units: km
      - name: Belvidere
        distance:
          value: 10.9
          units: km
    - name: Canton
      region: IL
      lat: '40.5632'
      long: "-90.0409"
      closest_rate_centers:
      - name: Canton
        distance:
          value: 1.0
          units: km
      - name: Fiatt
        distance:
          value: 11.58
          units: km
      - name: Fairview (Fulton)
        distance:
          value: 13.08
          units: km
    - name: Cantrall
      region: IL
      lat: '39.9353'
      long: "-89.6788"
      closest_rate_centers:
      - name: Cantrall
        distance:
          value: 0.04
          units: km
      - name: Athens
        distance:
          value: 5.2
          units: km
      - name: Sherman
        distance:
          value: 8.22
          units: km
    - name: Capron
      region: IL
      lat: '42.3986'
      long: "-88.7394"
      closest_rate_centers:
      - name: Capron
        distance:
          value: 0.24
          units: km
      - name: Poplar Grove
        distance:
          value: 7.4
          units: km
      - name: South Sharon
        distance:
          value: 10.09
          units: km
    - name: Carbon Cliff
      region: IL
      lat: '41.4981'
      long: "-90.3917"
      closest_rate_centers:
      - name: East Moline
        distance:
          value: 4.64
          units: km
      - name: Hampton
        distance:
          value: 6.57
          units: km
      - name: Green River
        distance:
          value: 6.62
          units: km
    - name: Carbon Hill
      region: IL
      lat: '41.2970'
      long: "-88.2999"
      closest_rate_centers:
      - name: Coal City
        distance:
          value: 1.86
          units: km
      - name: Braidwood
        distance:
          value: 7.86
          units: km
      - name: Mazon
        distance:
          value: 11.9
          units: km
    - name: Carbondale
      region: IL
      lat: '37.7221'
      long: "-89.2237"
      closest_rate_centers:
      - name: Carbondale
        distance:
          value: 0.91
          units: km
      - name: De Soto
        distance:
          value: 10.52
          units: km
      - name: Murphysboro
        distance:
          value: 11.32
          units: km
    - name: Carlinville
      region: IL
      lat: '39.2775'
      long: "-89.8762"
      closest_rate_centers:
      - name: Carlinville
        distance:
          value: 0.6
          units: km
      - name: Hettick
        distance:
          value: 16.48
          units: km
      - name: Chesterfield-Rockbridge
        distance:
          value: 16.48
          units: km
    - name: Carlock
      region: IL
      lat: '40.5835'
      long: "-89.1288"
      closest_rate_centers:
      - name: Carlock
        distance:
          value: 0.76
          units: km
      - name: Congerville
        distance:
          value: 7.26
          units: km
      - name: Danvers
        distance:
          value: 7.96
          units: km
    - name: Carlyle
      region: IL
      lat: '38.6217'
      long: "-89.3734"
      closest_rate_centers:
      - name: Carlyle
        distance:
          value: 1.13
          units: km
      - name: Beckemeyer
        distance:
          value: 5.66
          units: km
      - name: Bartelso
        distance:
          value: 12.29
          units: km
    - name: Carman
      region: IL
      lat: '40.7362'
      long: "-91.0617"
      closest_rate_centers:
      - name: Lomax
        distance:
          value: 6.42
          units: km
      - name: Gulfport
        distance:
          value: 8.6
          units: km
      - name: Stronghurst
        distance:
          value: 13.72
          units: km
    - name: Carmi
      region: IL
      lat: '38.0861'
      long: "-88.1722"
      closest_rate_centers:
      - name: Carmi
        distance:
          value: 1.07
          units: km
      - name: Maunie
        distance:
          value: 12.06
          units: km
      - name: Crossville
        distance:
          value: 12.43
          units: km
    - name: Carol Stream
      region: IL
      lat: '41.9181'
      long: "-88.1307"
      closest_rate_centers:
      - name: Wheaton
        distance:
          value: 6.09
          units: km
      - name: Glen Ellyn
        distance:
          value: 7.18
          units: km
      - name: West Chicago
        distance:
          value: 7.4
          units: km
    - name: Carpentersville
      region: IL
      lat: '42.1227'
      long: "-88.2896"
      closest_rate_centers:
      - name: Dundee
        distance:
          value: 2.78
          units: km
      - name: Poplar Creek
        distance:
          value: 2.78
          units: km
      - name: Algonquin
        distance:
          value: 5.07
          units: km
      - name: Elgin
        distance:
          value: 9.19
          units: km
    - name: Carrier Mills
      region: IL
      lat: '37.6886'
      long: "-88.6294"
      closest_rate_centers:
      - name: Carriers Mills
        distance:
          value: 0.33
          units: km
      - name: Harrisburg
        distance:
          value: 9.67
          units: km
      - name: Stonefort
        distance:
          value: 10.24
          units: km
    - name: Carrollton
      region: IL
      lat: '39.2948'
      long: "-90.4062"
      closest_rate_centers:
      - name: Carrollton
        distance:
          value: 0.66
          units: km
      - name: Eldred
        distance:
          value: 13.04
          units: km
      - name: White Hall
        distance:
          value: 16.04
          units: km
    - name: Carterville
      region: IL
      lat: '37.7630'
      long: "-89.0841"
      closest_rate_centers:
      - name: Carterville
        distance:
          value: 0.53
          units: km
      - name: Herrin
        distance:
          value: 6.52
          units: km
      - name: Hurst
        distance:
          value: 9.7
          units: km
    - name: Carthage
      region: IL
      lat: '40.4142'
      long: "-91.1276"
      closest_rate_centers:
      - name: Carthage
        distance:
          value: 0.66
          units: km
      - name: Ferris
        distance:
          value: 7.29
          units: km
      - name: Elvaston
        distance:
          value: 10.44
          units: km
    - name: Cary
      region: IL
      lat: '42.2129'
      long: "-88.2494"
      closest_rate_centers:
      - name: Cary
        distance:
          value: 0.39
          units: km
      - name: Algonquin
        distance:
          value: 5.99
          units: km
      - name: Crystal Lake
        distance:
          value: 6.8
          units: km
    - name: Casey
      region: IL
      lat: '39.3031'
      long: "-87.9897"
      closest_rate_centers:
      - name: Casey
        distance:
          value: 0.48
          units: km
      - name: Martinsville
        distance:
          value: 9.65
          units: km
      - name: Greenup
        distance:
          value: 15.65
          units: km
    - name: Caseyville
      region: IL
      lat: '38.6302'
      long: "-90.0339"
      closest_rate_centers:
      - name: Edgemont
        distance:
          value: 5.06
          units: km
      - name: Collinsville
        distance:
          value: 7.01
          units: km
      - name: East St Louis
        distance:
          value: 10.97
          units: km
    - name: Catlin
      region: IL
      lat: '40.0677'
      long: "-87.7080"
      closest_rate_centers:
      - name: Catlin
        distance:
          value: 0.15
          units: km
      - name: Westville
        distance:
          value: 6.19
          units: km
      - name: Oakwood
        distance:
          value: 8.32
          units: km
    - name: Cave-In-Rock
      region: IL
      lat: '37.4708'
      long: "-88.1659"
      closest_rate_centers:
      - name: Cave In Rock
        distance:
          value: 0.15
          units: km
      - name: Elizabethtown
        distance:
          value: 12.79
          units: km
      - name: Rosiclare
        distance:
          value: 17.02
          units: km
    - name: Cedar Point
      region: IL
      lat: '41.2651'
      long: "-89.1260"
      closest_rate_centers:
      - name: Cedar Point
        distance:
          value: 0.54
          units: km
      - name: Oglesby
        distance:
          value: 6.34
          units: km
      - name: Tonica
        distance:
          value: 6.99
          units: km
    - name: Cedarville
      region: IL
      lat: '42.3757'
      long: "-89.6362"
      closest_rate_centers:
      - name: Cedarville
        distance:
          value: 0.63
          units: km
      - name: Freeport
        distance:
          value: 9.2
          units: km
      - name: Dakota
        distance:
          value: 9.35
          units: km
    - name: Central City
      region: IL
      lat: '38.5484'
      long: "-89.1284"
      closest_rate_centers:
      - name: Centralia
        distance:
          value: 1.71
          units: km
      - name: Sandoval
        distance:
          value: 7.74
          units: km
      - name: Shattuc
        distance:
          value: 8.81
          units: km
    - name: Centralia
      region: IL
      lat: '38.5224'
      long: "-89.1232"
      closest_rate_centers:
      - name: Centralia
        distance:
          value: 1.34
          units: km
      - name: Irvington
        distance:
          value: 9.54
          units: km
      - name: Sandoval
        distance:
          value: 10.6
          units: km
    - name: Cerro Gordo
      region: IL
      lat: '39.8892'
      long: "-88.7346"
      closest_rate_centers:
      - name: Cerro Gordo
        distance:
          value: 0.44
          units: km
      - name: La Place
        distance:
          value: 10.27
          units: km
      - name: Oreana
        distance:
          value: 12.01
          units: km
    - name: Chadwick
      region: IL
      lat: '42.0142'
      long: "-89.8885"
      closest_rate_centers:
      - name: Chadwick
        distance:
          value: 0.37
          units: km
      - name: Milledgeville
        distance:
          value: 10.9
          units: km
      - name: Lanark
        distance:
          value: 10.99
          units: km
    - name: Champaign
      region: IL
      lat: '40.1142'
      long: "-88.2737"
      closest_rate_centers:
      - name: Champaign-Urbana
        distance:
          value: 2.25
          units: km
      - name: Bondville
        distance:
          value: 8.07
          units: km
      - name: Seymour
        distance:
          value: 13.06
          units: km
    - name: Chandlerville
      region: IL
      lat: '40.0470'
      long: "-90.1512"
      closest_rate_centers:
      - name: Chandlerville
        distance:
          value: 0.79
          units: km
      - name: Virginia
        distance:
          value: 12.08
          units: km
      - name: Bath
        distance:
          value: 16.44
          units: km
    - name: Channahon
      region: IL
      lat: '41.4210'
      long: "-88.2599"
      closest_rate_centers:
      - name: Minooka
        distance:
          value: 4.1
          units: km
      - name: Elwood
        distance:
          value: 12.46
          units: km
      - name: Coal City
        distance:
          value: 15.29
          units: km
    - name: Channel Lake
      region: IL
      lat: '42.4830'
      long: "-88.1491"
      closest_rate_centers:
      - name: Antioch
        distance:
          value: 4.23
          units: km
      - name: Spring Grove
        distance:
          value: 8.71
          units: km
      - name: Lake Villa
        distance:
          value: 9.21
          units: km
    - name: Chapin
      region: IL
      lat: '39.7669'
      long: "-90.4027"
      closest_rate_centers:
      - name: Chapin
        distance:
          value: 1.53
          units: km
      - name: Concord
        distance:
          value: 6.37
          units: km
      - name: Bluffs
        distance:
          value: 11.43
          units: km
    - name: Charleston
      region: IL
      lat: '39.4842'
      long: "-88.1781"
      closest_rate_centers:
      - name: Charleston
        distance:
          value: 1.12
          units: km
      - name: Ashmore
        distance:
          value: 14.16
          units: km
      - name: Westfield
        distance:
          value: 16.1
          units: km
    - name: Chatham
      region: IL
      lat: '39.6733'
      long: "-89.6934"
      closest_rate_centers:
      - name: Chatham
        distance:
          value: 0.69
          units: km
      - name: Auburn
        distance:
          value: 9.91
          units: km
      - name: Divernon
        distance:
          value: 12.71
          units: km
    - name: Chatsworth
      region: IL
      lat: '40.7293'
      long: "-88.2974"
      closest_rate_centers:
      - name: Chatsworth
        distance:
          value: 2.81
          units: km
      - name: Piper City
        distance:
          value: 9.52
          units: km
      - name: Forrest (Livingston)
        distance:
          value: 10.62
          units: km
    - name: Chebanse
      region: IL
      lat: '41.0057'
      long: "-87.9098"
      closest_rate_centers:
      - name: Chebanse
        distance:
          value: 0.1
          units: km
      - name: Clifton
        distance:
          value: 8.06
          units: km
      - name: Kankakee
        distance:
          value: 13.5
          units: km
    - name: Chemung
      region: IL
      lat: '42.4162'
      long: "-88.6641"
      closest_rate_centers:
      - name: Harvard
        distance:
          value: 4.69
          units: km
      - name: Capron
        distance:
          value: 6.56
          units: km
      - name: South Sharon
        distance:
          value: 9.64
          units: km
    - name: Chenoa
      region: IL
      lat: '40.7389'
      long: "-88.7259"
      closest_rate_centers:
      - name: Chenoa
        distance:
          value: 0.16
          units: km
      - name: Lexington
        distance:
          value: 11.72
          units: km
      - name: Gridley
        distance:
          value: 13.03
          units: km
    - name: Cherry
      region: IL
      lat: '41.4280'
      long: "-89.2132"
      closest_rate_centers:
      - name: Ladd
        distance:
          value: 5.42
          units: km
      - name: Spring Valley
        distance:
          value: 11.13
          units: km
      - name: La Moille
        distance:
          value: 12.99
          units: km
    - name: Cherry Valley
      region: IL
      lat: '42.2223'
      long: "-88.9715"
      closest_rate_centers:
      - name: Cherry Valley
        distance:
          value: 2.28
          units: km
      - name: New Milford
        distance:
          value: 8.89
          units: km
      - name: Belvidere
        distance:
          value: 11.4
          units: km
    - name: Chester
      region: IL
      lat: '37.9200'
      long: "-89.8260"
      closest_rate_centers:
      - name: Chester
        distance:
          value: 0.5
          units: km
      - name: Kaskaskia
        distance:
          value: 8.01
          units: km
      - name: Ellis Grove
        distance:
          value: 12.18
          units: km
    - name: Chesterfield
      region: IL
      lat: '39.2566'
      long: "-90.0668"
      closest_rate_centers:
      - name: Chesterfield-Rockbridge
        distance:
          value: 0.48
          units: km
      - name: Medora
        distance:
          value: 11.23
          units: km
      - name: Hettick
        distance:
          value: 11.32
          units: km
    - name: Chestnut
      region: IL
      lat: '40.0537'
      long: "-89.1871"
      closest_rate_centers:
      - name: Chestnut
        distance:
          value: 0.55
          units: km
      - name: Latham
        distance:
          value: 9.48
          units: km
      - name: Mount Pulaski
        distance:
          value: 9.85
          units: km
    - name: Chicago
      region: IL
      lat: '41.8375'
      long: "-87.6866"
      closest_rate_centers:
      - name: Cicero
        distance:
          value: 5.52
          units: km
      - name: Chicago Zone 01-Superior
        distance:
          value: 6.65
          units: km
      - name: Chicago Zone 07-Oakland
        distance:
          value: 6.65
          units: km
      - name: Chicago Zone 07-Hyde Park
        distance:
          value: 6.65
          units: km
      - name: Chicago Zone 06-Lawndale
        distance:
          value: 6.65
          units: km
      - name: Chicago Zone 06-Lafayette
        distance:
          value: 6.65
          units: km
      - name: Chicago Zone 01-Monroe
        distance:
          value: 6.65
          units: km
      - name: Chicago Zone 01-Lakeshore
        distance:
          value: 6.65
          units: km
      - name: Chicago Zone 01-Illinois Dearborn
        distance:
          value: 6.65
          units: km
      - name: Chicago Zone 01-Franklin
        distance:
          value: 6.65
          units: km
      - name: Chicago Zone 06-Kedzie
        distance:
          value: 6.65
          units: km
      - name: Chicago Zone 05-Merrimac
        distance:
          value: 6.65
          units: km
      - name: Chicago Zone 05-Austin
        distance:
          value: 6.65
          units: km
      - name: Chicago Zone 04-Lakeview
        distance:
          value: 6.65
          units: km
      - name: Chicago Zone 04-Humboldt
        distance:
          value: 6.65
          units: km
      - name: Chicago Zone 01-Calumet
        distance:
          value: 6.65
          units: km
      - name: Chicago Zone 01-Canal
        distance:
          value: 6.65
          units: km
      - name: Chicago Zone 03-Newcastle
        distance:
          value: 6.65
          units: km
      - name: Chicago Zone 03-Kildare
        distance:
          value: 6.65
          units: km
      - name: Chicago Zone 11-O'Hare
        distance:
          value: 6.65
          units: km
      - name: Chicago Zone 02-Rogers Park
        distance:
          value: 6.65
          units: km
      - name: Chicago Zone 10-Pullman
        distance:
          value: 6.65
          units: km
      - name: Chicago Zone 02-Irving
        distance:
          value: 6.65
          units: km
      - name: Chicago Zone 02-Edgewater
        distance:
          value: 6.65
          units: km
      - name: Chicago Zone 10-Beverly
        distance:
          value: 6.65
          units: km
      - name: Chicago Zone 09-South Chicago
        distance:
          value: 6.65
          units: km
      - name: Chicago Zone 01-Wabash
        distance:
          value: 6.65
          units: km
      - name: Chicago Zone 09-Mitchell
        distance:
          value: 6.65
          units: km
      - name: Chicago Zone 08-Prospect
        distance:
          value: 6.65
          units: km
      - name: Chicago Zone 08-Portsmouth
        distance:
          value: 6.65
          units: km
      - name: Chicago Zone 07-Stewart
        distance:
          value: 6.65
          units: km
      - name: Berwyn
        distance:
          value: 8.73
          units: km
    - name: Chicago Heights
      region: IL
      lat: '41.5100'
      long: "-87.6345"
      closest_rate_centers:
      - name: Chicago Heights East
        distance:
          value: 0.49
          units: km
      - name: Park Forest
        distance:
          value: 0.49
          units: km
      - name: Chicago Heights
        distance:
          value: 0.49
          units: km
      - name: Homewood
        distance:
          value: 6.07
          units: km
      - name: Thornton
        distance:
          value: 7.04
          units: km
    - name: Chicago Ridge
      region: IL
      lat: '41.7034'
      long: "-87.7795"
      closest_rate_centers:
      - name: Hickory Hills
        distance:
          value: 3.02
          units: km
      - name: Oak Lawn
        distance:
          value: 3.02
          units: km
      - name: Palos Park
        distance:
          value: 5.73
          units: km
      - name: Summit
        distance:
          value: 8.36
          units: km
    - name: Chillicothe
      region: IL
      lat: '40.9158'
      long: "-89.5020"
      closest_rate_centers:
      - name: Chillicothe
        distance:
          value: 1.03
          units: km
      - name: Spring Bay
        distance:
          value: 10.01
          units: km
      - name: Edelstein
        distance:
          value: 11.69
          units: km
    - name: Chrisman
      region: IL
      lat: '39.8044'
      long: "-87.6749"
      closest_rate_centers:
      - name: Chrisman
        distance:
          value: 0.35
          units: km
      - name: Ridge Farm
        distance:
          value: 10.57
          units: km
      - name: Metcalf
        distance:
          value: 11.56
          units: km
    - name: Christopher
      region: IL
      lat: '37.9707'
      long: "-89.0531"
      closest_rate_centers:
      - name: Christopher
        distance:
          value: 0.6
          units: km
      - name: Zeigler
        distance:
          value: 7.34
          units: km
      - name: Royalton
        distance:
          value: 11.54
          units: km
    - name: Cicero
      region: IL
      lat: '41.8445'
      long: "-87.7593"
      closest_rate_centers:
      - name: Cicero
        distance:
          value: 0.63
          units: km
      - name: Berwyn
        distance:
          value: 2.68
          units: km
      - name: Riverside
        distance:
          value: 5.14
          units: km
    - name: Cisco
      region: IL
      lat: '40.0117'
      long: "-88.7254"
      closest_rate_centers:
      - name: Cisco
        distance:
          value: 0.37
          units: km
      - name: Argenta
        distance:
          value: 8.54
          units: km
      - name: Weldon
        distance:
          value: 11.96
          units: km
    - name: Cisne
      region: IL
      lat: '38.5141'
      long: "-88.4371"
      closest_rate_centers:
      - name: Cisne
        distance:
          value: 0.53
          units: km
      - name: Geff
        distance:
          value: 8.35
          units: km
      - name: Crisp
        distance:
          value: 16.23
          units: km
    - name: Cissna Park
      region: IL
      lat: '40.5670'
      long: "-87.8922"
      closest_rate_centers:
      - name: Cissna Park
        distance:
          value: 0.57
          units: km
      - name: Rankin
        distance:
          value: 11.03
          units: km
      - name: Buckley
        distance:
          value: 13.03
          units: km
    - name: Claremont
      region: IL
      lat: '38.7176'
      long: "-87.9728"
      closest_rate_centers:
      - name: Claremont
        distance:
          value: 0.57
          units: km
      - name: Calhoun
        distance:
          value: 9.52
          units: km
      - name: Olney
        distance:
          value: 9.55
          units: km
    - name: Clarendon Hills
      region: IL
      lat: '41.7981'
      long: "-87.9568"
      closest_rate_centers:
      - name: Hinsdale
        distance:
          value: 2.32
          units: km
      - name: Oak Brook
        distance:
          value: 2.32
          units: km
      - name: Downers Grove
        distance:
          value: 3.52
          units: km
      - name: Western Springs
        distance:
          value: 5.17
          units: km
    - name: Clay City
      region: IL
      lat: '38.6858'
      long: "-88.3486"
      closest_rate_centers:
      - name: Clay City
        distance:
          value: 0.78
          units: km
      - name: Sailor Springs
        distance:
          value: 9.03
          units: km
      - name: Noble
        distance:
          value: 11.04
          units: km
    - name: Clayton
      region: IL
      lat: '40.0301'
      long: "-90.9580"
      closest_rate_centers:
      - name: Clayton
        distance:
