---
cities:
  us:
    IL:
    - name: Abingdon
      region: IL
      lat: '40.8038'
      long: "-90.4009"
    - name: Adair
      region: IL
      lat: '40.4183'
      long: "-90.4974"
    - name: Adams
      region: IL
      lat: '39.8708'
      long: "-91.1998"
    - name: Addieville
      region: IL
      lat: '38.3913'
      long: "-89.4865"
    - name: Addison
      region: IL
      lat: '41.9313'
      long: "-88.0085"
    - name: Adeline
      region: IL
      lat: '42.1406'
      long: "-89.4919"
    - name: Albany
      region: IL
      lat: '41.7861'
      long: "-90.2163"
    - name: Albers
      region: IL
      lat: '38.5452'
      long: "-89.6142"
    - name: Albion
      region: IL
      lat: '38.3766'
      long: "-88.0580"
    - name: Alden
      region: IL
      lat: '42.4588'
      long: "-88.5184"
    - name: Aledo
      region: IL
      lat: '41.1990'
      long: "-90.7459"
    - name: Alexander
      region: IL
      lat: '39.7218'
      long: "-90.0368"
    - name: Alexis
      region: IL
      lat: '41.0630'
      long: "-90.5555"
    - name: Algonquin
      region: IL
      lat: '42.1629'
      long: "-88.3159"
    - name: Alhambra
      region: IL
      lat: '38.8878'
      long: "-89.7362"
    - name: Allendale
      region: IL
      lat: '38.5276'
      long: "-87.7103"
    - name: Allenville
      region: IL
      lat: '39.5583'
      long: "-88.5387"
    - name: Allerton
      region: IL
      lat: '39.9161'
      long: "-87.9353"
    - name: Alma
      region: IL
      lat: '38.7229'
      long: "-88.9118"
    - name: Alpha
      region: IL
      lat: '41.1915'
      long: "-90.3805"
    - name: Alsey
      region: IL
      lat: '39.5592'
      long: "-90.4328"
    - name: Alsip
      region: IL
      lat: '41.6701'
      long: "-87.7368"
    - name: Altamont
      region: IL
      lat: '39.0566'
      long: "-88.7477"
    - name: Alto Pass
      region: IL
      lat: '37.5737'
      long: "-89.3192"
    - name: Alton
      region: IL
      lat: '38.9037'
      long: "-90.1520"
    - name: Altona
      region: IL
      lat: '41.1150'
      long: "-90.1648"
    - name: Alvan
      region: IL
      lat: '40.3070'
      long: "-87.6069"
    - name: Amboy
      region: IL
      lat: '41.7287'
      long: "-89.3685"
    - name: Anchor
      region: IL
      lat: '40.5681'
      long: "-88.5385"
    - name: Andalusia
      region: IL
      lat: '41.4372'
      long: "-90.7165"
    - name: Andover
      region: IL
      lat: '41.2949'
      long: "-90.2907"
    - name: Andres
      region: IL
      lat: '41.3711'
      long: "-87.8816"
    - name: Anna
      region: IL
      lat: '37.4612'
      long: "-89.2388"
    - name: Annapolis
      region: IL
      lat: '39.1431'
      long: "-87.8172"
    - name: Annawan
      region: IL
      lat: '41.3958'
      long: "-89.8882"
    - name: Antioch
      region: IL
      lat: '42.4742'
      long: "-88.0721"
    - name: Apple Canyon Lake
      region: IL
      lat: '42.4302'
      long: "-90.1642"
    - name: Apple River
      region: IL
      lat: '42.5022'
      long: "-90.0937"
    - name: Arbury Hills
      region: IL
      lat: '41.5353'
      long: "-87.8461"
    - name: Arcola
      region: IL
      lat: '39.6833'
      long: "-88.3013"
    - name: Arenzville
      region: IL
      lat: '39.8805'
      long: "-90.3706"
    - name: Argenta
      region: IL
      lat: '39.9855'
      long: "-88.8197"
    - name: Argyle
      region: IL
      lat: '42.3548'
      long: "-88.9392"
    - name: Arlington
      region: IL
      lat: '41.4716'
      long: "-89.2478"
    - name: Arlington Heights
      region: IL
      lat: '42.0955'
      long: "-87.9826"
    - name: Armington
      region: IL
      lat: '40.3397'
      long: "-89.3144"
    - name: Aroma Park
      region: IL
      lat: '41.0788'
      long: "-87.8011"
    - name: Arrowsmith
      region: IL
      lat: '40.4493'
      long: "-88.6321"
    - name: Arthur
      region: IL
      lat: '39.7144'
      long: "-88.4696"
    - name: Ashkum
      region: IL
      lat: '40.8783'
      long: "-87.9533"
    - name: Ashland
      region: IL
      lat: '39.8886'
      long: "-90.0078"
    - name: Ashley
      region: IL
      lat: '38.3288'
      long: "-89.1893"
    - name: Ashmore
      region: IL
      lat: '39.5306'
      long: "-88.0201"
    - name: Ashton
      region: IL
      lat: '41.8682'
      long: "-89.2225"
    - name: Assumption
      region: IL
      lat: '39.5180'
      long: "-89.0478"
    - name: Astoria
      region: IL
      lat: '40.2279'
      long: "-90.3565"
    - name: Athens
      region: IL
      lat: '39.9618'
      long: "-89.7217"
    - name: Atkinson
      region: IL
      lat: '41.4168'
      long: "-90.0087"
    - name: Atlanta
      region: IL
      lat: '40.2638'
      long: "-89.2309"
    - name: Atwood
      region: IL
      lat: '39.7992'
      long: "-88.4626"
    - name: Auburn
      region: IL
      lat: '39.5763'
      long: "-89.7440"
    - name: Augusta
      region: IL
      lat: '40.2307'
      long: "-90.9500"
    - name: Aurora
      region: IL
      lat: '41.7638'
      long: "-88.2902"
    - name: Ava
      region: IL
      lat: '37.8886'
      long: "-89.4965"
    - name: Aviston
      region: IL
      lat: '38.6162'
      long: "-89.6087"
    - name: Avon
      region: IL
      lat: '40.6620'
      long: "-90.4352"
    - name: Baileyville
      region: IL
      lat: '42.1984'
      long: "-89.5946"
    - name: Baldwin
      region: IL
      lat: '38.1838'
      long: "-89.8451"
    - name: Banner
      region: IL
      lat: '40.5126'
      long: "-89.9156"
    - name: Bannockburn
      region: IL
      lat: '42.1932'
      long: "-87.8695"
    - name: Bardolph
      region: IL
      lat: '40.4959'
      long: "-90.5631"
    - name: Barrington
      region: IL
      lat: '42.1515'
      long: "-88.1281"
    - name: Barrington Hills
      region: IL
      lat: '42.1399'
      long: "-88.2034"
    - name: Barry
      region: IL
      lat: '39.6982'
      long: "-91.0399"
    - name: Barstow
      region: IL
      lat: '41.5162'
      long: "-90.3566"
    - name: Bartelso
      region: IL
      lat: '38.5371'
      long: "-89.4672"
    - name: Bartlett
      region: IL
      lat: '41.9804'
      long: "-88.2071"
    - name: Bartonville
      region: IL
      lat: '40.6397'
      long: "-89.6607"
    - name: Basco
      region: IL
      lat: '40.3278'
      long: "-91.1996"
    - name: Batavia
      region: IL
      lat: '41.8479'
      long: "-88.3109"
    - name: Batchtown
      region: IL
      lat: '39.0331'
      long: "-90.6533"
    - name: Bath
      region: IL
      lat: '40.1905'
      long: "-90.1425"
    - name: Bay View Gardens
      region: IL
      lat: '40.8102'
      long: "-89.5272"
    - name: Baylis
      region: IL
      lat: '39.7294'
      long: "-90.9094"
    - name: Beach Park
      region: IL
      lat: '42.4260'
      long: "-87.8583"
    - name: Beardstown
      region: IL
      lat: '39.9993'
      long: "-90.4178"
    - name: Beason
      region: IL
      lat: '40.1428'
      long: "-89.1928"
    - name: Beaverville
      region: IL
      lat: '40.9534'
      long: "-87.6546"
    - name: Beckemeyer
      region: IL
      lat: '38.6058'
      long: "-89.4321"
    - name: Bedford Park
      region: IL
      lat: '41.7669'
      long: "-87.7915"
    - name: Beecher
      region: IL
      lat: '41.3500'
      long: "-87.6172"
    - name: Beecher City
      region: IL
      lat: '39.1867'
      long: "-88.7877"
    - name: Belgium
      region: IL
      lat: '40.0607'
      long: "-87.6328"
    - name: Belknap
      region: IL
      lat: '37.3224'
      long: "-88.9405"
    - name: Belle Prairie City
      region: IL
      lat: '38.2235'
      long: "-88.5556"
    - name: Belle Rive
      region: IL
      lat: '38.2317'
      long: "-88.7405"
    - name: Belleville
      region: IL
      lat: '38.5164'
      long: "-89.9900"
    - name: Bellevue
      region: IL
      lat: '40.6877'
      long: "-89.6731"
    - name: Bellflower
      region: IL
      lat: '40.3404'
      long: "-88.5258"
    - name: Bellmont
      region: IL
      lat: '38.3830'
      long: "-87.9106"
    - name: Bellwood
      region: IL
      lat: '41.8829'
      long: "-87.8762"
    - name: Belvidere
      region: IL
      lat: '42.2543'
      long: "-88.8649"
    - name: Bement
      region: IL
      lat: '39.9230'
      long: "-88.5724"
    - name: Benld
      region: IL
      lat: '39.0930'
      long: "-89.8023"
    - name: Bensenville
      region: IL
      lat: '41.9579'
      long: "-87.9442"
    - name: Benson
      region: IL
      lat: '40.8505'
      long: "-89.1211"
    - name: Bentley
      region: IL
      lat: '40.3440'
      long: "-91.1118"
    - name: Benton
      region: IL
      lat: '38.0109'
      long: "-88.9179"
    - name: Berkeley
      region: IL
      lat: '41.8891'
      long: "-87.9115"
    - name: Berlin
      region: IL
      lat: '39.7569'
      long: "-89.9024"
    - name: Berwyn
      region: IL
      lat: '41.8433'
      long: "-87.7909"
    - name: Bethalto
      region: IL
      lat: '38.9015'
      long: "-90.0466"
    - name: Bethany
      region: IL
      lat: '39.6443'
      long: "-88.7411"
    - name: Beverly
      region: IL
      lat: '39.7946'
      long: "-90.9900"
    - name: Big Foot Prairie
      region: IL
      lat: '42.4915'
      long: "-88.6007"
    - name: Big Rock
      region: IL
      lat: '41.7668'
      long: "-88.5265"
    - name: Biggsville
      region: IL
      lat: '40.8536'
      long: "-90.8621"
    - name: Bingham
      region: IL
      lat: '39.1122'
      long: "-89.2137"
    - name: Bishop Hill
      region: IL
      lat: '41.1998'
      long: "-90.1175"
    - name: Bismarck
      region: IL
      lat: '40.2594'
      long: "-87.6112"
    - name: Blairsville
      region: IL
      lat: '37.8107'
      long: "-89.1239"
    - name: Blandinsville
      region: IL
      lat: '40.5540'
      long: "-90.8683"
    - name: Bloomfield
      region: IL
      lat: '40.0174'
      long: "-91.3028"
    - name: Bloomingdale
      region: IL
      lat: '41.9497'
      long: "-88.0895"
    - name: Bloomington
      region: IL
      lat: '40.4757'
      long: "-88.9703"
    - name: Blue Island
      region: IL
      lat: '41.6578'
      long: "-87.6811"
    - name: Blue Mound
      region: IL
      lat: '39.7004'
      long: "-89.1185"
    - name: Bluffs
      region: IL
      lat: '39.7494'
      long: "-90.5352"
    - name: Bluford
      region: IL
      lat: '38.3257'
      long: "-88.7350"
    - name: Bolingbrook
      region: IL
      lat: '41.6901'
      long: "-88.1021"
    - name: Bondville
      region: IL
      lat: '40.1115'
      long: "-88.3682"
    - name: Bone Gap
      region: IL
      lat: '38.4449'
      long: "-87.9976"
    - name: Bonfield
      region: IL
      lat: '41.1450'
      long: "-88.0542"
    - name: Bonnie
      region: IL
      lat: '38.2030'
      long: "-88.9068"
    - name: Bonnie Brae
      region: IL
      lat: '41.5999'
      long: "-88.0343"
    - name: Boody
      region: IL
      lat: '39.7644'
      long: "-89.0467"
    - name: Boulder Hill
      region: IL
      lat: '41.7113'
      long: "-88.3353"
    - name: Bourbonnais
      region: IL
      lat: '41.1830'
      long: "-87.8784"
    - name: Bowen
      region: IL
      lat: '40.2321'
      long: "-91.0633"
    - name: Braceville
      region: IL
      lat: '41.2280'
      long: "-88.2464"
    - name: Bradford
      region: IL
      lat: '41.1772'
      long: "-89.6583"
    - name: Bradley
      region: IL
      lat: '41.1641'
      long: "-87.8452"
    - name: Braidwood
      region: IL
      lat: '41.2695'
      long: "-88.2235"
    - name: Breese
      region: IL
      lat: '38.6138'
      long: "-89.5230"
    - name: Bridgeport
      region: IL
      lat: '38.7096'
      long: "-87.7590"
    - name: Bridgeview
      region: IL
      lat: '41.7403'
      long: "-87.8067"
    - name: Brighton
      region: IL
      lat: '39.0406'
      long: "-90.1408"
    - name: Brimfield
      region: IL
      lat: '40.8379'
      long: "-89.8827"
    - name: Broadlands
      region: IL
      lat: '39.9087'
      long: "-87.9971"
    - name: Broadview
      region: IL
      lat: '41.8583'
      long: "-87.8562"
    - name: Broadwell
      region: IL
      lat: '40.0668'
      long: "-89.4429"
    - name: Brocton
      region: IL
      lat: '39.7154'
      long: "-87.9336"
    - name: Brookfield
      region: IL
      lat: '41.8245'
      long: "-87.8470"
    - name: Brooklyn
      region: IL
      lat: '38.6542'
      long: "-90.1679"
    - name: Brookport
      region: IL
      lat: '37.1261'
      long: "-88.6276"
    - name: Broughton
      region: IL
      lat: '37.9345'
      long: "-88.4624"
    - name: Browning
      region: IL
      lat: '40.1270'
      long: "-90.3730"
    - name: Browns
      region: IL
      lat: '38.3775'
      long: "-87.9831"
    - name: Brownstown
      region: IL
      lat: '38.9942'
      long: "-88.9554"
    - name: Brussels
      region: IL
      lat: '38.9483'
      long: "-90.5887"
    - name: Bryant
      region: IL
      lat: '40.4655'
      long: "-90.0948"
    - name: Buckingham
      region: IL
      lat: '41.0467'
      long: "-88.1749"
    - name: Buckley
      region: IL
      lat: '40.5973'
      long: "-88.0378"
    - name: Buckner
      region: IL
      lat: '37.9807'
      long: "-89.0152"
    - name: Buda
      region: IL
      lat: '41.3290'
      long: "-89.6793"
    - name: Buffalo
      region: IL
      lat: '39.8499'
      long: "-89.4091"
    - name: Buffalo Grove
      region: IL
      lat: '42.1675'
      long: "-87.9615"
    - name: Buffalo Prairie
      region: IL
      lat: '41.3408'
      long: "-90.8482"
    - name: Bull Valley
      region: IL
      lat: '42.3227'
      long: "-88.3633"
    - name: Bulpitt
      region: IL
      lat: '39.5919'
      long: "-89.4258"
    - name: Buncombe
      region: IL
      lat: '37.4713'
      long: "-88.9747"
    - name: Bunker Hill
      region: IL
      lat: '39.0416'
      long: "-89.9511"
    - name: Burbank
      region: IL
      lat: '41.7444'
      long: "-87.7686"
    - name: Burlington
      region: IL
      lat: '42.0416'
      long: "-88.5508"
    - name: Burnham
      region: IL
      lat: '41.6375'
      long: "-87.5447"
    - name: Burnt Prairie
      region: IL
      lat: '38.2509'
      long: "-88.2585"
    - name: Burr Ridge
      region: IL
      lat: '41.7485'
      long: "-87.9200"
    - name: Burton
      region: IL
      lat: '39.9079'
      long: "-91.2492"
    - name: Burtons Bridge
      region: IL
      lat: '42.2781'
      long: "-88.2305"
    - name: Bush
      region: IL
      lat: '37.8427'
      long: "-89.1295"
    - name: Bushnell
      region: IL
      lat: '40.5518'
      long: "-90.5046"
    - name: Butler
      region: IL
      lat: '39.1975'
      long: "-89.5322"
    - name: Byron
      region: IL
      lat: '42.1223'
      long: "-89.2665"
    - name: Cabery
      region: IL
      lat: '40.9958'
      long: "-88.2037"
    - name: Cable
      region: IL
      lat: '41.2798'
      long: "-90.5056"
    - name: Cahokia Heights
      region: IL
      lat: '38.5710'
      long: "-90.1525"
    - name: Cairo
      region: IL
      lat: '37.0062'
      long: "-89.1819"
    - name: Caledonia
      region: IL
      lat: '42.3686'
      long: "-88.8939"
    - name: Calhoun
      region: IL
      lat: '38.6512'
      long: "-88.0440"
    - name: Calumet City
      region: IL
      lat: '41.6134'
      long: "-87.5505"
    - name: Calumet Park
      region: IL
      lat: '41.6650'
      long: "-87.6577"
    - name: Camargo
      region: IL
      lat: '39.7991'
      long: "-88.1671"
    - name: Cambria
      region: IL
      lat: '37.7793'
      long: "-89.1189"
    - name: Cambridge
      region: IL
      lat: '41.2984'
      long: "-90.1907"
    - name: Camden
      region: IL
      lat: '40.1529'
      long: "-90.7733"
    - name: Cameron
      region: IL
      lat: '40.8875'
      long: "-90.5164"
    - name: Camp Point
      region: IL
      lat: '40.0383'
      long: "-91.0664"
    - name: Campbell Hill
      region: IL
      lat: '37.9305'
      long: "-89.5515"
    - name: Campbell's Island
      region: IL
      lat: '41.5407'
      long: "-90.4300"
    - name: Campton Hills
      region: IL
      lat: '41.9498'
      long: "-88.4166"
    - name: Campus
      region: IL
      lat: '41.0247'
      long: "-88.3072"
    - name: Candlewick Lake
      region: IL
      lat: '42.3525'
      long: "-88.8694"
    - name: Canton
      region: IL
      lat: '40.5632'
      long: "-90.0409"
    - name: Cantrall
      region: IL
      lat: '39.9353'
      long: "-89.6788"
    - name: Capron
      region: IL
      lat: '42.3986'
      long: "-88.7394"
    - name: Carbon Cliff
      region: IL
      lat: '41.4981'
      long: "-90.3917"
    - name: Carbon Hill
      region: IL
      lat: '41.2970'
      long: "-88.2999"
    - name: Carbondale
      region: IL
      lat: '37.7221'
      long: "-89.2237"
    - name: Carlinville
      region: IL
      lat: '39.2775'
      long: "-89.8762"
    - name: Carlock
      region: IL
      lat: '40.5835'
      long: "-89.1288"
    - name: Carlyle
      region: IL
      lat: '38.6217'
      long: "-89.3734"
    - name: Carman
      region: IL
      lat: '40.7362'
      long: "-91.0617"
    - name: Carmi
      region: IL
      lat: '38.0861'
      long: "-88.1722"
    - name: Carol Stream
      region: IL
      lat: '41.9181'
      long: "-88.1307"
    - name: Carpentersville
      region: IL
      lat: '42.1227'
      long: "-88.2896"
    - name: Carrier Mills
      region: IL
      lat: '37.6886'
      long: "-88.6294"
    - name: Carrollton
      region: IL
      lat: '39.2948'
      long: "-90.4062"
    - name: Carterville
      region: IL
      lat: '37.7630'
      long: "-89.0841"
    - name: Carthage
      region: IL
      lat: '40.4142'
      long: "-91.1276"
    - name: Cary
      region: IL
      lat: '42.2129'
      long: "-88.2494"
    - name: Casey
      region: IL
      lat: '39.3031'
      long: "-87.9897"
    - name: Caseyville
      region: IL
      lat: '38.6302'
      long: "-90.0339"
    - name: Catlin
      region: IL
      lat: '40.0677'
      long: "-87.7080"
    - name: Cave-In-Rock
      region: IL
      lat: '37.4708'
      long: "-88.1659"
    - name: Cedar Point
      region: IL
      lat: '41.2651'
      long: "-89.1260"
    - name: Cedarville
      region: IL
      lat: '42.3757'
      long: "-89.6362"
    - name: Central City
      region: IL
      lat: '38.5484'
      long: "-89.1284"
    - name: Centralia
      region: IL
      lat: '38.5224'
      long: "-89.1232"
    - name: Cerro Gordo
      region: IL
      lat: '39.8892'
      long: "-88.7346"
    - name: Chadwick
      region: IL
      lat: '42.0142'
      long: "-89.8885"
    - name: Champaign
      region: IL
      lat: '40.1142'
      long: "-88.2737"
    - name: Chandlerville
      region: IL
      lat: '40.0470'
      long: "-90.1512"
    - name: Channahon
      region: IL
      lat: '41.4210'
      long: "-88.2599"
    - name: Channel Lake
      region: IL
      lat: '42.4830'
      long: "-88.1491"
    - name: Chapin
      region: IL
      lat: '39.7669'
      long: "-90.4027"
    - name: Charleston
      region: IL
      lat: '39.4842'
      long: "-88.1781"
    - name: Chatham
      region: IL
      lat: '39.6733'
      long: "-89.6934"
    - name: Chatsworth
      region: IL
      lat: '40.7293'
      long: "-88.2974"
    - name: Chebanse
      region: IL
      lat: '41.0057'
      long: "-87.9098"
    - name: Chemung
      region: IL
      lat: '42.4162'
      long: "-88.6641"
    - name: Chenoa
      region: IL
      lat: '40.7389'
      long: "-88.7259"
    - name: Cherry
      region: IL
      lat: '41.4280'
      long: "-89.2132"
    - name: Cherry Valley
      region: IL
      lat: '42.2223'
      long: "-88.9715"
    - name: Chester
      region: IL
      lat: '37.9200'
      long: "-89.8260"
    - name: Chesterfield
      region: IL
      lat: '39.2566'
      long: "-90.0668"
    - name: Chestnut
      region: IL
      lat: '40.0537'
      long: "-89.1871"
    - name: Chicago
      region: IL
      lat: '41.8375'
      long: "-87.6866"
    - name: Chicago Heights
      region: IL
      lat: '41.5100'
      long: "-87.6345"
    - name: Chicago Ridge
      region: IL
      lat: '41.7034'
      long: "-87.7795"
    - name: Chillicothe
      region: IL
      lat: '40.9158'
      long: "-89.5020"
    - name: Chrisman
      region: IL
      lat: '39.8044'
      long: "-87.6749"
    - name: Christopher
      region: IL
      lat: '37.9707'
      long: "-89.0531"
    - name: Cicero
      region: IL
      lat: '41.8445'
      long: "-87.7593"
    - name: Cisco
      region: IL
      lat: '40.0117'
      long: "-88.7254"
    - name: Cisne
      region: IL
      lat: '38.5141'
      long: "-88.4371"
    - name: Cissna Park
      region: IL
      lat: '40.5670'
      long: "-87.8922"
    - name: Claremont
      region: IL
      lat: '38.7176'
      long: "-87.9728"
    - name: Clarendon Hills
      region: IL
      lat: '41.7981'
      long: "-87.9568"
    - name: Clay City
      region: IL
      lat: '38.6858'
      long: "-88.3486"
    - name: Clayton
      region: IL
      lat: '40.0301'
      long: "-90.9580"
    - name: Clear Lake
      region: IL
      lat: '39.8139'
      long: "-89.5682"
    - name: Cleveland
      region: IL
      lat: '41.5032'
      long: "-90.3171"
    - name: Clifton
      region: IL
      lat: '40.9348'
      long: "-87.9343"
    - name: Clinton
      region: IL
      lat: '40.1468'
      long: "-88.9633"
    - name: Coal City
      region: IL
      lat: '41.2772'
      long: "-88.2803"
    - name: Coal Valley
      region: IL
      lat: '41.4416'
      long: "-90.4462"
    - name: Coalton
      region: IL
      lat: '39.2848'
      long: "-89.3030"
    - name: Coatsburg
      region: IL
      lat: '40.0327'
      long: "-91.1604"
    - name: Cobden
      region: IL
      lat: '37.5335'
      long: "-89.2545"
    - name: Coffeen
      region: IL
      lat: '39.0883'
      long: "-89.3898"
    - name: Colchester
      region: IL
      lat: '40.4256'
      long: "-90.7922"
    - name: Coleta
      region: IL
      lat: '41.9021'
      long: "-89.7998"
    - name: Colfax
      region: IL
      lat: '40.5666'
      long: "-88.6160"
    - name: Collinsville
      region: IL
      lat: '38.6770'
      long: "-90.0063"
    - name: Colona
      region: IL
      lat: '41.4678'
      long: "-90.3446"
    - name: Colp
      region: IL
      lat: '37.8074'
      long: "-89.0786"
    - name: Columbia
      region: IL
      lat: '38.4581'
      long: "-90.2156"
    - name: Columbus
      region: IL
      lat: '39.9883'
      long: "-91.1456"
    - name: Como
      region: IL
      lat: '41.7662'
      long: "-89.7657"
    - name: Compton
      region: IL
      lat: '41.6942'
      long: "-89.0858"
    - name: Concord
      region: IL
      lat: '39.8157'
      long: "-90.3705"
    - name: Congerville
      region: IL
      lat: '40.6168'
      long: "-89.2051"
    - name: Cooksville
      region: IL
      lat: '40.5428'
      long: "-88.7146"
    - name: Coral
      region: IL
      lat: '42.2180'
      long: "-88.5661"
    - name: Cordova
      region: IL
      lat: '41.6775'
      long: "-90.3218"
    - name: Cornell
      region: IL
      lat: '40.9920'
      long: "-88.7299"
    - name: Cornland
      region: IL
      lat: '39.9376'
      long: "-89.4015"
    - name: Cortland
      region: IL
      lat: '41.9255'
      long: "-88.6794"
    - name: Coulterville
      region: IL
      lat: '38.1850'
      long: "-89.6045"
    - name: Country Club Hills
      region: IL
      lat: '41.5636'
      long: "-87.7251"
    - name: Countryside
      region: IL
      lat: '41.7741'
      long: "-87.8752"
    - name: Cowden
      region: IL
      lat: '39.2493'
      long: "-88.8593"
    - name: Coyne Center
      region: IL
      lat: '41.4006'
      long: "-90.5627"
    - name: Crab Orchard
      region: IL
      lat: '37.7249'
      long: "-88.8059"
    - name: Crainville
      region: IL
      lat: '37.7511'
      long: "-89.0600"
    - name: Creal Springs
      region: IL
      lat: '37.6198'
      long: "-88.8371"
    - name: Crescent City
      region: IL
      lat: '40.7716'
      long: "-87.8564"
    - name: Crest Hill
      region: IL
      lat: '41.5723'
      long: "-88.1124"
    - name: Creston
      region: IL
      lat: '41.9335'
      long: "-88.9742"
    - name: Crestwood
      region: IL
      lat: '41.6454'
      long: "-87.7397"
    - name: Crete
      region: IL
      lat: '41.4401'
      long: "-87.6235"
    - name: Creve Coeur
      region: IL
      lat: '40.6426'
      long: "-89.5981"
    - name: Crossville
      region: IL
      lat: '38.1626'
      long: "-88.0643"
    - name: Crystal Lake
      region: IL
      lat: '42.2333'
      long: "-88.3351"
    - name: Crystal Lawns
      region: IL
      lat: '41.5685'
      long: "-88.1638"
    - name: Cuba
      region: IL
      lat: '40.4936'
      long: "-90.1933"
    - name: Cullom
      region: IL
      lat: '40.8784'
      long: "-88.2699"
    - name: Curran
      region: IL
      lat: '39.7420'
      long: "-89.7785"
    - name: Custer Park
      region: IL
      lat: '41.2436'
      long: "-88.1292"
    - name: Cutler
      region: IL
      lat: '38.0325'
      long: "-89.5676"
    - name: Cypress
      region: IL
      lat: '37.3655'
      long: "-89.0187"
    - name: Dahlgren
      region: IL
      lat: '38.1980'
      long: "-88.6847"
    - name: Dakota
      region: IL
      lat: '42.3880'
      long: "-89.5265"
    - name: Dallas City
      region: IL
      lat: '40.6353'
      long: "-91.1645"
    - name: Dalton City
      region: IL
      lat: '39.7169'
      long: "-88.8070"
    - name: Dalzell
      region: IL
      lat: '41.3559'
      long: "-89.1763"
    - name: Damiansville
      region: IL
      lat: '38.5088'
      long: "-89.6151"
    - name: Dana
      region: IL
      lat: '40.9565'
      long: "-88.9500"
    - name: Danforth
      region: IL
      lat: '40.8220'
      long: "-87.9778"
    - name: Danvers
      region: IL
      lat: '40.5300'
      long: "-89.1751"
    - name: Danville
      region: IL
      lat: '40.1426'
      long: "-87.6111"
    - name: Darien
      region: IL
      lat: '41.7448'
      long: "-87.9822"
    - name: Darmstadt
      region: IL
      lat: '38.3190'
      long: "-89.7288"
    - name: Davis
      region: IL
      lat: '42.4215'
      long: "-89.4156"
    - name: Davis Junction
      region: IL
      lat: '42.1146'
      long: "-89.0903"
    - name: Dawson
      region: IL
      lat: '39.8530'
      long: "-89.4619"
    - name: Dayton
      region: IL
      lat: '41.3866'
      long: "-88.7969"
    - name: De Land
      region: IL
      lat: '40.1218'
      long: "-88.6435"
    - name: De Pue
      region: IL
      lat: '41.3280'
      long: "-89.2959"
    - name: De Soto
      region: IL
      lat: '37.8163'
      long: "-89.2269"
    - name: De Witt
      region: IL
      lat: '40.1847'
      long: "-88.7853"
    - name: DeKalb
      region: IL
      lat: '41.9314'
      long: "-88.7481"
    - name: Decatur
      region: IL
      lat: '39.8557'
      long: "-88.9342"
    - name: Deer Creek
      region: IL
      lat: '40.6293'
      long: "-89.3313"
    - name: Deer Grove
      region: IL
      lat: '41.6096'
      long: "-89.6866"
    - name: Deer Park
      region: IL
      lat: '42.1655'
      long: "-88.0864"
    - name: Deerfield
      region: IL
      lat: '42.1654'
      long: "-87.8516"
    - name: Delavan
      region: IL
      lat: '40.3710'
      long: "-89.5461"
    - name: Des Plaines
      region: IL
      lat: '42.0345'
      long: "-87.9008"
    - name: Detroit
      region: IL
      lat: '39.6202'
      long: "-90.6759"
    - name: Dewey
      region: IL
      lat: '40.3193'
      long: "-88.2833"
    - name: Diamond
      region: IL
      lat: '41.2852'
      long: "-88.2507"
    - name: Dieterich
      region: IL
      lat: '39.0604'
      long: "-88.3815"
    - name: Divernon
      region: IL
      lat: '39.5707'
      long: "-89.6547"
    - name: Dix
      region: IL
      lat: '38.4430'
      long: "-88.9423"
    - name: Dixmoor
      region: IL
      lat: '41.6330'
      long: "-87.6673"
    - name: Dixon
      region: IL
      lat: '41.8439'
      long: "-89.4794"
    - name: Dolton
      region: IL
      lat: '41.6284'
      long: "-87.5979"
    - name: Dongola
      region: IL
      lat: '37.3599'
      long: "-89.1654"
    - name: Donnellson
      region: IL
      lat: '39.0306'
      long: "-89.4757"
    - name: Donovan
      region: IL
      lat: '40.8849'
      long: "-87.6139"
    - name: Dorchester
      region: IL
      lat: '39.0859'
      long: "-89.8877"
    - name: Dover
      region: IL
      lat: '41.4340'
      long: "-89.3961"
    - name: Dowell
      region: IL
      lat: '37.9396'
      long: "-89.2391"
    - name: Downers Grove
      region: IL
      lat: '41.7949'
      long: "-88.0172"
    - name: Downs
      region: IL
      lat: '40.3988'
      long: "-88.8894"
    - name: Du Bois
      region: IL
      lat: '38.2214'
      long: "-89.2127"
    - name: Du Quoin
      region: IL
      lat: '38.0019'
      long: "-89.2323"
    - name: Dundas
      region: IL
      lat: '38.8346'
      long: "-88.0855"
    - name: Dunfermline
      region: IL
      lat: '40.4917'
      long: "-90.0323"
    - name: Dunlap
      region: IL
      lat: '40.8480'
      long: "-89.6719"
    - name: Dupo
      region: IL
      lat: '38.5146'
      long: "-90.2168"
    - name: Durand
      region: IL
      lat: '42.4338'
      long: "-89.3268"
    - name: Dwight
      region: IL
      lat: '41.0983'
      long: "-88.4249"
    - name: Eagarville
      region: IL
      lat: '39.1121'
      long: "-89.7832"
    - name: Eagle Lake
      region: IL
      lat: '41.3702'
      long: "-87.5552"
    - name: Earlville
      region: IL
      lat: '41.5880'
      long: "-88.9229"
    - name: East Alton
      region: IL
      lat: '38.8840'
      long: "-90.1074"
    - name: East Brooklyn
      region: IL
      lat: '41.1727'
      long: "-88.2662"
    - name: East Cape Girardeau
      region: IL
      lat: '37.2957'
      long: "-89.4869"
    - name: East Carondelet
      region: IL
      lat: '38.5385'
      long: "-90.2400"
    - name: East Dubuque
      region: IL
      lat: '42.4888'
      long: "-90.6278"
    - name: East Dundee
      region: IL
      lat: '42.0972'
      long: "-88.2545"
    - name: East Galesburg
      region: IL
      lat: '40.9429'
      long: "-90.3109"
    - name: East Gillespie
      region: IL
      lat: '39.1378'
      long: "-89.8127"
    - name: East Hazel Crest
      region: IL
      lat: '41.5758'
      long: "-87.6503"
    - name: East Lynn
      region: IL
      lat: '40.4663'
      long: "-87.8007"
    - name: East Moline
      region: IL
      lat: '41.5199'
      long: "-90.3879"
    - name: East Peoria
      region: IL
      lat: '40.6736'
      long: "-89.5419"
    - name: East St. Louis
      region: IL
      lat: '38.6155'
      long: "-90.1304"
    - name: Easton
      region: IL
      lat: '40.2321'
      long: "-89.8415"
    - name: Eddyville
      region: IL
      lat: '37.5005'
      long: "-88.5847"
    - name: Edgewood
      region: IL
      lat: '38.9222'
      long: "-88.6640"
    - name: Edgington
      region: IL
      lat: '41.3869'
      long: "-90.7637"
    - name: Edinburg
      region: IL
      lat: '39.6580'
      long: "-89.3905"
    - name: Edwardsville
      region: IL
      lat: '38.7922'
      long: "-89.9874"
    - name: Effingham
      region: IL
      lat: '39.1205'
      long: "-88.5509"
    - name: El Dara
      region: IL
      lat: '39.6227'
      long: "-90.9917"
    - name: El Paso
      region: IL
      lat: '40.7405'
      long: "-89.0183"
    - name: Elburn
      region: IL
      lat: '41.8852'
      long: "-88.4606"
    - name: Eldorado
      region: IL
      lat: '37.8114'
      long: "-88.4415"
    - name: Eldred
      region: IL
      lat: '39.2862'
      long: "-90.5538"
    - name: Elgin
      region: IL
      lat: '42.0383'
      long: "-88.3240"
    - name: Eliza
      region: IL
      lat: '41.2947'
      long: "-90.9726"
    - name: Elizabeth
      region: IL
      lat: '42.3164'
      long: "-90.2216"
    - name: Elizabethtown
      region: IL
      lat: '37.4499'
      long: "-88.3052"
    - name: Elk Grove Village
      region: IL
      lat: '42.0064'
      long: "-87.9921"
    - name: Elkhart
      region: IL
      lat: '40.0136'
      long: "-89.4727"
    - name: Elkville
      region: IL
      lat: '37.9100'
      long: "-89.2367"
    - name: Elliott
      region: IL
      lat: '40.4662'
      long: "-88.2769"
    - name: Ellis Grove
      region: IL
      lat: '38.0094'
      long: "-89.9099"
    - name: Ellisville
      region: IL
      lat: '40.6273'
      long: "-90.3060"
    - name: Ellsworth
      region: IL
      lat: '40.4496'
      long: "-88.7162"
    - name: Elmhurst
      region: IL
      lat: '41.8973'
      long: "-87.9432"
    - name: Elmwood
      region: IL
      lat: '40.7804'
      long: "-89.9662"
    - name: Elmwood Park
      region: IL
      lat: '41.9225'
      long: "-87.8163"
    - name: Elsah
      region: IL
      lat: '38.9541'
      long: "-90.3553"
    - name: Elvaston
      region: IL
      lat: '40.3954'
      long: "-91.2496"
    - name: Elwin
      region: IL
      lat: '39.7763'
      long: "-88.9778"
    - name: Elwood
      region: IL
      lat: '41.4118'
      long: "-88.1345"
    - name: Emden
      region: IL
      lat: '40.2982'
      long: "-89.4851"
    - name: Emington
      region: IL
      lat: '40.9693'
      long: "-88.3578"
    - name: Energy
      region: IL
      lat: '37.7740'
      long: "-89.0244"
    - name: Enfield
      region: IL
      lat: '38.1008'
      long: "-88.3382"
    - name: Equality
      region: IL
      lat: '37.7371'
      long: "-88.3422"
    - name: Erie
      region: IL
      lat: '41.6589'
      long: "-90.0813"
    - name: Essex
      region: IL
      lat: '41.1819'
      long: "-88.1926"
    - name: Eureka
      region: IL
      lat: '40.7148'
      long: "-89.2775"
    - name: Evanston
      region: IL
      lat: '42.0464'
      long: "-87.6943"
    - name: Evansville
      region: IL
      lat: '38.0889'
      long: "-89.9322"
    - name: Evergreen Park
      region: IL
      lat: '41.7213'
      long: "-87.7013"
    - name: Ewing
      region: IL
      lat: '38.0889'
      long: "-88.8528"
    - name: Exeter
      region: IL
      lat: '39.7191'
      long: "-90.4961"
    - name: Fairbury
      region: IL
      lat: '40.7460'
      long: "-88.5158"
    - name: Fairfield
      region: IL
      lat: '38.3798'
      long: "-88.3723"
    - name: Fairmont
      region: IL
      lat: '41.5614'
      long: "-88.0587"
    - name: Fairmont City
      region: IL
      lat: '38.6504'
      long: "-90.1024"
    - name: Fairmount
      region: IL
      lat: '40.0456'
      long: "-87.8293"
    - name: Fairview
      region: IL
      lat: '40.6485'
      long: "-90.1841"
    - name: Fairview Heights
      region: IL
      lat: '38.5974'
      long: "-90.0053"
    - name: Fall Creek
      region: IL
      lat: '39.7814'
      long: "-91.3032"
    - name: Farina
      region: IL
      lat: '38.8302'
      long: "-88.7796"
    - name: Farmer City
      region: IL
      lat: '40.2480'
      long: "-88.6423"
    - name: Farmersville
      region: IL
      lat: '39.4412'
      long: "-89.6521"
    - name: Farmington
      region: IL
      lat: '40.6970'
      long: "-90.0024"
    - name: Fayetteville
      region: IL
      lat: '38.3778'
      long: "-89.7966"
    - name: Ferris
      region: IL
      lat: '40.4695'
      long: "-91.1683"
    - name: Fidelity
      region: IL
      lat: '39.1546'
      long: "-90.1644"
    - name: Fieldon
      region: IL
      lat: '39.1087'
      long: "-90.4996"
    - name: Fillmore
      region: IL
      lat: '39.1154'
      long: "-89.2785"
    - name: Findlay
      region: IL
      lat: '39.5223'
      long: "-88.7546"
    - name: Fisher
      region: IL
      lat: '40.3157'
      long: "-88.3503"
    - name: Fithian
      region: IL
      lat: '40.1143'
      long: "-87.8750"
    - name: Flanagan
      region: IL
      lat: '40.8771'
      long: "-88.8596"
    - name: Flat Rock
      region: IL
      lat: '38.9037'
      long: "-87.6734"
    - name: Flora
      region: IL
      lat: '38.6688'
      long: "-88.4758"
    - name: Floraville
      region: IL
      lat: '38.3764'
      long: "-90.0562"
    - name: Florence
      region: IL
      lat: '39.6288'
      long: "-90.6108"
    - name: Flossmoor
      region: IL
      lat: '41.5391'
      long: "-87.6858"
    - name: Foosland
      region: IL
      lat: '40.3611'
      long: "-88.4291"
    - name: Ford Heights
      region: IL
      lat: '41.5109'
      long: "-87.5814"
    - name: Forest City
      region: IL
      lat: '40.3723'
      long: "-89.8325"
    - name: Forest Lake
      region: IL
      lat: '42.2103'
      long: "-88.0531"
    - name: Forest Park
      region: IL
      lat: '41.8683'
      long: "-87.8157"
    - name: Forest View
      region: IL
      lat: '41.8072'
      long: "-87.7798"
    - name: Forrest
      region: IL
      lat: '40.7511'
      long: "-88.4096"
    - name: Forreston
      region: IL
      lat: '42.1273'
      long: "-89.5784"
    - name: Forsyth
      region: IL
      lat: '39.9259'
      long: "-88.9641"
    - name: Fowler
      region: IL
      lat: '40.0088'
      long: "-91.2578"
    - name: Fox Lake
      region: IL
      lat: '42.4239'
      long: "-88.1844"
    - name: Fox Lake Hills
      region: IL
      lat: '42.4127'
      long: "-88.1270"
    - name: Fox River Grove
      region: IL
      lat: '42.1955'
      long: "-88.2147"
    - name: Frankfort
      region: IL
      lat: '41.4892'
      long: "-87.8363"
    - name: Frankfort Square
      region: IL
      lat: '41.5219'
      long: "-87.8031"
    - name: Franklin
      region: IL
      lat: '39.6205'
      long: "-90.0477"
    - name: Franklin Grove
      region: IL
      lat: '41.8408'
      long: "-89.3005"
    - name: Franklin Park
      region: IL
      lat: '41.9361'
      long: "-87.8794"
    - name: Franklinville
      region: IL
      lat: '42.2754'
      long: "-88.5155"
    - name: Freeburg
      region: IL
      lat: '38.4397'
      long: "-89.9169"
    - name: Freeman Spur
      region: IL
      lat: '37.8613'
      long: "-88.9993"
    - name: Freeport
      region: IL
      lat: '42.2891'
      long: "-89.6346"
    - name: Fulton
      region: IL
      lat: '41.8650'
      long: "-90.1593"
    - name: Fults
      region: IL
      lat: '38.1644'
      long: "-90.2128"
    - name: Gages Lake
      region: IL
      lat: '42.3519'
      long: "-87.9828"
    - name: Galatia
      region: IL
      lat: '37.8414'
      long: "-88.6148"
    - name: Galena
      region: IL
      lat: '42.4218'
      long: "-90.4293"
    - name: Galesburg
      region: IL
      lat: '40.9506'
      long: "-90.3763"
    - name: Galt
      region: IL
      lat: '41.7894'
      long: "-89.7541"
    - name: Galva
      region: IL
      lat: '41.1689'
      long: "-90.0375"
    - name: Garden Prairie
      region: IL
      lat: '42.2534'
      long: "-88.7178"
    - name: Gardner
      region: IL
      lat: '41.1931'
      long: "-88.3146"
    - name: Garrett
      region: IL
      lat: '39.7973'
      long: "-88.4247"
    - name: Gays
      region: IL
      lat: '39.4583'
      long: "-88.4963"
    - name: Geneseo
      region: IL
      lat: '41.4509'
      long: "-90.1540"
    - name: Geneva
      region: IL
      lat: '41.8833'
      long: "-88.3242"
    - name: Genoa
      region: IL
      lat: '42.0926'
      long: "-88.6964"
    - name: Georgetown
      region: IL
      lat: '39.9774'
      long: "-87.6354"
    - name: German Valley
      region: IL
      lat: '42.2143'
      long: "-89.4844"
    - name: Germantown
      region: IL
      lat: '38.5552'
      long: "-89.5412"
    - name: Germantown Hills
      region: IL
      lat: '40.7711'
      long: "-89.4669"
    - name: Gibson City
      region: IL
      lat: '40.4665'
      long: "-88.3788"
    - name: Gifford
      region: IL
      lat: '40.3079'
      long: "-88.0214"
    - name: Gilberts
      region: IL
      lat: '42.1097'
      long: "-88.3715"
    - name: Gillespie
      region: IL
      lat: '39.1258'
      long: "-89.8174"
    - name: Gilman
      region: IL
      lat: '40.7626'
      long: "-87.9975"
    - name: Gilson
      region: IL
      lat: '40.8629'
      long: "-90.1992"
    - name: Girard
      region: IL
      lat: '39.4466'
      long: "-89.7821"
    - name: Gladstone
      region: IL
      lat: '40.8643'
      long: "-90.9566"
    - name: Glasford
      region: IL
      lat: '40.5728'
      long: "-89.8130"
    - name: Glasgow
      region: IL
      lat: '39.5487'
      long: "-90.4800"
    - name: Glen Carbon
      region: IL
      lat: '38.7580'
      long: "-89.9822"
    - name: Glen Ellyn
      region: IL
      lat: '41.8666'
      long: "-88.0629"
    - name: Glencoe
      region: IL
      lat: '42.1347'
      long: "-87.7641"
    - name: Glendale Heights
      region: IL
      lat: '41.9196'
      long: "-88.0785"
    - name: Glenview
      region: IL
      lat: '42.0825'
      long: "-87.8214"
    - name: Glenwood
      region: IL
      lat: '41.5410'
      long: "-87.6118"
    - name: Godfrey
      region: IL
      lat: '38.9577'
      long: "-90.2156"
    - name: Godley
      region: IL
      lat: '41.2385'
      long: "-88.2452"
    - name: Golconda
      region: IL
      lat: '37.3619'
      long: "-88.4870"
    - name: Golden
      region: IL
      lat: '40.1104'
      long: "-91.0193"
    - name: Golden Gate
      region: IL
      lat: '38.3589'
      long: "-88.2046"
    - name: Golf
      region: IL
      lat: '42.0586'
      long: "-87.7850"
    - name: Good Hope
      region: IL
      lat: '40.5574'
      long: "-90.6752"
    - name: Goodenow
      region: IL
      lat: '41.3922'
      long: "-87.6397"
    - name: Goodfield
      region: IL
      lat: '40.6266'
      long: "-89.2688"
    - name: Goofy Ridge
      region: IL
      lat: '40.3948'
      long: "-89.9407"
    - name: Goreville
      region: IL
      lat: '37.5611'
      long: "-88.9557"
    - name: Gorham
      region: IL
      lat: '37.7151'
      long: "-89.4831"
    - name: Grafton
      region: IL
      lat: '38.9764'
      long: "-90.4258"
    - name: Grand Detour
      region: IL
      lat: '41.9011'
      long: "-89.4137"
    - name: Grand Ridge
      region: IL
      lat: '41.2361'
      long: "-88.8310"
    - name: Grand Tower
      region: IL
      lat: '37.6343'
      long: "-89.5013"
    - name: Grandview
      region: IL
      lat: '39.8175'
      long: "-89.6180"
    - name: Grandwood Park
      region: IL
      lat: '42.3927'
      long: "-87.9890"
    - name: Granite City
      region: IL
      lat: '38.7296'
      long: "-90.1268"
    - name: Grant Park
      region: IL
      lat: '41.2429'
      long: "-87.6353"
    - name: Grantfork
      region: IL
      lat: '38.8289'
      long: "-89.6665"
    - name: Granville
      region: IL
      lat: '41.2658'
      long: "-89.2307"
    - name: Grayslake
      region: IL
      lat: '42.3405'
      long: "-88.0338"
    - name: Grayville
      region: IL
      lat: '38.2554'
      long: "-87.9970"
    - name: Green Oaks
      region: IL
      lat: '42.2954'
      long: "-87.9115"
    - name: Green Valley
      region: IL
      lat: '40.4072'
      long: "-89.6443"
    - name: Greenfield
      region: IL
      lat: '39.3444'
      long: "-90.2080"
    - name: Greenup
      region: IL
      lat: '39.2484'
      long: "-88.1598"
    - name: Greenview
      region: IL
      lat: '40.0849'
      long: "-89.7406"
    - name: Greenville
      region: IL
      lat: '38.8867'
      long: "-89.3894"
    - name: Greenwood
      region: IL
      lat: '42.3954'
      long: "-88.3836"
    - name: Gridley
      region: IL
      lat: '40.7437'
      long: "-88.8809"
    - name: Griggsville
      region: IL
      lat: '39.7078'
      long: "-90.7276"
    - name: Gurnee
      region: IL
      lat: '42.3708'
      long: "-87.9392"
    - name: Hainesville
      region: IL
      lat: '42.3415'
      long: "-88.0686"
    - name: Hamburg
      region: IL
      lat: '39.2328'
      long: "-90.7152"
    - name: Hamel
      region: IL
      lat: '38.8894'
      long: "-89.8425"
    - name: Hamilton
      region: IL
      lat: '40.3900'
      long: "-91.3623"
    - name: Hamlet
      region: IL
      lat: '41.3117'
      long: "-90.7331"
    - name: Hammond
      region: IL
      lat: '39.7994'
      long: "-88.5921"
    - name: Hampshire
      region: IL
      lat: '42.1124'
      long: "-88.5118"
    - name: Hampton
      region: IL
      lat: '41.5555'
      long: "-90.4047"
    - name: Hanaford
      region: IL
      lat: '37.9580'
      long: "-88.8356"
    - name: Hanna City
      region: IL
      lat: '40.6936'
      long: "-89.8059"
    - name: Hanover
      region: IL
      lat: '42.2553'
      long: "-90.2737"
    - name: Hanover Park
      region: IL
      lat: '41.9818'
      long: "-88.1446"
    - name: Hardin
      region: IL
      lat: '39.1591'
      long: "-90.6248"
    - name: Harding
      region: IL
      lat: '41.5179'
      long: "-88.8487"
    - name: Harmon
      region: IL
      lat: '41.7194'
      long: "-89.5560"
    - name: Harmony
      region: IL
      lat: '42.1589'
      long: "-88.5286"
    - name: Harrisburg
      region: IL
      lat: '37.7374'
      long: "-88.5457"
    - name: Harrison
      region: IL
      lat: '37.7979'
      long: "-89.3364"
    - name: Harristown
      region: IL
      lat: '39.8429'
      long: "-89.0608"
    - name: Hartford
      region: IL
      lat: '38.8183'
      long: "-90.0915"
    - name: Hartland
      region: IL
      lat: '42.3631'
      long: "-88.5086"
    - name: Hartsburg
      region: IL
      lat: '40.2505'
      long: "-89.4411"
    - name: Harvard
      region: IL
      lat: '42.4296'
      long: "-88.6211"
    - name: Harvel
      region: IL
      lat: '39.3577'
      long: "-89.5322"
    - name: Harvey
      region: IL
      lat: '41.6076'
      long: "-87.6520"
    - name: Harwood Heights
      region: IL
      lat: '41.9663'
      long: "-87.8057"
    - name: Havana
      region: IL
      lat: '40.2950'
      long: "-90.0566"
    - name: Hawthorn Woods
      region: IL
      lat: '42.2313'
      long: "-88.0624"
    - name: Hazel Crest
      region: IL
      lat: '41.5732'
      long: "-87.6899"
    - name: Hebron
      region: IL
      lat: '42.4652'
      long: "-88.4344"
    - name: Hecker
      region: IL
      lat: '38.3054'
      long: "-89.9934"
    - name: Henderson
      region: IL
      lat: '41.0238'
      long: "-90.3535"
    - name: Hennepin
      region: IL
      lat: '41.2589'
      long: "-89.3216"
    - name: Henning
      region: IL
      lat: '40.3069'
      long: "-87.7010"
    - name: Henry
      region: IL
      lat: '41.1172'
      long: "-89.3569"
    - name: Heritage Lake
      region: IL
      lat: '40.5454'
      long: "-89.3309"
    - name: Herrick
      region: IL
      lat: '39.2196'
      long: "-88.9848"
    - name: Herrin
      region: IL
      lat: '37.7983'
      long: "-89.0305"
    - name: Herscher
      region: IL
      lat: '41.0493'
      long: "-88.1006"
    - name: Hettick
      region: IL
      lat: '39.3557'
      long: "-90.0372"
    - name: Heyworth
      region: IL
      lat: '40.3138'
      long: "-88.9928"
    - name: Hickory Hills
      region: IL
      lat: '41.7248'
      long: "-87.8280"
    - name: Hidalgo
      region: IL
      lat: '39.1559'
      long: "-88.1491"
    - name: Highland
      region: IL
      lat: '38.7602'
      long: "-89.6812"
    - name: Highland Park
      region: IL
      lat: '42.1823'
      long: "-87.8104"
    - name: Highwood
      region: IL
      lat: '42.2060'
      long: "-87.8128"
    - name: Hillcrest
      region: IL
      lat: '41.9669'
      long: "-89.0626"
    - name: Hillsboro
      region: IL
      lat: '39.1752'
      long: "-89.4723"
    - name: Hillsdale
      region: IL
      lat: '41.6108'
      long: "-90.1752"
    - name: Hillside
      region: IL
      lat: '41.8675'
      long: "-87.9019"
    - name: Hillview
      region: IL
      lat: '39.4496'
      long: "-90.5386"
    - name: Hinckley
      region: IL
      lat: '41.7714'
      long: "-88.6397"
    - name: Hindsboro
      region: IL
      lat: '39.6847'
      long: "-88.1347"
    - name: Hinsdale
      region: IL
      lat: '41.8007'
      long: "-87.9273"
    - name: Hodgkins
      region: IL
      lat: '41.7659'
      long: "-87.8613"
    - name: Hoffman
      region: IL
      lat: '38.5404'
      long: "-89.2644"
    - name: Hoffman Estates
      region: IL
      lat: '42.0640'
      long: "-88.1468"
    - name: Holcomb
      region: IL
      lat: '42.0646'
      long: "-89.0970"
    - name: Holiday Hills
      region: IL
      lat: '42.2978'
      long: "-88.2292"
    - name: Holiday Shores
      region: IL
      lat: '38.9222'
      long: "-89.9360"
    - name: Hollowayville
      region: IL
      lat: '41.3648'
      long: "-89.2951"
    - name: Homer
      region: IL
      lat: '40.0329'
      long: "-87.9578"
    - name: Homer Glen
      region: IL
      lat: '41.6043'
      long: "-87.9497"
    - name: Hometown
      region: IL
      lat: '41.7312'
      long: "-87.7311"
    - name: Homewood
      region: IL
      lat: '41.5591'
      long: "-87.6610"
    - name: Hoopeston
      region: IL
      lat: '40.4608'
      long: "-87.6635"
    - name: Hooppole
      region: IL
      lat: '41.5218'
      long: "-89.9140"
    - name: Hopedale
      region: IL
      lat: '40.4233'
      long: "-89.4214"
    - name: Hopewell
      region: IL
      lat: '40.9842'
      long: "-89.4572"
    - name: Hopkins Park
      region: IL
      lat: '41.0690'
      long: "-87.6060"
    - name: Hoyleton
      region: IL
      lat: '38.4457'
      long: "-89.2721"
    - name: Hudson
      region: IL
      lat: '40.6054'
      long: "-88.9891"
    - name: Huey
      region: IL
      lat: '38.6054'
      long: "-89.2898"
    - name: Hull
      region: IL
      lat: '39.7087'
      long: "-91.2033"
    - name: Humboldt
      region: IL
      lat: '39.6047'
      long: "-88.3201"
    - name: Hume
      region: IL
      lat: '39.7981'
      long: "-87.8686"
    - name: Huntley
      region: IL
      lat: '42.1599'
      long: "-88.4330"
    - name: Hurst
      region: IL
      lat: '37.8349'
      long: "-89.1443"
    - name: Hutsonville
      region: IL
      lat: '39.1085'
      long: "-87.6606"
    - name: Illinois City
      region: IL
      lat: '41.3991'
      long: "-90.8996"
    - name: Illiopolis
      region: IL
      lat: '39.8498'
      long: "-89.2521"
    - name: Ina
      region: IL
      lat: '38.1499'
      long: "-88.9040"
    - name: Indian Creek
      region: IL
      lat: '42.2272'
      long: "-87.9783"
    - name: Indian Head Park
      region: IL
      lat: '41.7690'
      long: "-87.8977"
    - name: Indianola
      region: IL
      lat: '39.9270'
      long: "-87.7402"
    - name: Industry
      region: IL
      lat: '40.3270'
      long: "-90.6082"
    - name: Ingalls Park
      region: IL
      lat: '41.5204'
      long: "-88.0345"
    - name: Inverness
      region: IL
      lat: '42.1153'
      long: "-88.1019"
    - name: Iola
      region: IL
      lat: '38.8341'
      long: "-88.6279"
    - name: Ipava
      region: IL
      lat: '40.3526'
      long: "-90.3235"
    - name: Iroquois
      region: IL
      lat: '40.8288'
      long: "-87.5843"
    - name: Irving
      region: IL
      lat: '39.2055'
      long: "-89.4052"
    - name: Irvington
      region: IL
      lat: '38.4386'
      long: "-89.1602"
    - name: Irwin
      region: IL
      lat: '41.0534'
      long: "-87.9842"
    - name: Island Lake
      region: IL
      lat: '42.2782'
      long: "-88.1999"
    - name: Itasca
      region: IL
      lat: '41.9772'
      long: "-88.0183"
    - name: Iuka
      region: IL
      lat: '38.6181'
      long: "-88.7881"
    - name: Ivesdale
      region: IL
      lat: '39.9458'
      long: "-88.4558"
    - name: Jacksonville
      region: IL
      lat: '39.7292'
      long: "-90.2317"
    - name: Janesville
      region: IL
      lat: '39.3753'
      long: "-88.2449"
    - name: Jeffersonville
      region: IL
      lat: '38.4425'
      long: "-88.4040"
    - name: Jeisyville
      region: IL
      lat: '39.5792'
      long: "-89.4080"
    - name: Jerome
      region: IL
      lat: '39.7677'
      long: "-89.6785"
    - name: Jerseyville
      region: IL
      lat: '39.1176'
      long: "-90.3270"
    - name: Jewett
      region: IL
      lat: '39.2077'
      long: "-88.2431"
    - name: Johnsburg
      region: IL
      lat: '42.3830'
      long: "-88.2476"
    - name: Johnsonville
      region: IL
      lat: '38.5208'
      long: "-88.5382"
    - name: Johnston City
      region: IL
      lat: '37.8214'
      long: "-88.9290"
    - name: Joliet
      region: IL
      lat: '41.5188'
      long: "-88.1499"
    - name: Jonesboro
      region: IL
      lat: '37.4510'
      long: "-89.2666"
    - name: Joppa
      region: IL
      lat: '37.2070'
      long: "-88.8447"
    - name: Joslin
      region: IL
      lat: '41.5540'
      long: "-90.2237"
    - name: Joy
      region: IL
      lat: '41.1969'
      long: "-90.8788"
    - name: Junction
      region: IL
      lat: '37.7234'
      long: "-88.2381"
    - name: Junction City
      region: IL
      lat: '38.5774'
      long: "-89.1258"
    - name: Justice
      region: IL
      lat: '41.7495'
      long: "-87.8345"
    - name: Kampsville
      region: IL
      lat: '39.2971'
      long: "-90.6127"
    - name: Kane
      region: IL
      lat: '39.1905'
      long: "-90.3512"
    - name: Kaneville
      region: IL
      lat: '41.8332'
      long: "-88.5216"
    - name: Kangley
      region: IL
      lat: '41.1480'
      long: "-88.8722"
    - name: Kankakee
      region: IL
      lat: '41.1020'
      long: "-87.8643"
    - name: Kansas
      region: IL
      lat: '39.5544'
      long: "-87.9396"
    - name: Kappa
      region: IL
      lat: '40.6755'
      long: "-89.0060"
    - name: Karnak
      region: IL
      lat: '37.2942'
      long: "-88.9758"
    - name: Kaskaskia
      region: IL
      lat: '37.9213'
      long: "-89.9163"
    - name: Keenes
      region: IL
      lat: '38.3386'
      long: "-88.6419"
    - name: Keensburg
      region: IL
      lat: '38.3518'
      long: "-87.8683"
    - name: Keithsburg
      region: IL
      lat: '41.1004'
      long: "-90.9353"
    - name: Kell
      region: IL
      lat: '38.4912'
      long: "-88.9032"
    - name: Kempton
      region: IL
      lat: '40.9354'
      long: "-88.2363"
    - name: Kenilworth
      region: IL
      lat: '42.0888'
      long: "-87.7144"
    - name: Kenney
      region: IL
      lat: '40.0981'
      long: "-89.0862"
    - name: Kewanee
      region: IL
      lat: '41.2399'
      long: "-89.9264"
    - name: Keyesport
      region: IL
      lat: '38.7460'
      long: "-89.2737"
    - name: Kilbourne
      region: IL
      lat: '40.1519'
      long: "-90.0115"
    - name: Kildeer
      region: IL
      lat: '42.1830'
      long: "-88.0488"
    - name: Kincaid
      region: IL
      lat: '39.5868'
      long: "-89.4166"
    - name: Kinderhook
      region: IL
      lat: '39.7037'
      long: "-91.1526"
    - name: Kings
      region: IL
      lat: '42.0031'
      long: "-89.1070"
    - name: Kingston
      region: IL
      lat: '39.8198'
      long: "-91.0274"
    - name: Kingston
      region: IL
      lat: '42.1008'
      long: "-88.7619"
    - name: Kingston Mines
      region: IL
      lat: '40.5586'
      long: "-89.7720"
    - name: Kinmundy
      region: IL
      lat: '38.7729'
      long: "-88.8527"
    - name: Kinsman
      region: IL
      lat: '41.1902'
      long: "-88.5700"
    - name: Kirkland
      region: IL
      lat: '42.0905'
      long: "-88.8490"
    - name: Kirkwood
      region: IL
      lat: '40.8678'
      long: "-90.7483"
    - name: Knollwood
      region: IL
      lat: '42.2846'
      long: "-87.8793"
    - name: Knoxville
      region: IL
      lat: '40.9070'
      long: "-90.2857"
    - name: La Clede
      region: IL
      lat: '38.8806'
      long: "-88.7128"
    - name: La Fayette
      region: IL
      lat: '41.1095'
      long: "-89.9736"
    - name: La Grange
      region: IL
      lat: '41.8072'
      long: "-87.8741"
    - name: La Grange Park
      region: IL
      lat: '41.8308'
      long: "-87.8723"
    - name: La Harpe
      region: IL
      lat: '40.5848'
      long: "-90.9695"
    - name: La Moille
      region: IL
      lat: '41.5299'
      long: "-89.2833"
    - name: La Prairie
      region: IL
      lat: '40.1473'
      long: "-91.0024"
    - name: La Rose
      region: IL
      lat: '40.9786'
      long: "-89.2349"
    - name: LaPlace
      region: IL
      lat: '39.7976'
      long: "-88.7146"
    - name: LaSalle
      region: IL
      lat: '41.3589'
      long: "-89.0737"
    - name: Lacon
      region: IL
      lat: '41.0228'
      long: "-89.4062"
    - name: Ladd
      region: IL
      lat: '41.3810'
      long: "-89.2147"
    - name: Lake Barrington
      region: IL
      lat: '42.2121'
      long: "-88.1684"
    - name: Lake Bluff
      region: IL
      lat: '42.2826'
      long: "-87.8510"
    - name: Lake Camelot
      region: IL
      lat: '40.6341'
      long: "-89.7509"
    - name: Lake Carroll
      region: IL
      lat: '42.1705'
      long: "-89.8699"
    - name: Lake Catherine
      region: IL
      lat: '42.4870'
      long: "-88.1272"
    - name: Lake City
      region: IL
      lat: '39.7536'
      long: "-88.7184"
    - name: Lake Forest
      region: IL
      lat: '42.2380'
      long: "-87.8596"
    - name: Lake Holiday
      region: IL
      lat: '41.6159'
      long: "-88.6683"
    - name: Lake Ka-Ho
      region: IL
      lat: '39.0998'
      long: "-89.7463"
    - name: Lake Petersburg
      region: IL
      lat: '39.9831'
      long: "-89.8652"
    - name: Lake Summerset
      region: IL
      lat: '42.4519'
      long: "-89.3986"
    - name: Lake Villa
      region: IL
      lat: '42.4184'
      long: "-88.0836"
    - name: Lake Zurich
      region: IL
      lat: '42.1956'
      long: "-88.0870"
    - name: Lake in the Hills
      region: IL
      lat: '42.1913'
      long: "-88.3477"
    - name: Lake of the Woods
      region: IL
      lat: '40.2056'
      long: "-88.3725"
    - name: Lakemoor
      region: IL
      lat: '42.3396'
      long: "-88.2039"
    - name: Lakewood
      region: IL
      lat: '39.3235'
      long: "-88.8981"
    - name: Lakewood
      region: IL
      lat: '42.2279'
      long: "-88.3931"
    - name: Lakewood Shores
      region: IL
      lat: '41.2800'
      long: "-88.1443"
    - name: Lanark
      region: IL
      lat: '42.1019'
      long: "-89.8336"
    - name: Lane
      region: IL
      lat: '40.1220'
      long: "-88.8558"
    - name: Langleyville
      region: IL
      lat: '39.5611'
      long: "-89.3603"
    - name: Lansing
      region: IL
      lat: '41.5648'
      long: "-87.5462"
    - name: Latham
      region: IL
      lat: '39.9669'
      long: "-89.1623"
    - name: Lawrence
      region: IL
      lat: '42.4434'
      long: "-88.6417"
    - name: Lawrenceville
      region: IL
      lat: '38.7264'
      long: "-87.6873"
    - name: Le Roy
      region: IL
      lat: '40.3395'
      long: "-88.7628"
    - name: Leaf River
      region: IL
      lat: '42.1233'
      long: "-89.4040"
    - name: Lebanon
      region: IL
      lat: '38.6005'
      long: "-89.8114"
    - name: Lee
      region: IL
      lat: '41.7955'
      long: "-88.9417"
    - name: Lee Center
      region: IL
      lat: '41.7503'
      long: "-89.2762"
    - name: Leland
      region: IL
      lat: '41.6160'
      long: "-88.7982"
    - name: Leland Grove
      region: IL
      lat: '39.7787'
      long: "-89.6838"
    - name: Lemont
      region: IL
      lat: '41.6695'
      long: "-87.9838"
    - name: Lena
      region: IL
      lat: '42.3786'
      long: "-89.8218"
    - name: Lenzburg
      region: IL
      lat: '38.2860'
      long: "-89.8180"
    - name: Leonore
      region: IL
      lat: '41.1890'
      long: "-88.9825"
    - name: Lerna
      region: IL
      lat: '39.4177'
      long: "-88.2885"
    - name: Lewistown
      region: IL
      lat: '40.3969'
      long: "-90.1554"
    - name: Lexington
      region: IL
      lat: '40.6470'
      long: "-88.7841"
    - name: Liberty
      region: IL
      lat: '39.8842'
      long: "-91.1084"
    - name: Libertyville
      region: IL
      lat: '42.2870'
      long: "-87.9670"
    - name: Lily Lake
      region: IL
      lat: '41.9516'
      long: "-88.4743"
    - name: Lima
      region: IL
      lat: '40.1767'
      long: "-91.3783"
    - name: Limestone
      region: IL
      lat: '41.1337'
      long: "-87.9599"
    - name: Lincoln
      region: IL
      lat: '40.1508'
      long: "-89.3720"
    - name: Lincolnshire
      region: IL
      lat: '42.1958'
      long: "-87.9182"
    - name: Lincolnwood
      region: IL
      lat: '42.0054'
      long: "-87.7330"
    - name: Lindenhurst
      region: IL
      lat: '42.4175'
      long: "-88.0257"
    - name: Lisbon
      region: IL
      lat: '41.4807'
      long: "-88.4559"
    - name: Lisle
      region: IL
      lat: '41.7918'
      long: "-88.0888"
    - name: Litchfield
      region: IL
      lat: '39.1954'
      long: "-89.6300"
    - name: Literberry
      region: IL
      lat: '39.8516'
      long: "-90.1978"
    - name: Little York
      region: IL
      lat: '41.0109'
      long: "-90.7472"
    - name: Littleton
      region: IL
      lat: '40.2340'
      long: "-90.6223"
    - name: Liverpool
      region: IL
      lat: '40.3901'
      long: "-90.0023"
    - name: Livingston
      region: IL
      lat: '38.9684'
      long: "-89.7641"
    - name: Loami
      region: IL
      lat: '39.6748'
      long: "-89.8473"
    - name: Lockport
      region: IL
      lat: '41.5906'
      long: "-88.0293"
    - name: Lockport Heights
      region: IL
      lat: '41.6215'
      long: "-88.0224"
    - name: Loda
      region: IL
      lat: '40.5160'
      long: "-88.0756"
    - name: Lomax
      region: IL
      lat: '40.6792'
      long: "-91.0754"
    - name: Lombard
      region: IL
      lat: '41.8741'
      long: "-88.0157"
    - name: London Mills
      region: IL
      lat: '40.7106'
      long: "-90.2661"
    - name: Long Creek
      region: IL
      lat: '39.8053'
      long: "-88.8474"
    - name: Long Grove
      region: IL
      lat: '42.1967'
      long: "-88.0058"
    - name: Long Lake
      region: IL
      lat: '42.3758'
      long: "-88.1276"
    - name: Long Point
      region: IL
      lat: '41.0050'
      long: "-88.8926"
    - name: Longview
      region: IL
      lat: '39.8859'
      long: "-88.0662"
    - name: Loraine
      region: IL
      lat: '40.1525'
      long: "-91.2215"
    - name: Lorenzo
      region: IL
      lat: '41.3457'
      long: "-88.2222"
    - name: Lost Nation
      region: IL
      lat: '41.9125'
      long: "-89.3690"
    - name: Lostant
      region: IL
      lat: '41.1252'
      long: "-89.0668"
    - name: Louisville
      region: IL
      lat: '38.7695'
      long: "-88.5067"
    - name: Loves Park
      region: IL
      lat: '42.3364'
      long: "-88.9975"
    - name: Lovington
      region: IL
      lat: '39.7151'
      long: "-88.6337"
    - name: Lowpoint
      region: IL
      lat: '40.8729'
      long: "-89.3138"
    - name: Ludlow
      region: IL
      lat: '40.3866'
      long: "-88.1259"
    - name: Lyndon
      region: IL
      lat: '41.7174'
      long: "-89.9240"
    - name: Lynn Center
      region: IL
      lat: '41.2945'
      long: "-90.3592"
    - name: Lynnville
      region: IL
      lat: '39.6858'
      long: "-90.3459"
    - name: Lynwood
      region: IL
      lat: '41.5235'
      long: "-87.5510"
    - name: Lyons
      region: IL
      lat: '41.8119'
      long: "-87.8191"
    - name: Macedonia
      region: IL
      lat: '38.0525'
      long: "-88.7054"
    - name: Machesney Park
      region: IL
      lat: '42.3666'
      long: "-89.0266"
    - name: Mackinaw
      region: IL
      lat: '40.5341'
      long: "-89.3550"
    - name: Macomb
      region: IL
      lat: '40.4709'
      long: "-90.6807"
    - name: Macon
      region: IL
      lat: '39.7117'
      long: "-88.9965"
    - name: Madison
      region: IL
      lat: '38.7024'
      long: "-90.1501"
    - name: Maeystown
      region: IL
      lat: '38.2267'
      long: "-90.2331"
    - name: Magnolia
      region: IL
      lat: '41.1141'
      long: "-89.1958"
    - name: Mahomet
      region: IL
      lat: '40.1888'
      long: "-88.3901"
    - name: Makanda
      region: IL
      lat: '37.6210'
      long: "-89.2357"
    - name: Malden
      region: IL
      lat: '41.4249'
      long: "-89.3698"
    - name: Malta
      region: IL
      lat: '41.9291'
      long: "-88.8669"
    - name: Manchester
      region: IL
      lat: '39.5423'
      long: "-90.3303"
    - name: Manhattan
      region: IL
      lat: '41.4274'
      long: "-87.9805"
    - name: Manito
      region: IL
      lat: '40.4201'
      long: "-89.7806"
    - name: Manlius
      region: IL
      lat: '41.4557'
      long: "-89.6692"
    - name: Mansfield
      region: IL
      lat: '40.2125'
      long: "-88.5084"
    - name: Manteno
      region: IL
      lat: '41.2470'
      long: "-87.8457"
    - name: Maple Park
      region: IL
      lat: '41.9095'
      long: "-88.6076"
    - name: Mapleton
      region: IL
      lat: '40.5731'
      long: "-89.7248"
    - name: Maquon
      region: IL
      lat: '40.7980'
      long: "-90.1632"
    - name: Marcelline
      region: IL
      lat: '40.1185'
      long: "-91.3683"
    - name: Marengo
      region: IL
      lat: '42.2299'
      long: "-88.6163"
    - name: Marietta
      region: IL
      lat: '40.4995'
      long: "-90.3931"
    - name: Marine
      region: IL
      lat: '38.7868'
      long: "-89.7789"
    - name: Marion
      region: IL
      lat: '37.7345'
      long: "-88.9420"
    - name: Marissa
      region: IL
      lat: '38.2501'
      long: "-89.7746"
    - name: Mark
      region: IL
      lat: '41.2623'
      long: "-89.2551"
    - name: Markham
      region: IL
      lat: '41.6000'
      long: "-87.6904"
    - name: Marley
      region: IL
      lat: '41.5482'
      long: "-87.9260"
    - name: Maroa
      region: IL
      lat: '40.0365'
      long: "-88.9561"
    - name: Marquette Heights
      region: IL
      lat: '40.6184'
      long: "-89.6048"
    - name: Marseilles
      region: IL
      lat: '41.3099'
      long: "-88.6850"
    - name: Marshall
      region: IL
      lat: '39.3986'
      long: "-87.6900"
    - name: Martinsville
      region: IL
      lat: '39.3381'
      long: "-87.8814"
    - name: Martinton
      region: IL
      lat: '40.9153'
      long: "-87.7264"
    - name: Maryville
      region: IL
      lat: '38.7264'
      long: "-89.9647"
    - name: Mascoutah
      region: IL
      lat: '38.5192'
      long: "-89.8045"
    - name: Mason
      region: IL
      lat: '38.9537'
      long: "-88.6257"
    - name: Mason City
      region: IL
      lat: '40.2022'
      long: "-89.6974"
    - name: Matherville
      region: IL
      lat: '41.2594'
      long: "-90.6055"
    - name: Matteson
      region: IL
      lat: '41.5095'
      long: "-87.7468"
    - name: Mattoon
      region: IL
      lat: '39.4774'
      long: "-88.3623"
    - name: Maunie
      region: IL
      lat: '38.0355'
      long: "-88.0456"
    - name: Maywood
      region: IL
      lat: '41.8798'
      long: "-87.8442"
    - name: Mazon
      region: IL
      lat: '41.2417'
      long: "-88.4231"
    - name: McClure
      region: IL
      lat: '37.3146'
      long: "-89.4335"
    - name: McCook
      region: IL
      lat: '41.7959'
      long: "-87.8411"
    - name: McCullom Lake
      region: IL
      lat: '42.3680'
      long: "-88.2965"
    - name: McHenry
      region: IL
      lat: '42.3387'
      long: "-88.2932"
    - name: McLean
      region: IL
      lat: '40.3136'
      long: "-89.1686"
    - name: McLeansboro
      region: IL
      lat: '38.0902'
      long: "-88.5388"
    - name: McNabb
      region: IL
      lat: '41.1770'
      long: "-89.2096"
    - name: Mechanicsburg
      region: IL
      lat: '39.8021'
      long: "-89.4067"
    - name: Media
      region: IL
      lat: '40.7694'
      long: "-90.8327"
    - name: Medora
      region: IL
      lat: '39.1765'
      long: "-90.1414"
    - name: Melrose Park
      region: IL
      lat: '41.9030'
      long: "-87.8636"
    - name: Melvin
      region: IL
      lat: '40.5709'
      long: "-88.2471"
    - name: Mendon
      region: IL
      lat: '40.0892'
      long: "-91.2858"
    - name: Mendota
      region: IL
      lat: '41.5553'
      long: "-89.1041"
    - name: Menominee
      region: IL
      lat: '42.4747'
      long: "-90.5429"
    - name: Meredosia
      region: IL
      lat: '39.8308'
      long: "-90.5569"
    - name: Merrionette Park
      region: IL
      lat: '41.6812'
      long: "-87.7012"
    - name: Merritt
      region: IL
      lat: '39.7151'
      long: "-90.4154"
    - name: Metamora
      region: IL
      lat: '40.7951'
      long: "-89.3672"
    - name: Metcalf
      region: IL
      lat: '39.8004'
      long: "-87.8078"
    - name: Metropolis
      region: IL
      lat: '37.1565'
      long: "-88.7082"
    - name: Mettawa
      region: IL
      lat: '42.2445'
      long: "-87.9197"
    - name: Meyer
      region: IL
      lat: '40.1477'
      long: "-91.5031"
    - name: Middletown
      region: IL
      lat: '40.0994'
      long: "-89.5903"
    - name: Midlothian
      region: IL
      lat: '41.6254'
      long: "-87.7243"
    - name: Milan
      region: IL
      lat: '41.4415'
      long: "-90.5593"
    - name: Milford
      region: IL
      lat: '40.6278'
      long: "-87.6963"
    - name: Mill Creek
      region: IL
      lat: '37.3411'
      long: "-89.2535"
    - name: Mill Shoals
      region: IL
      lat: '38.2495'
      long: "-88.3457"
    - name: Millbrook
      region: IL
      lat: '41.6071'
      long: "-88.5454"
    - name: Milledgeville
      region: IL
      lat: '41.9636'
      long: "-89.7747"
    - name: Millersburg
      region: IL
      lat: '41.2403'
      long: "-90.8186"
    - name: Millington
      region: IL
      lat: '41.5623'
      long: "-88.6024"
    - name: Millstadt
      region: IL
      lat: '38.4579'
      long: "-90.0834"
    - name: Milton
      region: IL
      lat: '39.5646'
      long: "-90.6499"
    - name: Mineral
      region: IL
      lat: '41.3837'
      long: "-89.8383"
    - name: Minier
      region: IL
      lat: '40.4336'
      long: "-89.3139"
    - name: Minonk
      region: IL
      lat: '40.9104'
      long: "-89.0381"
    - name: Minooka
      region: IL
      lat: '41.4507'
      long: "-88.2791"
    - name: Mitchell
      region: IL
      lat: '38.7631'
      long: "-90.0816"
    - name: Modesto
      region: IL
      lat: '39.4789'
      long: "-89.9803"
    - name: Mokena
      region: IL
      lat: '41.5327'
      long: "-87.8781"
    - name: Moline
      region: IL
      lat: '41.4821'
      long: "-90.4920"
    - name: Momence
      region: IL
      lat: '41.1640'
      long: "-87.6630"
    - name: Monee
      region: IL
      lat: '41.4181'
      long: "-87.7502"
    - name: Monmouth
      region: IL
      lat: '40.9140'
      long: "-90.6425"
    - name: Monroe Center
      region: IL
      lat: '42.1003'
      long: "-88.9941"
    - name: Montgomery
      region: IL
      lat: '41.7237'
      long: "-88.3633"
    - name: Monticello
      region: IL
      lat: '40.0342'
      long: "-88.5728"
    - name: Montrose
      region: IL
      lat: '39.1660'
      long: "-88.3781"
    - name: Moro
      region: IL
      lat: '38.9252'
      long: "-90.0262"
    - name: Morris
      region: IL
      lat: '41.3749'
      long: "-88.4304"
    - name: Morrison
      region: IL
      lat: '41.8076'
      long: "-89.9616"
    - name: Morrisonville
      region: IL
      lat: '39.4217'
      long: "-89.4590"
    - name: Morton
      region: IL
      lat: '40.6135'
      long: "-89.4669"
    - name: Morton Grove
      region: IL
      lat: '42.0423'
      long: "-87.7890"
    - name: Mossville
      region: IL
      lat: '40.8164'
      long: "-89.5707"
    - name: Mound City
      region: IL
      lat: '37.0854'
      long: "-89.1628"
    - name: Mound Station
      region: IL
      lat: '40.0066'
      long: "-90.8737"
    - name: Mounds
      region: IL
      lat: '37.1145'
      long: "-89.2023"
    - name: Mount Auburn
      region: IL
      lat: '39.7649'
      long: "-89.2608"
    - name: Mount Carmel
      region: IL
      lat: '38.4187'
      long: "-87.7695"
    - name: Mount Carroll
      region: IL
      lat: '42.0948'
      long: "-89.9770"
    - name: Mount Clare
      region: IL
      lat: '39.1003'
      long: "-89.8252"
    - name: Mount Erie
      region: IL
      lat: '38.5146'
      long: "-88.2325"
    - name: Mount Morris
      region: IL
      lat: '42.0484'
      long: "-89.4294"
    - name: Mount Olive
      region: IL
      lat: '39.0726'
      long: "-89.7277"
    - name: Mount Prospect
      region: IL
      lat: '42.0641'
      long: "-87.9375"
    - name: Mount Pulaski
      region: IL
      lat: '40.0102'
      long: "-89.2839"
    - name: Mount Sterling
      region: IL
      lat: '39.9853'
      long: "-90.7642"
    - name: Mount Vernon
      region: IL
      lat: '38.3140'
      long: "-88.9174"
    - name: Mount Zion
      region: IL
      lat: '39.7793'
      long: "-88.8834"
    - name: Moweaqua
      region: IL
      lat: '39.6265'
      long: "-89.0187"
    - name: Muddy
      region: IL
      lat: '37.7653'
      long: "-88.5139"
    - name: Mulberry Grove
      region: IL
      lat: '38.9245'
      long: "-89.2662"
    - name: Mulkeytown
      region: IL
      lat: '37.9721'
      long: "-89.1112"
    - name: Muncie
      region: IL
      lat: '40.1161'
      long: "-87.8431"
    - name: Mundelein
      region: IL
      lat: '42.2693'
      long: "-88.0102"
    - name: Murphysboro
      region: IL
      lat: '37.7678'
      long: "-89.3324"
    - name: Murrayville
      region: IL
      lat: '39.5817'
      long: "-90.2518"
    - name: Nachusa
      region: IL
      lat: '41.8339'
      long: "-89.3858"
    - name: Naperville
      region: IL
      lat: '41.7480'
      long: "-88.1659"
    - name: Naplate
      region: IL
      lat: '41.3316'
      long: "-88.8802"
    - name: Naples
      region: IL
      lat: '39.7534'
      long: "-90.6069"
    - name: Nashville
      region: IL
      lat: '38.3541'
      long: "-89.3770"
    - name: Nason
      region: IL
      lat: '38.1760'
      long: "-88.9663"
    - name: Nauvoo
      region: IL
      lat: '40.5457'
      long: "-91.3829"
    - name: Nebo
      region: IL
      lat: '39.4421'
      long: "-90.7882"
    - name: Nekoma
      region: IL
      lat: '41.1719'
      long: "-90.1910"
    - name: Nelson
      region: IL
      lat: '41.7963'
      long: "-89.6032"
    - name: Neoga
      region: IL
      lat: '39.3215'
      long: "-88.4502"
    - name: Neponset
      region: IL
      lat: '41.2968'
      long: "-89.7894"
    - name: New Athens
      region: IL
      lat: '38.3188'
      long: "-89.8743"
    - name: New Baden
      region: IL
      lat: '38.5367'
      long: "-89.7071"
    - name: New Bedford
      region: IL
      lat: '41.5114'
      long: "-89.7181"
    - name: New Berlin
      region: IL
      lat: '39.7261'
      long: "-89.9143"
    - name: New Boston
      region: IL
      lat: '41.1698'
      long: "-90.9998"
    - name: New Burnside
      region: IL
      lat: '37.5787'
      long: "-88.7727"
    - name: New Canton
      region: IL
      lat: '39.6371'
      long: "-91.0983"
    - name: New Douglas
      region: IL
      lat: '38.9697'
      long: "-89.6665"
    - name: New Grand Chain
      region: IL
      lat: '37.2552'
      long: "-89.0165"
    - name: New Haven
      region: IL
      lat: '37.9024'
      long: "-88.1279"
    - name: New Holland
      region: IL
      lat: '40.1835'
      long: "-89.5825"
    - name: New Lenox
      region: IL
      lat: '41.5095'
      long: "-87.9703"
    - name: New Milford
      region: IL
      lat: '42.1750'
      long: "-89.0569"
    - name: New Minden
      region: IL
      lat: '38.4380'
      long: "-89.3705"
    - name: New Salem
      region: IL
      lat: '39.7076'
      long: "-90.8479"
    - name: Newark
      region: IL
      lat: '41.5368'
      long: "-88.5803"
    - name: Newman
      region: IL
      lat: '39.7970'
      long: "-87.9878"
    - name: Newton
      region: IL
      lat: '38.9872'
      long: "-88.1643"
    - name: Niantic
      region: IL
      lat: '39.8541'
      long: "-89.1653"
    - name: Niles
      region: IL
      lat: '42.0278'
      long: "-87.8099"
    - name: Nilwood
      region: IL
      lat: '39.3995'
      long: "-89.8077"
    - name: Niota
      region: IL
      lat: '40.6155'
      long: "-91.2880"
    - name: Noble
      region: IL
      lat: '38.6974'
      long: "-88.2232"
    - name: Nokomis
      region: IL
      lat: '39.3002'
      long: "-89.2851"
    - name: Nora
      region: IL
      lat: '42.4565'
      long: "-89.9459"
    - name: Normal
      region: IL
      lat: '40.5217'
      long: "-88.9884"
    - name: Norridge
      region: IL
      lat: '41.9637'
      long: "-87.8231"
    - name: Norris
      region: IL
      lat: '40.6258'
      long: "-90.0321"
    - name: Norris City
      region: IL
      lat: '37.9790'
      long: "-88.3279"
    - name: North Aurora
      region: IL
      lat: '41.8086'
      long: "-88.3414"
    - name: North Barrington
      region: IL
      lat: '42.2065'
      long: "-88.1316"
    - name: North Chicago
      region: IL
      lat: '42.3172'
      long: "-87.8595"
    - name: North City
      region: IL
      lat: '37.9918'
      long: "-89.0635"
    - name: North Henderson
      region: IL
      lat: '41.0904'
      long: "-90.4748"
    - name: North Pekin
      region: IL
      lat: '40.6114'
      long: "-89.6225"
    - name: North Riverside
      region: IL
      lat: '41.8461'
      long: "-87.8263"
    - name: North Utica
      region: IL
      lat: '41.3536'
      long: "-89.0109"
    - name: Northbrook
      region: IL
      lat: '42.1292'
      long: "-87.8352"
    - name: Northfield
      region: IL
      lat: '42.1025'
      long: "-87.7791"
    - name: Northlake
      region: IL
      lat: '41.9142'
      long: "-87.9054"
    - name: Norwood
      region: IL
      lat: '40.7078'
      long: "-89.6995"
    - name: O'Fallon
      region: IL
      lat: '38.5974'
      long: "-89.9148"
    - name: Oak Brook
      region: IL
      lat: '41.8373'
      long: "-87.9516"
    - name: Oak Forest
      region: IL
      lat: '41.6054'
      long: "-87.7527"
    - name: Oak Grove
      region: IL
      lat: '41.4120'
      long: "-90.5742"
    - name: Oak Lawn
      region: IL
      lat: '41.7139'
      long: "-87.7528"
    - name: Oak Park
      region: IL
      lat: '41.8872'
      long: "-87.7899"
    - name: Oak Run
      region: IL
      lat: '40.9635'
      long: "-90.1331"
    - name: Oakbrook Terrace
      region: IL
      lat: '41.8538'
      long: "-87.9691"
    - name: Oakdale
      region: IL
      lat: '38.2648'
      long: "-89.5035"
    - name: Oakford
      region: IL
      lat: '40.1011'
      long: "-89.9652"
    - name: Oakland
      region: IL
      lat: '39.6574'
      long: "-88.0275"
    - name: Oakwood
      region: IL
      lat: '40.1101'
      long: "-87.7769"
    - name: Oakwood Hills
      region: IL
      lat: '42.2478'
      long: "-88.2401"
    - name: Oblong
      region: IL
      lat: '39.0022'
      long: "-87.9107"
    - name: Oconee
      region: IL
      lat: '39.2863'
      long: "-89.1066"
    - name: Odell
      region: IL
      lat: '41.0023'
      long: "-88.5230"
    - name: Odin
      region: IL
      lat: '38.6159'
      long: "-89.0541"
    - name: Ogden
      region: IL
      lat: '40.1150'
      long: "-87.9563"
    - name: Oglesby
      region: IL
      lat: '41.2932'
      long: "-89.0710"
    - name: Ohio
      region: IL
      lat: '41.5560'
      long: "-89.4599"
    - name: Ohlman
      region: IL
      lat: '39.3433'
      long: "-89.2186"
    - name: Okawville
      region: IL
      lat: '38.4344'
      long: "-89.5480"
    - name: Old Mill Creek
      region: IL
      lat: '42.4321'
      long: "-87.9786"
    - name: Old Ripley
      region: IL
      lat: '38.8927'
      long: "-89.5722"
    - name: Old Shawneetown
      region: IL
      lat: '37.6971'
      long: "-88.1387"
    - name: Olive Branch
      region: IL
      lat: '37.1757'
      long: "-89.3525"
    - name: Olivet
      region: IL
      lat: '39.9461'
      long: "-87.6396"
    - name: Olmsted
      region: IL
      lat: '37.1827'
      long: "-89.0849"
    - name: Olney
      region: IL
      lat: '38.7285'
      long: "-88.0839"
    - name: Olympia Fields
      region: IL
      lat: '41.5170'
      long: "-87.6924"
    - name: Omaha
      region: IL
      lat: '37.8901'
      long: "-88.3053"
    - name: Onarga
      region: IL
      lat: '40.7153'
      long: "-88.0108"
    - name: Oneida
      region: IL
      lat: '41.0722'
      long: "-90.2247"
    - name: Opdyke
      region: IL
      lat: '38.2583'
      long: "-88.7898"
    - name: Ophiem
      region: IL
      lat: '41.2538'
      long: "-90.3827"
    - name: Oquawka
      region: IL
      lat: '40.9379'
      long: "-90.9499"
    - name: Orangeville
      region: IL
      lat: '42.4659'
      long: "-89.6469"
    - name: Oreana
      region: IL
      lat: '39.9379'
      long: "-88.8684"
    - name: Oregon
      region: IL
      lat: '42.0132'
      long: "-89.3354"
    - name: Orient
      region: IL
      lat: '37.9176'
      long: "-88.9773"
    - name: Orion
      region: IL
      lat: '41.3514'
      long: "-90.3762"
    - name: Orland Hills
      region: IL
      lat: '41.5905'
      long: "-87.8414"
    - name: Orland Park
      region: IL
      lat: '41.6075'
      long: "-87.8619"
    - name: Osco
      region: IL
      lat: '41.3465'
      long: "-90.2827"
    - name: Oswego
      region: IL
      lat: '41.6834'
      long: "-88.3372"
    - name: Ottawa
      region: IL
      lat: '41.3555'
      long: "-88.8261"
    - name: Otterville
      region: IL
      lat: '39.0508'
      long: "-90.3984"
    - name: Owaneco
      region: IL
      lat: '39.4815'
      long: "-89.1950"
    - name: Oxville
      region: IL
      lat: '39.7054'
      long: "-90.5604"
    - name: Paderborn
      region: IL
      lat: '38.3595'
      long: "-90.0465"
    - name: Palatine
      region: IL
      lat: '42.1180'
      long: "-88.0430"
    - name: Palestine
      region: IL
      lat: '39.0016'
      long: "-87.6125"
    - name: Palmer
      region: IL
      lat: '39.4587'
      long: "-89.4079"
    - name: Palmyra
      region: IL
      lat: '39.4345'
      long: "-89.9959"
    - name: Paloma
      region: IL
      lat: '40.0238'
      long: "-91.1940"
    - name: Palos Heights
      region: IL
      lat: '41.6637'
      long: "-87.7958"
    - name: Palos Hills
      region: IL
      lat: '41.6986'
      long: "-87.8266"
    - name: Palos Park
      region: IL
      lat: '41.6679'
      long: "-87.8891"
    - name: Pana
      region: IL
      lat: '39.3829'
      long: "-89.0642"
    - name: Panama
      region: IL
      lat: '39.0290'
      long: "-89.5246"
    - name: Panola
      region: IL
      lat: '40.7829'
      long: "-89.0203"
    - name: Papineau
      region: IL
      lat: '40.9678'
      long: "-87.7163"
    - name: Paris
      region: IL
      lat: '39.6148'
      long: "-87.6903"
    - name: Park City
      region: IL
      lat: '42.3521'
      long: "-87.8914"
    - name: Park Forest
      region: IL
      lat: '41.4817'
      long: "-87.6867"
    - name: Park Ridge
      region: IL
      lat: '42.0125'
      long: "-87.8436"
    - name: Parkersburg
      region: IL
      lat: '38.5891'
      long: "-88.0568"
    - name: Patoka
      region: IL
      lat: '38.7540'
      long: "-89.0958"
    - name: Paw Paw
      region: IL
      lat: '41.6877'
      long: "-88.9800"
    - name: Pawnee
      region: IL
      lat: '39.5937'
      long: "-89.5846"
    - name: Paxton
      region: IL
      lat: '40.4563'
      long: "-88.1020"
    - name: Payson
      region: IL
      lat: '39.8169'
      long: "-91.2443"
    - name: Pearl
      region: IL
      lat: '39.4597'
      long: "-90.6237"
    - name: Pearl City
      region: IL
      lat: '42.2668'
      long: "-89.8271"
    - name: Pecatonica
      region: IL
      lat: '42.3086'
      long: "-89.3577"
    - name: Pekin
      region: IL
      lat: '40.5678'
      long: "-89.6251"
    - name: Penfield
      region: IL
      lat: '40.3047'
      long: "-87.9443"
    - name: Peoria
      region: IL
      lat: '40.7520'
      long: "-89.6154"
    - name: Peoria Heights
      region: IL
      lat: '40.7466'
      long: "-89.5700"
    - name: Peotone
      region: IL
      lat: '41.3308'
      long: "-87.7956"
    - name: Percy
      region: IL
      lat: '38.0153'
      long: "-89.6188"
    - name: Perry
      region: IL
      lat: '39.7821'
      long: "-90.7474"
    - name: Peru
      region: IL
      lat: '41.3482'
      long: "-89.1371"
    - name: Pesotum
      region: IL
      lat: '39.9130'
      long: "-88.2744"
    - name: Petersburg
      region: IL
      lat: '40.0143'
      long: "-89.8452"
    - name: Phillipstown
      region: IL
      lat: '38.1429'
      long: "-88.0181"
    - name: Philo
      region: IL
      lat: '40.0033'
      long: "-88.1563"
    - name: Phoenix
      region: IL
      lat: '41.6118'
      long: "-87.6308"
    - name: Pierron
      region: IL
      lat: '38.7772'
      long: "-89.5645"
    - name: Pinckneyville
      region: IL
      lat: '38.0851'
      long: "-89.3717"
    - name: Pingree Grove
      region: IL
      lat: '42.0855'
      long: "-88.4358"
    - name: Piper City
      region: IL
      lat: '40.7562'
      long: "-88.1890"
    - name: Pistakee Highlands
      region: IL
      lat: '42.4023'
      long: "-88.2115"
    - name: Pittsburg
      region: IL
      lat: '37.7771'
      long: "-88.8499"
    - name: Pittsfield
      region: IL
      lat: '39.6201'
      long: "-90.7936"
    - name: Plainfield
      region: IL
      lat: '41.6207'
      long: "-88.2253"
    - name: Plainville
      region: IL
      lat: '39.7848'
      long: "-91.1815"
    - name: Plano
      region: IL
      lat: '41.6757'
      long: "-88.5293"
    - name: Plattville
      region: IL
      lat: '41.5343'
      long: "-88.3835"
    - name: Pleasant Hill
      region: IL
      lat: '39.4432'
      long: "-90.8730"
    - name: Pleasant Plains
      region: IL
      lat: '39.8747'
      long: "-89.9183"
    - name: Plum Valley
      region: IL
      lat: '41.4611'
      long: "-87.5442"
    - name: Plymouth
      region: IL
      lat: '40.2922'
      long: "-90.9162"
    - name: Pocahontas
      region: IL
      lat: '38.8234'
      long: "-89.5394"
    - name: Polo
      region: IL
      lat: '41.9847'
      long: "-89.5791"
    - name: Pontiac
      region: IL
      lat: '40.8894'
      long: "-88.6409"
    - name: Pontoon Beach
      region: IL
      lat: '38.7208'
      long: "-90.0609"
    - name: Pontoosuc
      region: IL
      lat: '40.6284'
      long: "-91.2112"
    - name: Poplar Grove
      region: IL
      lat: '42.3517'
      long: "-88.8353"
    - name: Port Barrington
      region: IL
      lat: '42.2441'
      long: "-88.1947"
    - name: Port Byron
      region: IL
      lat: '41.6160'
      long: "-90.3280"
    - name: Posen
      region: IL
      lat: '41.6290'
      long: "-87.6859"
    - name: Potomac
      region: IL
      lat: '40.3067'
      long: "-87.7977"
    - name: Prairie City
      region: IL
      lat: '40.6210'
      long: "-90.4649"
    - name: Prairie Grove
      region: IL
      lat: '42.2770'
      long: "-88.2695"
    - name: Prairie du Rocher
      region: IL
      lat: '38.0816'
      long: "-90.0977"
    - name: Prairietown
      region: IL
      lat: '38.9665'
      long: "-89.9234"
    - name: Preemption
      region: IL
      lat: '41.3131'
      long: "-90.5787"
    - name: Prestbury
      region: IL
      lat: '41.7848'
      long: "-88.4225"
    - name: Preston Heights
      region: IL
      lat: '41.4951'
      long: "-88.0809"
    - name: Princeton
      region: IL
      lat: '41.3807'
      long: "-89.4640"
    - name: Princeville
      region: IL
      lat: '40.9348'
      long: "-89.7547"
    - name: Prophetstown
      region: IL
      lat: '41.6702'
      long: "-89.9348"
    - name: Prospect Heights
      region: IL
      lat: '42.1039'
      long: "-87.9267"
    - name: Pulaski
      region: IL
      lat: '37.2163'
      long: "-89.2078"
    - name: Quincy
      region: IL
      lat: '39.9336'
      long: "-91.3799"
    - name: Radom
      region: IL
      lat: '38.2798'
      long: "-89.1922"
    - name: Raleigh
      region: IL
      lat: '37.8262'
      long: "-88.5304"
    - name: Ramsey
      region: IL
      lat: '39.1457'
      long: "-89.1103"
    - name: Rankin
      region: IL
      lat: '40.4645'
      long: "-87.8959"
    - name: Ransom
      region: IL
      lat: '41.1586'
      long: "-88.6542"
    - name: Rantoul
      region: IL
      lat: '40.3031'
      long: "-88.1549"
    - name: Rapids City
      region: IL
      lat: '41.5786'
      long: "-90.3399"
    - name: Raritan
      region: IL
      lat: '40.6958'
      long: "-90.8251"
    - name: Raymond
      region: IL
      lat: '39.3198'
      long: "-89.5745"
    - name: Red Bud
      region: IL
      lat: '38.2096'
      long: "-89.9989"
    - name: Reddick
      region: IL
      lat: '41.0985'
      long: "-88.2486"
    - name: Redmon
      region: IL
      lat: '39.6448'
      long: "-87.8616"
    - name: Rentchler
      region: IL
      lat: '38.4926'
      long: "-89.8686"
    - name: Rest Haven
      region: IL
      lat: '41.2577'
      long: "-88.1311"
    - name: Reynolds
      region: IL
      lat: '41.3319'
      long: "-90.6723"
    - name: Richfield
      region: IL
      lat: '39.8127'
      long: "-91.1146"
    - name: Richmond
      region: IL
      lat: '42.4639'
      long: "-88.3093"
    - name: Richton Park
      region: IL
      lat: '41.4816'
      long: "-87.7387"
    - name: Richview
      region: IL
      lat: '38.3758'
      long: "-89.1803"
    - name: Ridge Farm
      region: IL
      lat: '39.8957'
      long: "-87.6520"
    - name: Ridgefield
      region: IL
      lat: '42.2707'
      long: "-88.3620"
    - name: Ridgewood
      region: IL
      lat: '41.5340'
      long: "-88.0436"
    - name: Ridgway
      region: IL
      lat: '37.7979'
      long: "-88.2606"
    - name: Ridott
      region: IL
      lat: '42.2967'
      long: "-89.4771"
    - name: Riggston
      region: IL
      lat: '39.6944'
      long: "-90.4234"
    - name: Riley
      region: IL
      lat: '42.1929'
      long: "-88.6287"
    - name: Ringwood
      region: IL
      lat: '42.3973'
      long: "-88.3040"
    - name: Rio
      region: IL
      lat: '41.1093'
      long: "-90.3988"
    - name: Ripley
      region: IL
      lat: '40.0252'
      long: "-90.6379"
    - name: Ritchie
      region: IL
      lat: '41.2557'
      long: "-88.1158"
    - name: River Forest
      region: IL
      lat: '41.8950'
      long: "-87.8194"
    - name: River Grove
      region: IL
      lat: '41.9243'
      long: "-87.8379"
    - name: Riverdale
      region: IL
      lat: '41.6441'
      long: "-87.6366"
    - name: Riverside
      region: IL
      lat: '41.8310'
      long: "-87.8169"
    - name: Riverton
      region: IL
      lat: '39.8456'
      long: "-89.5363"
    - name: Riverwoods
      region: IL
      lat: '42.1723'
      long: "-87.8951"
    - name: Roanoke
      region: IL
      lat: '40.7968'
      long: "-89.2023"
    - name: Robbins
      region: IL
      lat: '41.6431'
      long: "-87.7081"
    - name: Roberts
      region: IL
      lat: '40.6148'
      long: "-88.1841"
    - name: Robinson
      region: IL
      lat: '39.0089'
      long: "-87.7333"
    - name: Rochelle
      region: IL
      lat: '41.9197'
      long: "-89.0629"
    - name: Rochester
      region: IL
      lat: '39.7488'
      long: "-89.5436"
    - name: Rock City
      region: IL
      lat: '42.4129'
      long: "-89.4715"
    - name: Rock Falls
      region: IL
      lat: '41.7724'
      long: "-89.6928"
    - name: Rock Island
      region: IL
      lat: '41.4699'
      long: "-90.5827"
    - name: Rock Island Arsenal
      region: IL
      lat: '41.5169'
      long: "-90.5409"
    - name: Rockbridge
      region: IL
      lat: '39.2693'
      long: "-90.2065"
    - name: Rockdale
      region: IL
      lat: '41.5048'
      long: "-88.1248"
    - name: Rockford
      region: IL
      lat: '42.2596'
      long: "-89.0640"
    - name: Rockport
      region: IL
      lat: '39.5391'
      long: "-91.0128"
    - name: Rockton
      region: IL
      lat: '42.4445'
      long: "-89.0634"
    - name: Rockwood
      region: IL
      lat: '37.8404'
      long: "-89.6968"
    - name: Rolling Meadows
      region: IL
      lat: '42.0747'
      long: "-88.0252"
    - name: Rome
      region: IL
      lat: '40.8754'
      long: "-89.5129"
    - name: Romeoville
      region: IL
      lat: '41.6318'
      long: "-88.0997"
    - name: Roodhouse
      region: IL
      lat: '39.4840'
      long: "-90.3740"
    - name: Roscoe
      region: IL
      lat: '42.4256'
      long: "-89.0084"
    - name: Rose Hill
      region: IL
      lat: '39.1042'
      long: "-88.1497"
    - name: Roselle
      region: IL
      lat: '41.9809'
      long: "-88.0861"
    - name: Rosemont
      region: IL
      lat: '41.9890'
      long: "-87.8718"
    - name: Roseville
      region: IL
      lat: '40.7307'
      long: "-90.6638"
    - name: Rosewood Heights
      region: IL
      lat: '38.8885'
      long: "-90.0723"
    - name: Rosiclare
      region: IL
      lat: '37.4239'
      long: "-88.3501"
    - name: Rossville
      region: IL
      lat: '40.3814'
      long: "-87.6699"
    - name: Round Lake
      region: IL
      lat: '42.3435'
      long: "-88.1059"
    - name: Round Lake Beach
      region: IL
      lat: '42.3791'
      long: "-88.0811"
    - name: Round Lake Heights
      region: IL
      lat: '42.3855'
      long: "-88.1038"
    - name: Round Lake Park
      region: IL
      lat: '42.3309'
      long: "-88.0750"
    - name: Roxana
      region: IL
      lat: '38.8315'
      long: "-90.0464"
    - name: Royal
      region: IL
      lat: '40.1930'
      long: "-87.9721"
    - name: Royal Lakes
      region: IL
      lat: '39.1117'
      long: "-89.9607"
    - name: Royalton
      region: IL
      lat: '37.8773'
      long: "-89.1142"
    - name: Ruma
      region: IL
      lat: '38.1306'
      long: "-90.0004"
    - name: Rushville
      region: IL
      lat: '40.1199'
      long: "-90.5666"
    - name: Russellville
      region: IL
      lat: '38.8189'
      long: "-87.5300"
    - name: Rutland
      region: IL
      lat: '40.9838'
      long: "-89.0413"
    - name: Sadorus
      region: IL
      lat: '39.9669'
      long: "-88.3451"
    - name: Sailor Springs
      region: IL
      lat: '38.7645'
      long: "-88.3602"
    - name: Salem
      region: IL
      lat: '38.6279'
      long: "-88.9591"
    - name: Sammons Point
      region: IL
      lat: '41.0316'
      long: "-87.8593"
    - name: San Jose
      region: IL
      lat: '40.3051'
      long: "-89.6048"
    - name: Sandoval
      region: IL
      lat: '38.6121'
      long: "-89.1193"
    - name: Sandwich
      region: IL
      lat: '41.6497'
      long: "-88.6179"
    - name: Sauget
      region: IL
      lat: '38.5842'
      long: "-90.1608"
    - name: Sauk Village
      region: IL
      lat: '41.4906'
      long: "-87.5706"
    - name: Saunemin
      region: IL
      lat: '40.8931'
      long: "-88.4060"
    - name: Savanna
      region: IL
      lat: '42.0904'
      long: "-90.1395"
    - name: Savoy
      region: IL
      lat: '40.0600'
      long: "-88.2552"
    - name: Sawyerville
      region: IL
      lat: '39.0785'
      long: "-89.8020"
    - name: Saybrook
      region: IL
      lat: '40.4283'
      long: "-88.5266"
    - name: Scales Mound
      region: IL
      lat: '42.4750'
      long: "-90.2525"
    - name: Schaumburg
      region: IL
      lat: '42.0308'
      long: "-88.0838"
    - name: Schiller Park
      region: IL
      lat: '41.9586'
      long: "-87.8693"
    - name: Schram City
      region: IL
      lat: '39.1631'
      long: "-89.4609"
    - name: Sciota
      region: IL
      lat: '40.5626'
      long: "-90.7480"
    - name: Scott AFB
      region: IL
      lat: '38.5412'
      long: "-89.8530"
    - name: Scottville
      region: IL
      lat: '39.4777'
      long: "-90.1038"
    - name: Seaton
      region: IL
      lat: '41.1023'
      long: "-90.7991"
    - name: Seatonville
      region: IL
      lat: '41.3651'
      long: "-89.2728"
    - name: Secor
      region: IL
      lat: '40.7418'
      long: "-89.1350"
    - name: Seneca
      region: IL
      lat: '41.3209'
      long: "-88.5888"
    - name: Serena
      region: IL
      lat: '41.4871'
      long: "-88.7320"
    - name: Sesser
      region: IL
      lat: '38.0906'
      long: "-89.0510"
    - name: Seymour
      region: IL
      lat: '40.1068'
      long: "-88.4269"
    - name: Shabbona
      region: IL
      lat: '41.7654'
      long: "-88.8845"
    - name: Shannon
      region: IL
      lat: '42.1525'
      long: "-89.7402"
    - name: Shawneetown
      region: IL
      lat: '37.7157'
      long: "-88.1866"
    - name: Sheffield
      region: IL
      lat: '41.3580'
      long: "-89.7391"
    - name: Shelbyville
      region: IL
      lat: '39.4097'
      long: "-88.8005"
    - name: Sheldon
      region: IL
      lat: '40.7710'
      long: "-87.5657"
    - name: Sheridan
      region: IL
      lat: '41.5293'
      long: "-88.6804"
    - name: Sherman
      region: IL
      lat: '39.8876'
      long: "-89.6066"
    - name: Sherrard
      region: IL
      lat: '41.3109'
      long: "-90.4991"
    - name: Shiloh
      region: IL
      lat: '38.5534'
      long: "-89.9161"
    - name: Shipman
      region: IL
      lat: '39.1203'
      long: "-90.0452"
    - name: Shirley
      region: IL
      lat: '40.4075'
      long: "-89.0643"
    - name: Shorewood
      region: IL
      lat: '41.5169'
      long: "-88.2146"
    - name: Shumway
      region: IL
      lat: '39.1834'
      long: "-88.6532"
    - name: Sibley
      region: IL
      lat: '40.5874'
      long: "-88.3788"
    - name: Sidell
      region: IL
      lat: '39.9097'
      long: "-87.8236"
    - name: Sidney
      region: IL
      lat: '40.0250'
      long: "-88.0721"
    - name: Sigel
      region: IL
      lat: '39.2257'
      long: "-88.4945"
    - name: Silvis
      region: IL
