---
cities:
  us:
    ME:
    - name: Auburn
      region: ME
      lat: '44.0851'
      long: "-70.2492"
    - name: Augusta
      region: ME
      lat: '44.3341'
      long: "-69.7319"
    - name: Bangor
      region: ME
      lat: '44.8323'
      long: "-68.7906"
    - name: Bath
      region: ME
      lat: '43.9346'
      long: "-69.8346"
    - name: Belfast
      region: ME
      lat: '44.4279'
      long: "-69.0325"
    - name: Bethel
      region: ME
      lat: '44.4038'
      long: "-70.7863"
    - name: Biddeford
      region: ME
      lat: '43.4673'
      long: "-70.4511"
    - name: Bradley
      region: ME
      lat: '44.9127'
      long: "-68.6246"
    - name: Brewer
      region: ME
      lat: '44.7835'
      long: "-68.7352"
    - name: Brownville Junction
      region: ME
      lat: '45.3488'
      long: "-69.0555"
    - name: Calais
      region: ME
      lat: '45.1340'
      long: "-67.2240"
    - name: Cape Neddick
      region: ME
      lat: '43.1706'
      long: "-70.6220"
    - name: Caribou
      region: ME
      lat: '46.8662'
      long: "-67.9920"
    - name: Chisholm
      region: ME
      lat: '44.4916'
      long: "-70.1923"
    - name: Corinna
      region: ME
      lat: '44.9223'
      long: "-69.2628"
    - name: Cornish
      region: ME
      lat: '43.8005'
      long: "-70.7994"
    - name: Cousins Island
      region: ME
      lat: '43.7631'
      long: "-70.1409"
    - name: Cumberland Center
      region: ME
      lat: '43.7982'
      long: "-70.2541"
    - name: Danforth
      region: ME
      lat: '45.6595'
      long: "-67.8682"
    - name: Dunstan
      region: ME
      lat: '43.5691'
      long: "-70.3884"
    - name: Eastport
      region: ME
      lat: '44.9137'
      long: "-67.0183"
    - name: Ellsworth
      region: ME
      lat: '44.5847'
      long: "-68.4875"
    - name: Falmouth Foreside
      region: ME
      lat: '43.7348'
      long: "-70.2152"
    - name: Gardiner
      region: ME
      lat: '44.1910'
      long: "-69.7921"
    - name: Grand Isle
      region: ME
      lat: '47.3065'
      long: "-68.1552"
    - name: Greene
      region: ME
      lat: '44.1898'
      long: "-70.1418"
    - name: Hallowell
      region: ME
      lat: '44.2905'
      long: "-69.8140"
    - name: Island Falls
      region: ME
      lat: '46.0081'
      long: "-68.2648"
    - name: Jonesport
      region: ME
      lat: '44.5338'
      long: "-67.6152"
    - name: Kezar Falls
      region: ME
      lat: '43.8080'
      long: "-70.8831"
    - name: Kingfield
      region: ME
      lat: '44.9582'
      long: "-70.1592"
    - name: Kittery Point
      region: ME
      lat: '43.0883'
      long: "-70.6988"
    - name: Lake Arrowhead
      region: ME
      lat: '43.6634'
      long: "-70.7382"
    - name: Lewiston
      region: ME
      lat: '44.0915'
      long: "-70.1681"
    - name: Lisbon
      region: ME
      lat: '44.0289'
      long: "-70.1076"
    - name: Lisbon Falls
      region: ME
      lat: '44.0086'
      long: "-70.0571"
    - name: Little Falls
      region: ME
      lat: '43.7312'
      long: "-70.4301"
    - name: Littlejohn Island
      region: ME
      lat: '43.7599'
      long: "-70.1284"
    - name: Mattawamkeag
      region: ME
      lat: '45.5177'
      long: "-68.3523"
    - name: Milbridge
      region: ME
      lat: '44.5343'
      long: "-67.8903"
    - name: North Anson
      region: ME
      lat: '44.8614'
      long: "-69.8975"
    - name: North Windham
      region: ME
      lat: '43.8233'
      long: "-70.4293"
    - name: Northeast Harbor
      region: ME
      lat: '44.2936'
      long: "-68.2914"
    - name: Oakfield
      region: ME
      lat: '46.1020'
      long: "-68.1518"
    - name: Old Town
      region: ME
      lat: '44.9491'
      long: "-68.7249"
    - name: Patten
      region: ME
      lat: '46.0043'
      long: "-68.4427"
    - name: Portland
      region: ME
      lat: '43.6773'
      long: "-70.2715"
    - name: Presque Isle
      region: ME
      lat: '46.6868'
      long: "-67.9874"
    - name: Rangeley
      region: ME
      lat: '44.9643'
      long: "-70.6467"
    - name: Rockland
      region: ME
      lat: '44.1274'
      long: "-69.1369"
    - name: Sabattus
      region: ME
      lat: '44.1210'
      long: "-70.1070"
    - name: Saco
      region: ME
      lat: '43.5390'
      long: "-70.4624"
    - name: Sanford
      region: ME
      lat: '43.4244'
      long: "-70.7573"
    - name: South Berwick
      region: ME
      lat: '43.2321'
      long: "-70.7963"
    - name: South Eliot
      region: ME
      lat: '43.1287'
      long: "-70.7952"
    - name: South Paris
      region: ME
      lat: '44.2190'
      long: "-70.5113"
    - name: South Portland
      region: ME
      lat: '43.6310'
      long: "-70.2895"
    - name: South Windham
      region: ME
      lat: '43.7380'
      long: "-70.4236"
    - name: Steep Falls
      region: ME
      lat: '43.7905'
      long: "-70.6275"
    - name: Turner
      region: ME
      lat: '44.2581'
      long: "-70.2580"
    - name: Vanceboro
      region: ME
      lat: '45.5674'
      long: "-67.4293"
    - name: Veazie
      region: ME
      lat: '44.8407'
      long: "-68.7134"
    - name: Waterville
      region: ME
      lat: '44.5441'
      long: "-69.6624"
    - name: West Kennebunk
      region: ME
      lat: '43.4142'
      long: "-70.5810"
    - name: Westbrook
      region: ME
      lat: '43.6954'
      long: "-70.3539"
    - name: York Harbor
      region: ME
      lat: '43.1435'
      long: "-70.6490"
