---
cities:
- country: US
  region: ME
  name: Auburn
  lat: '44.0851'
  long: "-70.2492"
  closest_rate_centers:
  - name: Lewiston
    distance:
      value: 2.86
      units: km
  - name: Poland
    distance:
      value: 11.76
      units: km
  - name: Sabattus
    distance:
      value: 11.78
      units: km
- country: US
  region: ME
  name: Augusta
  lat: '44.3341'
  long: "-69.7319"
  closest_rate_centers:
  - name: Augusta
    distance:
      value: 4.29
      units: km
  - name: Sidney
    distance:
      value: 10.13
      units: km
  - name: Gardiner
    distance:
      value: 12.12
      units: km
- country: US
  region: ME
  name: Bangor
  lat: '44.8323'
  long: "-68.7906"
  closest_rate_centers:
  - name: Bangor
    distance:
      value: 3.72
      units: km
  - name: Hermon
    distance:
      value: 9.71
      units: km
  - name: Hampden
    distance:
      value: 10.45
      units: km
- country: US
  region: ME
  name: Bath
  lat: '43.9346'
  long: "-69.8346"
  closest_rate_centers:
  - name: Bath
    distance:
      value: 2.53
      units: km
  - name: Bowdoinham
    distance:
      value: 9.94
      units: km
  - name: Brunswick
    distance:
      value: 10.63
      units: km
- country: US
  region: ME
  name: Belfast
  lat: '44.4279'
  long: "-69.0325"
  closest_rate_centers:
  - name: Belfast
    distance:
      value: 2.05
      units: km
  - name: Searsport
    distance:
      value: 8.67
      units: km
  - name: Morrill
    distance:
      value: 9.15
      units: km
- country: US
  region: ME
  name: Bethel
  lat: '44.4038'
  long: "-70.7863"
  closest_rate_centers:
  - name: Bethel
    distance:
      value: 0.71
      units: km
  - name: West Bethel
    distance:
      value: 6.05
      units: km
  - name: Locke Mills
    distance:
      value: 6.69
      units: km
- country: US
  region: ME
  name: Biddeford
  lat: '43.4673'
  long: "-70.4511"
  closest_rate_centers:
  - name: Biddeford
    distance:
      value: 3.05
      units: km
  - name: Old Orchard Beach
    distance:
      value: 7.99
      units: km
  - name: Goodwins Mills
    distance:
      value: 11.52
      units: km
- country: US
  region: ME
  name: Bradley
  lat: '44.9127'
  long: "-68.6246"
  closest_rate_centers:
  - name: Old Town
    distance:
      value: 2.87
      units: km
  - name: Orono
    distance:
      value: 5.01
      units: km
  - name: Alton
    distance:
      value: 15.08
      units: km
- country: US
  region: ME
  name: Brewer
  lat: '44.7835'
  long: "-68.7352"
  closest_rate_centers:
  - name: Bangor
    distance:
      value: 3.36
      units: km
  - name: Orrington
    distance:
      value: 9.27
      units: km
  - name: Hampden
    distance:
      value: 9.32
      units: km
- country: US
  region: ME
  name: Brownville Junction
  lat: '45.3488'
  long: "-69.0555"
  closest_rate_centers:
  - name: Brownville
    distance:
      value: 4.84
      units: km
  - name: Milo
    distance:
      value: 12.08
      units: km
  - name: Dover-Foxcroft
    distance:
      value: 22.72
      units: km
- country: US
  region: ME
  name: Calais
  lat: '45.1340'
  long: "-67.2240"
  closest_rate_centers:
  - name: Calais
    distance:
      value: 7.25
      units: km
  - name: Woodland
    distance:
      value: 14.62
      units: km
  - name: Pembroke
    distance:
      value: 21.29
      units: km
- country: US
  region: ME
  name: Cape Neddick
  lat: '43.1706'
  long: "-70.6220"
  closest_rate_centers:
  - name: York
    distance:
      value: 3.91
      units: km
  - name: Wells
    distance:
      value: 11.42
      units: km
  - name: Kittery
    distance:
      value: 13.65
      units: km
- country: US
  region: ME
  name: Caribou
  lat: '46.8662'
  long: "-67.9920"
  closest_rate_centers:
  - name: Caribou
    distance:
      value: 1.84
      units: km
  - name: New Sweden
    distance:
      value: 12.82
      units: km
  - name: Limestone
    distance:
      value: 13.45
      units: km
- country: US
  region: ME
  name: Chisholm
  lat: '44.4916'
  long: "-70.1923"
  closest_rate_centers:
  - name: Livermore Falls
    distance:
      value: 1.91
      units: km
  - name: Wilton
    distance:
      value: 11.2
      units: km
  - name: Canton
    distance:
      value: 11.42
      units: km
- country: US
  region: ME
  name: Corinna
  lat: '44.9223'
  long: "-69.2628"
  closest_rate_centers:
  - name: Corinna
    distance:
      value: 0.22
      units: km
  - name: Newport
    distance:
      value: 9.76
      units: km
  - name: Stetson
    distance:
      value: 9.83
      units: km
- country: US
  region: ME
  name: Cornish
  lat: '43.8005'
  long: "-70.7994"
  closest_rate_centers:
  - name: Cornish
    distance:
      value: 0.62
      units: km
  - name: Limington
    distance:
      value: 11.09
      units: km
  - name: Steep Falls
    distance:
      value: 12.42
      units: km
- country: US
  region: ME
  name: Cousins Island
  lat: '43.7631'
  long: "-70.1409"
  closest_rate_centers:
  - name: Yarmouth
    distance:
      value: 5.76
      units: km
  - name: Cumberland
    distance:
      value: 9.91
      units: km
  - name: Freeport
    distance:
      value: 10.82
      units: km
- country: US
  region: ME
  name: Cumberland Center
  lat: '43.7982'
  long: "-70.2541"
  closest_rate_centers:
  - name: Cumberland
    distance:
      value: 0.61
      units: km
  - name: Yarmouth
    distance:
      value: 5.12
      units: km
  - name: Gray
    distance:
      value: 11.91
      units: km
- country: US
  region: ME
  name: Danforth
  lat: '45.6595'
  long: "-67.8682"
  closest_rate_centers:
  - name: Danforth
    distance:
      value: 0.08
      units: km
  - name: Wytopitlock
    distance:
      value: 16.53
      units: km
  - name: Kingman
    distance:
      value: 28.51
      units: km
- country: US
  region: ME
  name: Dunstan
  lat: '43.5691'
  long: "-70.3884"
  closest_rate_centers:
  - name: Scarborough
    distance:
      value: 4.9
      units: km
  - name: Old Orchard Beach
    distance:
      value: 5.65
      units: km
  - name: Biddeford
    distance:
      value: 10.12
      units: km
- country: US
  region: ME
  name: Eastport
  lat: '44.9137'
  long: "-67.0183"
  closest_rate_centers:
  - name: Eastport
    distance:
      value: 2.88
      units: km
  - name: Lubec
    distance:
      value: 6.65
      units: km
  - name: Pembroke
    distance:
      value: 12.81
      units: km
- country: US
  region: ME
  name: Ellsworth
  lat: '44.5847'
  long: "-68.4875"
  closest_rate_centers:
  - name: Ellsworth
    distance:
      value: 7.16
      units: km
  - name: Otis
    distance:
      value: 13.38
      units: km
  - name: Franklin
    distance:
      value: 20.17
      units: km
- country: US
  region: ME
  name: Falmouth Foreside
  lat: '43.7348'
  long: "-70.2152"
  closest_rate_centers:
  - name: Cumberland
    distance:
      value: 7.31
      units: km
  - name: Yarmouth
    distance:
      value: 7.59
      units: km
  - name: Portland
    distance:
      value: 9.71
      units: km
- country: US
  region: ME
  name: Gardiner
  lat: '44.1910'
  long: "-69.7921"
  closest_rate_centers:
  - name: Gardiner
    distance:
      value: 4.5
      units: km
  - name: West Gardiner
    distance:
      value: 9.05
      units: km
  - name: Richmond
    distance:
      value: 11.18
      units: km
- country: US
  region: ME
  name: Grand Isle
  lat: '47.3065'
  long: "-68.1552"
  closest_rate_centers:
  - name: Grand Isle
    distance:
      value: 0.31
      units: km
  - name: Madawaska
    distance:
      value: 14.15
      units: km
  - name: Frenchville
    distance:
      value: 17.25
      units: km
- country: US
  region: ME
  name: Greene
  lat: '44.1898'
  long: "-70.1418"
  closest_rate_centers:
  - name: Greene
    distance:
      value: 0.26
      units: km
  - name: Sabattus
    distance:
      value: 8.14
      units: km
  - name: Monmouth
    distance:
      value: 9.86
      units: km
- country: US
  region: ME
  name: Hallowell
  lat: '44.2905'
  long: "-69.8140"
  closest_rate_centers:
  - name: Augusta
    distance:
      value: 3.87
      units: km
  - name: West Gardiner
    distance:
      value: 6.85
      units: km
  - name: Gardiner
    distance:
      value: 7.31
      units: km
- country: US
  region: ME
  name: Island Falls
  lat: '46.0081'
  long: "-68.2648"
  closest_rate_centers:
  - name: Island Falls
    distance:
      value: 0.49
      units: km
  - name: Patten
    distance:
      value: 14.1
      units: km
  - name: Smyrna Mills
    distance:
      value: 15.5
      units: km
- country: US
  region: ME
  name: Jonesport
  lat: '44.5338'
  long: "-67.6152"
  closest_rate_centers:
  - name: Jonesport
    distance:
      value: 0.58
      units: km
  - name: Jonesboro
    distance:
      value: 15.16
      units: km
  - name: Columbia
    distance:
      value: 17.11
      units: km
- country: US
  region: ME
  name: Kezar Falls
  lat: '43.8080'
  long: "-70.8831"
  closest_rate_centers:
  - name: Cornish
    distance:
      value: 6.33
      units: km
  - name: Limerick
    distance:
      value: 15.29
      units: km
  - name: Limington
    distance:
      value: 17.42
      units: km
- country: US
  region: ME
  name: Kingfield
  lat: '44.9582'
  long: "-70.1592"
  closest_rate_centers:
  - name: Kingfield
    distance:
      value: 0.06
      units: km
  - name: Salem
    distance:
      value: 10.55
      units: km
  - name: North New Portland
    distance:
      value: 11.4
      units: km
- country: US
  region: ME
  name: Kittery Point
  lat: '43.0883'
  long: "-70.6988"
  closest_rate_centers:
  - name: Kittery
    distance:
      value: 3.63
      units: km
  - name: York
    distance:
      value: 7.18
      units: km
  - name: Eliot
    distance:
      value: 13.84
      units: km
- country: US
  region: ME
  name: Lake Arrowhead
  lat: '43.6634'
  long: "-70.7382"
  closest_rate_centers:
  - name: Limerick
    distance:
      value: 5.15
      units: km
  - name: Limington
    distance:
      value: 10.12
      units: km
  - name: Waterboro
    distance:
      value: 14.11
      units: km
- country: US
  region: ME
  name: Lewiston
  lat: '44.0915'
  long: "-70.1681"
  closest_rate_centers:
  - name: Lewiston
    distance:
      value: 3.82
      units: km
  - name: Sabattus
    distance:
      value: 5.63
      units: km
  - name: Greene
    distance:
      value: 11.39
      units: km
- country: US
  region: ME
  name: Lisbon
  lat: '44.0289'
  long: "-70.1076"
  closest_rate_centers:
  - name: Lisbon Falls
    distance:
      value: 4.88
      units: km
  - name: Sabattus
    distance:
      value: 10.15
      units: km
  - name: Lewiston
    distance:
      value: 11.29
      units: km
- country: US
  region: ME
  name: Lisbon Falls
  lat: '44.0086'
  long: "-70.0571"
  closest_rate_centers:
  - name: Lisbon Falls
    distance:
      value: 0.84
      units: km
  - name: Bowdoinham
    distance:
      value: 12.7
      units: km
  - name: Brunswick
    distance:
      value: 12.85
      units: km
- country: US
  region: ME
  name: Little Falls
  lat: '43.7312'
  long: "-70.4301"
  closest_rate_centers:
  - name: Gorham
    distance:
      value: 5.95
      units: km
  - name: Windham
    distance:
      value: 6.7
      units: km
  - name: Westbrook
    distance:
      value: 7.71
      units: km
- country: US
  region: ME
  name: Littlejohn Island
  lat: '43.7599'
  long: "-70.1284"
  closest_rate_centers:
  - name: Yarmouth
    distance:
      value: 6.73
      units: km
  - name: Freeport
    distance:
      value: 10.97
      units: km
  - name: Cumberland
    distance:
      value: 10.97
      units: km
- country: US
  region: ME
  name: Mattawamkeag
  lat: '45.5177'
  long: "-68.3523"
  closest_rate_centers:
  - name: Mattawamkeag
    distance:
      value: 0.44
      units: km
  - name: Kingman
    distance:
      value: 12.48
      units: km
  - name: Lee
    distance:
      value: 18.43
      units: km
- country: US
  region: ME
  name: Milbridge
  lat: '44.5343'
  long: "-67.8903"
  closest_rate_centers:
  - name: Milbridge
    distance:
      value: 1.26
      units: km
  - name: Columbia
    distance:
      value: 15.54
      units: km
  - name: Winter Harbor
    distance:
      value: 21.99
      units: km
- country: US
  region: ME
  name: North Anson
  lat: '44.8614'
  long: "-69.8975"
  closest_rate_centers:
  - name: North Anson
    distance:
      value: 0.75
      units: km
  - name: Madison
    distance:
      value: 6.8
      units: km
  - name: Embden Lake
    distance:
      value: 8.99
      units: km
- country: US
  region: ME
  name: North Windham
  lat: '43.8233'
  long: "-70.4293"
  closest_rate_centers:
  - name: Windham
    distance:
      value: 4.05
      units: km
  - name: West Gray
    distance:
      value: 6.49
      units: km
  - name: Raymond
    distance:
      value: 9.24
      units: km
- country: US
  region: ME
  name: Northeast Harbor
  lat: '44.2936'
  long: "-68.2914"
  closest_rate_centers:
  - name: Northeast Harbor
    distance:
      value: 1.23
      units: km
  - name: Southwest Harbor
    distance:
      value: 2.95
      units: km
  - name: Bar Harbor
    distance:
      value: 12.26
      units: km
- country: US
  region: ME
  name: Oakfield
  lat: '46.1020'
  long: "-68.1518"
  closest_rate_centers:
  - name: Smyrna Mills
    distance:
      value: 3.28
      units: km
  - name: Island Falls
    distance:
      value: 13.66
      units: km
  - name: Houlton
    distance:
      value: 23.95
      units: km
- country: US
  region: ME
  name: Old Town
  lat: '44.9491'
  long: "-68.7249"
  closest_rate_centers:
  - name: Old Town
    distance:
      value: 6.44
      units: km
  - name: Orono
    distance:
      value: 8.25
      units: km
  - name: Alton
    distance:
      value: 8.88
      units: km
- country: US
  region: ME
  name: Patten
  lat: '46.0043'
  long: "-68.4427"
  closest_rate_centers:
  - name: Patten
    distance:
      value: 0.89
      units: km
  - name: Island Falls
    distance:
      value: 13.35
      units: km
  - name: Sherman Mills
    distance:
      value: 15.05
      units: km
- country: US
  region: ME
  name: Portland
  lat: '43.6773'
  long: "-70.2715"
  closest_rate_centers:
  - name: Portland
    distance:
      value: 2.6
      units: km
  - name: Westbrook
    distance:
      value: 7.54
      units: km
  - name: Scarborough
    distance:
      value: 10.82
      units: km
- country: US
  region: ME
  name: Presque Isle
  lat: '46.6868'
  long: "-67.9874"
  closest_rate_centers:
  - name: Presque Isle
    distance:
      value: 1.97
      units: km
  - name: Easton
    distance:
      value: 7.6
      units: km
  - name: Fort Fairfield
    distance:
      value: 15.31
      units: km
- country: US
  region: ME
  name: Rangeley
  lat: '44.9643'
  long: "-70.6467"
  closest_rate_centers:
  - name: Rangeley
    distance:
      value: 0.34
      units: km
  - name: Stratton
    distance:
      value: 25.46
      units: km
  - name: Bigelow
    distance:
      value: 27.59
      units: km
- country: US
  region: ME
  name: Rockland
  lat: '44.1274'
  long: "-69.1369"
  closest_rate_centers:
  - name: Rockland
    distance:
      value: 2.98
      units: km
  - name: Thomaston
    distance:
      value: 6.55
      units: km
  - name: Warren
    distance:
      value: 8.28
      units: km
- country: US
  region: ME
  name: Sabattus
  lat: '44.1210'
  long: "-70.1070"
  closest_rate_centers:
  - name: Sabattus
    distance:
      value: 0.25
      units: km
  - name: Greene
    distance:
      value: 8.35
      units: km
  - name: Lewiston
    distance:
      value: 9.17
      units: km
- country: US
  region: ME
  name: Saco
  lat: '43.5390'
  long: "-70.4624"
  closest_rate_centers:
  - name: Biddeford
    distance:
      value: 5.0
      units: km
  - name: Old Orchard Beach
    distance:
      value: 6.91
      units: km
  - name: Goodwins Mills
    distance:
      value: 10.25
      units: km
- country: US
  region: ME
  name: Sanford
  lat: '43.4244'
  long: "-70.7573"
  closest_rate_centers:
  - name: Sanford
    distance:
      value: 2.3
      units: km
  - name: Lebanon
    distance:
      value: 9.24
      units: km
  - name: Waterboro
    distance:
      value: 13.15
      units: km
- country: US
  region: ME
  name: South Berwick
  lat: '43.2321'
  long: "-70.7963"
  closest_rate_centers:
  - name: South Berwick
    distance:
      value: 0.97
      units: km
  - name: Eliot
    distance:
      value: 5.92
      units: km
  - name: Berwick
    distance:
      value: 6.05
      units: km
- country: US
  region: ME
  name: South Eliot
  lat: '43.1287'
  long: "-70.7952"
  closest_rate_centers:
  - name: Eliot
    distance:
      value: 5.93
      units: km
  - name: Kittery
    distance:
      value: 6.38
      units: km
  - name: York
    distance:
      value: 11.68
      units: km
- country: US
  region: ME
  name: South Paris
  lat: '44.2190'
  long: "-70.5113"
  closest_rate_centers:
  - name: Norway
    distance:
      value: 1.78
      units: km
  - name: Hebron
    distance:
      value: 8.94
      units: km
  - name: North Norway
    distance:
      value: 10.23
      units: km
- country: US
  region: ME
  name: South Portland
  lat: '43.6310'
  long: "-70.2895"
  closest_rate_centers:
  - name: Portland
    distance:
      value: 3.38
      units: km
  - name: Scarborough
    distance:
      value: 5.75
      units: km
  - name: Westbrook
    distance:
      value: 8.18
      units: km
- country: US
  region: ME
  name: South Windham
  lat: '43.7380'
  long: "-70.4236"
  closest_rate_centers:
  - name: Windham
    distance:
      value: 5.84
      units: km
  - name: Gorham
    distance:
      value: 6.79
      units: km
  - name: Westbrook
    distance:
      value: 7.96
      units: km
- country: US
  region: ME
  name: Steep Falls
  lat: '43.7905'
  long: "-70.6275"
  closest_rate_centers:
  - name: Steep Falls
    distance:
      value: 1.43
      units: km
  - name: Limington
    distance:
      value: 6.75
      units: km
  - name: Sebago
    distance:
      value: 7.57
      units: km
- country: US
  region: ME
  name: Turner
  lat: '44.2581'
  long: "-70.2580"
  closest_rate_centers:
  - name: Turner
    distance:
      value: 2.46
      units: km
  - name: North Turner
    distance:
      value: 2.46
      units: km
  - name: Leeds
    distance:
      value: 7.96
      units: km
  - name: Buckfield
    distance:
      value: 8.34
      units: km
- country: US
  region: ME
  name: Vanceboro
  lat: '45.5674'
  long: "-67.4293"
  closest_rate_centers:
  - name: Vanceboro
    distance:
      value: 0.33
      units: km
  - name: Danforth
    distance:
      value: 35.59
      units: km
  - name: Princeton
    distance:
      value: 40.09
      units: km
- country: US
  region: ME
  name: Veazie
  lat: '44.8407'
  long: "-68.7134"
  closest_rate_centers:
  - name: Orono
    distance:
      value: 5.76
      units: km
  - name: Bangor
    distance:
      value: 5.98
      units: km
  - name: Old Town
    distance:
      value: 11.61
      units: km
- country: US
  region: ME
  name: Waterville
  lat: '44.5441'
  long: "-69.6624"
  closest_rate_centers:
  - name: Waterville
    distance:
      value: 2.74
      units: km
  - name: Oakland
    distance:
      value: 4.24
      units: km
  - name: Fairfield
    distance:
      value: 7.01
      units: km
- country: US
  region: ME
  name: West Kennebunk
  lat: '43.4142'
  long: "-70.5810"
  closest_rate_centers:
  - name: Kennebunk
    distance:
      value: 4.85
      units: km
  - name: Kennebunkport
    distance:
      value: 10.43
      units: km
  - name: Goodwins Mills
    distance:
      value: 10.46
      units: km
- country: US
  region: ME
  name: Westbrook
  lat: '43.6954'
  long: "-70.3539"
  closest_rate_centers:
  - name: Westbrook
    distance:
      value: 1.92
      units: km
  - name: Gorham
    distance:
      value: 7.29
      units: km
  - name: Portland
    distance:
      value: 8.59
      units: km
- country: US
  region: ME
  name: York Harbor
  lat: '43.1435'
  long: "-70.6490"
  closest_rate_centers:
  - name: York
    distance:
      value: 0.29
      units: km
  - name: Kittery
    distance:
      value: 10.0
      units: km
  - name: Eliot
    distance:
      value: 13.97
      units: km
