---
cities:
- country: US
  region: ME
  name: Auburn
  lat: '44.0851'
  long: "-70.2492"
  nearby_rate_centers:
  - name: LEWISTON
    distance:
      value: 2.86
      units: km
  - name: POLAND
    distance:
      value: 11.76
      units: km
  - name: SABATTUS
    distance:
      value: 11.78
      units: km
- country: US
  region: ME
  name: Augusta
  lat: '44.3341'
  long: "-69.7319"
  nearby_rate_centers:
  - name: AUGUSTA
    distance:
      value: 4.29
      units: km
  - name: SIDNEY
    distance:
      value: 10.13
      units: km
  - name: GARDINER
    distance:
      value: 12.12
      units: km
- country: US
  region: ME
  name: Bangor
  lat: '44.8323'
  long: "-68.7906"
  nearby_rate_centers:
  - name: BANGOR
    distance:
      value: 3.72
      units: km
  - name: HERMON
    distance:
      value: 9.71
      units: km
  - name: HAMPDEN
    distance:
      value: 10.45
      units: km
- country: US
  region: ME
  name: Bath
  lat: '43.9346'
  long: "-69.8346"
  nearby_rate_centers:
  - name: BATH
    distance:
      value: 2.53
      units: km
  - name: BOWDOINHAM
    distance:
      value: 9.94
      units: km
  - name: BRUNSWICK
    distance:
      value: 10.63
      units: km
- country: US
  region: ME
  name: Belfast
  lat: '44.4279'
  long: "-69.0325"
  nearby_rate_centers:
  - name: BELFAST
    distance:
      value: 2.05
      units: km
  - name: SEARSPORT
    distance:
      value: 8.67
      units: km
  - name: MORRILL
    distance:
      value: 9.15
      units: km
- country: US
  region: ME
  name: Bethel
  lat: '44.4038'
  long: "-70.7863"
  nearby_rate_centers:
  - name: BETHEL
    distance:
      value: 0.71
      units: km
  - name: WESTBETHEL
    distance:
      value: 6.05
      units: km
  - name: LOCKEMILLS
    distance:
      value: 6.69
      units: km
- country: US
  region: ME
  name: Biddeford
  lat: '43.4673'
  long: "-70.4511"
  nearby_rate_centers:
  - name: BIDDEFORD
    distance:
      value: 3.05
      units: km
  - name: OLDORCHBCH
    distance:
      value: 7.99
      units: km
  - name: GOODWINSML
    distance:
      value: 11.52
      units: km
- country: US
  region: ME
  name: Bradley
  lat: '44.9127'
  long: "-68.6246"
  nearby_rate_centers:
  - name: OLD TOWN
    distance:
      value: 2.87
      units: km
  - name: ORONO
    distance:
      value: 5.01
      units: km
  - name: ALTON
    distance:
      value: 15.08
      units: km
- country: US
  region: ME
  name: Brewer
  lat: '44.7835'
  long: "-68.7352"
  nearby_rate_centers:
  - name: BANGOR
    distance:
      value: 3.36
      units: km
  - name: ORRINGTON
    distance:
      value: 9.27
      units: km
  - name: HAMPDEN
    distance:
      value: 9.32
      units: km
- country: US
  region: ME
  name: Brownville Junction
  lat: '45.3488'
  long: "-69.0555"
  nearby_rate_centers:
  - name: BROWNVILLE
    distance:
      value: 4.84
      units: km
  - name: MILO
    distance:
      value: 12.08
      units: km
  - name: DOVERFCRFT
    distance:
      value: 22.72
      units: km
- country: US
  region: ME
  name: Calais
  lat: '45.1340'
  long: "-67.2240"
  nearby_rate_centers:
  - name: CALAIS
    distance:
      value: 7.25
      units: km
  - name: WOODLAND
    distance:
      value: 14.62
      units: km
  - name: PEMBROKE
    distance:
      value: 21.29
      units: km
- country: US
  region: ME
  name: Cape Neddick
  lat: '43.1706'
  long: "-70.6220"
  nearby_rate_centers:
  - name: YORK
    distance:
      value: 3.91
      units: km
  - name: WELLS
    distance:
      value: 11.42
      units: km
  - name: KITTERY
    distance:
      value: 13.65
      units: km
- country: US
  region: ME
  name: Caribou
  lat: '46.8662'
  long: "-67.9920"
  nearby_rate_centers:
  - name: CARIBOU
    distance:
      value: 1.84
      units: km
  - name: NEW SWEDEN
    distance:
      value: 12.82
      units: km
  - name: LIMESTONE
    distance:
      value: 13.45
      units: km
- country: US
  region: ME
  name: Chisholm
  lat: '44.4916'
  long: "-70.1923"
  nearby_rate_centers:
  - name: LIVERMRFLS
    distance:
      value: 1.91
      units: km
  - name: WILTON
    distance:
      value: 11.2
      units: km
  - name: CANTON
    distance:
      value: 11.42
      units: km
- country: US
  region: ME
  name: Corinna
  lat: '44.9223'
  long: "-69.2628"
  nearby_rate_centers:
  - name: CORINNA
    distance:
      value: 0.22
      units: km
  - name: NEWPORT
    distance:
      value: 9.76
      units: km
  - name: STETSON
    distance:
      value: 9.83
      units: km
- country: US
  region: ME
  name: Cornish
  lat: '43.8005'
  long: "-70.7994"
  nearby_rate_centers:
  - name: CORNISH
    distance:
      value: 0.62
      units: km
  - name: LIMINGTON
    distance:
      value: 11.09
      units: km
  - name: STEEPFALLS
    distance:
      value: 12.42
      units: km
- country: US
  region: ME
  name: Cousins Island
  lat: '43.7631'
  long: "-70.1409"
  nearby_rate_centers:
  - name: YARMOUTH
    distance:
      value: 5.76
      units: km
  - name: CUMBERLAND
    distance:
      value: 9.91
      units: km
  - name: FREEPORT
    distance:
      value: 10.82
      units: km
- country: US
  region: ME
  name: Cumberland Center
  lat: '43.7982'
  long: "-70.2541"
  nearby_rate_centers:
  - name: CUMBERLAND
    distance:
      value: 0.61
      units: km
  - name: YARMOUTH
    distance:
      value: 5.12
      units: km
  - name: GRAY
    distance:
      value: 11.91
      units: km
- country: US
  region: ME
  name: Danforth
  lat: '45.6595'
  long: "-67.8682"
  nearby_rate_centers:
  - name: DANFORTH
    distance:
      value: 0.08
      units: km
  - name: WYTOPITLK
    distance:
      value: 16.53
      units: km
  - name: KINGMAN
    distance:
      value: 28.51
      units: km
- country: US
  region: ME
  name: Dunstan
  lat: '43.5691'
  long: "-70.3884"
  nearby_rate_centers:
  - name: SCARBOROGH
    distance:
      value: 4.9
      units: km
  - name: OLDORCHBCH
    distance:
      value: 5.65
      units: km
  - name: BIDDEFORD
    distance:
      value: 10.12
      units: km
- country: US
  region: ME
  name: Eastport
  lat: '44.9137'
  long: "-67.0183"
  nearby_rate_centers:
  - name: EASTPORT
    distance:
      value: 2.88
      units: km
  - name: LUBEC
    distance:
      value: 6.65
      units: km
  - name: PEMBROKE
    distance:
      value: 12.81
      units: km
- country: US
  region: ME
  name: Ellsworth
  lat: '44.5847'
  long: "-68.4875"
  nearby_rate_centers:
  - name: ELLSWORTH
    distance:
      value: 7.16
      units: km
  - name: OTIS
    distance:
      value: 13.38
      units: km
  - name: FRANKLIN
    distance:
      value: 20.17
      units: km
- country: US
  region: ME
  name: Falmouth Foreside
  lat: '43.7348'
  long: "-70.2152"
  nearby_rate_centers:
  - name: CUMBERLAND
    distance:
      value: 7.31
      units: km
  - name: YARMOUTH
    distance:
      value: 7.59
      units: km
  - name: PORTLAND
    distance:
      value: 9.71
      units: km
- country: US
  region: ME
  name: Gardiner
  lat: '44.1910'
  long: "-69.7921"
  nearby_rate_centers:
  - name: GARDINER
    distance:
      value: 4.5
      units: km
  - name: W GARDINER
    distance:
      value: 9.05
      units: km
  - name: RICHMOND
    distance:
      value: 11.18
      units: km
- country: US
  region: ME
  name: Grand Isle
  lat: '47.3065'
  long: "-68.1552"
  nearby_rate_centers:
  - name: GRAND ISLE
    distance:
      value: 0.31
      units: km
  - name: MADAWASKA
    distance:
      value: 14.15
      units: km
  - name: FRENCHVL
    distance:
      value: 17.25
      units: km
- country: US
  region: ME
  name: Greene
  lat: '44.1898'
  long: "-70.1418"
  nearby_rate_centers:
  - name: GREENE
    distance:
      value: 0.26
      units: km
  - name: SABATTUS
    distance:
      value: 8.14
      units: km
  - name: MONMOUTH
    distance:
      value: 9.86
      units: km
- country: US
  region: ME
  name: Hallowell
  lat: '44.2905'
  long: "-69.8140"
  nearby_rate_centers:
  - name: AUGUSTA
    distance:
      value: 3.87
      units: km
  - name: W GARDINER
    distance:
      value: 6.85
      units: km
  - name: GARDINER
    distance:
      value: 7.31
      units: km
- country: US
  region: ME
  name: Island Falls
  lat: '46.0081'
  long: "-68.2648"
  nearby_rate_centers:
  - name: ISLAND FLS
    distance:
      value: 0.49
      units: km
  - name: PATTEN
    distance:
      value: 14.1
      units: km
  - name: SMYRNA ML
    distance:
      value: 15.5
      units: km
- country: US
  region: ME
  name: Jonesport
  lat: '44.5338'
  long: "-67.6152"
  nearby_rate_centers:
  - name: JONESPORT
    distance:
      value: 0.58
      units: km
  - name: JONESBORO
    distance:
      value: 15.16
      units: km
  - name: COLUMBIA
    distance:
      value: 17.11
      units: km
- country: US
  region: ME
  name: Kezar Falls
  lat: '43.8080'
  long: "-70.8831"
  nearby_rate_centers:
  - name: CORNISH
    distance:
      value: 6.33
      units: km
  - name: LIMERICK
    distance:
      value: 15.29
      units: km
  - name: LIMINGTON
    distance:
      value: 17.42
      units: km
- country: US
  region: ME
  name: Kingfield
  lat: '44.9582'
  long: "-70.1592"
  nearby_rate_centers:
  - name: KINGFIELD
    distance:
      value: 0.06
      units: km
  - name: SALEM
    distance:
      value: 10.55
      units: km
  - name: NNEWPORTLD
    distance:
      value: 11.4
      units: km
- country: US
  region: ME
  name: Kittery Point
  lat: '43.0883'
  long: "-70.6988"
  nearby_rate_centers:
  - name: KITTERY
    distance:
      value: 3.63
      units: km
  - name: YORK
    distance:
      value: 7.18
      units: km
  - name: ELIOT
    distance:
      value: 13.84
      units: km
- country: US
  region: ME
  name: Lake Arrowhead
  lat: '43.6634'
  long: "-70.7382"
  nearby_rate_centers:
  - name: LIMERICK
    distance:
      value: 5.15
      units: km
  - name: LIMINGTON
    distance:
      value: 10.12
      units: km
  - name: WATERBORO
    distance:
      value: 14.11
      units: km
- country: US
  region: ME
  name: Lewiston
  lat: '44.0915'
  long: "-70.1681"
  nearby_rate_centers:
  - name: LEWISTON
    distance:
      value: 3.82
      units: km
  - name: SABATTUS
    distance:
      value: 5.63
      units: km
  - name: GREENE
    distance:
      value: 11.39
      units: km
- country: US
  region: ME
  name: Lisbon
  lat: '44.0289'
  long: "-70.1076"
  nearby_rate_centers:
  - name: LISBON FLS
    distance:
      value: 4.88
      units: km
  - name: SABATTUS
    distance:
      value: 10.15
      units: km
  - name: LEWISTON
    distance:
      value: 11.29
      units: km
- country: US
  region: ME
  name: Lisbon Falls
  lat: '44.0086'
  long: "-70.0571"
  nearby_rate_centers:
  - name: LISBON FLS
    distance:
      value: 0.84
      units: km
  - name: BOWDOINHAM
    distance:
      value: 12.7
      units: km
  - name: BRUNSWICK
    distance:
      value: 12.85
      units: km
- country: US
  region: ME
  name: Little Falls
  lat: '43.7312'
  long: "-70.4301"
  nearby_rate_centers:
  - name: GORHAM
    distance:
      value: 5.95
      units: km
  - name: WINDHAM
    distance:
      value: 6.7
      units: km
  - name: WESTBROOK
    distance:
      value: 7.71
      units: km
- country: US
  region: ME
  name: Littlejohn Island
  lat: '43.7599'
  long: "-70.1284"
  nearby_rate_centers:
  - name: YARMOUTH
    distance:
      value: 6.73
      units: km
  - name: FREEPORT
    distance:
      value: 10.97
      units: km
  - name: CUMBERLAND
    distance:
      value: 10.97
      units: km
- country: US
  region: ME
  name: Mattawamkeag
  lat: '45.5177'
  long: "-68.3523"
  nearby_rate_centers:
  - name: MATTAWMKEG
    distance:
      value: 0.44
      units: km
  - name: KINGMAN
    distance:
      value: 12.48
      units: km
  - name: LEE
    distance:
      value: 18.43
      units: km
- country: US
  region: ME
  name: Milbridge
  lat: '44.5343'
  long: "-67.8903"
  nearby_rate_centers:
  - name: MILBRIDGE
    distance:
      value: 1.26
      units: km
  - name: COLUMBIA
    distance:
      value: 15.54
      units: km
  - name: WINTER HBR
    distance:
      value: 21.99
      units: km
- country: US
  region: ME
  name: North Anson
  lat: '44.8614'
  long: "-69.8975"
  nearby_rate_centers:
  - name: NORTHANSON
    distance:
      value: 0.75
      units: km
  - name: MADISON
    distance:
      value: 6.8
      units: km
  - name: EMBDENLAKE
    distance:
      value: 8.99
      units: km
- country: US
  region: ME
  name: North Windham
  lat: '43.8233'
  long: "-70.4293"
  nearby_rate_centers:
  - name: WINDHAM
    distance:
      value: 4.05
      units: km
  - name: WEST GRAY
    distance:
      value: 6.49
      units: km
  - name: RAYMOND
    distance:
      value: 9.24
      units: km
- country: US
  region: ME
  name: Northeast Harbor
  lat: '44.2936'
  long: "-68.2914"
  nearby_rate_centers:
  - name: NORTHETHBR
    distance:
      value: 1.23
      units: km
  - name: SOUTHWEHBR
    distance:
      value: 2.95
      units: km
  - name: BAR HARBOR
    distance:
      value: 12.26
      units: km
- country: US
  region: ME
  name: Oakfield
  lat: '46.1020'
  long: "-68.1518"
  nearby_rate_centers:
  - name: SMYRNA ML
    distance:
      value: 3.28
      units: km
  - name: ISLAND FLS
    distance:
      value: 13.66
      units: km
  - name: HOULTON
    distance:
      value: 23.95
      units: km
- country: US
  region: ME
  name: Old Town
  lat: '44.9491'
  long: "-68.7249"
  nearby_rate_centers:
  - name: OLD TOWN
    distance:
      value: 6.44
      units: km
  - name: ORONO
    distance:
      value: 8.25
      units: km
  - name: ALTON
    distance:
      value: 8.88
      units: km
- country: US
  region: ME
  name: Patten
  lat: '46.0043'
  long: "-68.4427"
  nearby_rate_centers:
  - name: PATTEN
    distance:
      value: 0.89
      units: km
  - name: ISLAND FLS
    distance:
      value: 13.35
      units: km
  - name: SHERMAN ML
    distance:
      value: 15.05
      units: km
- country: US
  region: ME
  name: Portland
  lat: '43.6773'
  long: "-70.2715"
  nearby_rate_centers:
  - name: PORTLAND
    distance:
      value: 2.6
      units: km
  - name: WESTBROOK
    distance:
      value: 7.54
      units: km
  - name: SCARBOROGH
    distance:
      value: 10.82
      units: km
- country: US
  region: ME
  name: Presque Isle
  lat: '46.6868'
  long: "-67.9874"
  nearby_rate_centers:
  - name: PRESQUE IS
    distance:
      value: 1.97
      units: km
  - name: EASTON
    distance:
      value: 7.6
      units: km
  - name: FT FAIRFLD
    distance:
      value: 15.31
      units: km
- country: US
  region: ME
  name: Rangeley
  lat: '44.9643'
  long: "-70.6467"
  nearby_rate_centers:
  - name: RANGELEY
    distance:
      value: 0.34
      units: km
  - name: STRATTON
    distance:
      value: 25.46
      units: km
  - name: BIGELOW
    distance:
      value: 27.59
      units: km
- country: US
  region: ME
  name: Rockland
  lat: '44.1274'
  long: "-69.1369"
  nearby_rate_centers:
  - name: ROCKLAND
    distance:
      value: 2.98
      units: km
  - name: THOMASTON
    distance:
      value: 6.55
      units: km
  - name: WARREN
    distance:
      value: 8.28
      units: km
- country: US
  region: ME
  name: Sabattus
  lat: '44.1210'
  long: "-70.1070"
  nearby_rate_centers:
  - name: SABATTUS
    distance:
      value: 0.25
      units: km
  - name: GREENE
    distance:
      value: 8.35
      units: km
  - name: LEWISTON
    distance:
      value: 9.17
      units: km
- country: US
  region: ME
  name: Saco
  lat: '43.5390'
  long: "-70.4624"
  nearby_rate_centers:
  - name: BIDDEFORD
    distance:
      value: 5.0
      units: km
  - name: OLDORCHBCH
    distance:
      value: 6.91
      units: km
  - name: GOODWINSML
    distance:
      value: 10.25
      units: km
- country: US
  region: ME
  name: Sanford
  lat: '43.4244'
  long: "-70.7573"
  nearby_rate_centers:
  - name: SANFORD
    distance:
      value: 2.3
      units: km
  - name: LEBANON
    distance:
      value: 9.24
      units: km
  - name: WATERBORO
    distance:
      value: 13.15
      units: km
- country: US
  region: ME
  name: South Berwick
  lat: '43.2321'
  long: "-70.7963"
  nearby_rate_centers:
  - name: SO BERWICK
    distance:
      value: 0.97
      units: km
  - name: ELIOT
    distance:
      value: 5.92
      units: km
  - name: BERWICK
    distance:
      value: 6.05
      units: km
- country: US
  region: ME
  name: South Eliot
  lat: '43.1287'
  long: "-70.7952"
  nearby_rate_centers:
  - name: ELIOT
    distance:
      value: 5.93
      units: km
  - name: KITTERY
    distance:
      value: 6.38
      units: km
  - name: YORK
    distance:
      value: 11.68
      units: km
- country: US
  region: ME
  name: South Paris
  lat: '44.2190'
  long: "-70.5113"
  nearby_rate_centers:
  - name: NORWAY
    distance:
      value: 1.78
      units: km
  - name: HEBRON
    distance:
      value: 8.94
      units: km
  - name: NO NORWAY
    distance:
      value: 10.23
      units: km
- country: US
  region: ME
  name: South Portland
  lat: '43.6310'
  long: "-70.2895"
  nearby_rate_centers:
  - name: PORTLAND
    distance:
      value: 3.38
      units: km
  - name: SCARBOROGH
    distance:
      value: 5.75
      units: km
  - name: WESTBROOK
    distance:
      value: 8.18
      units: km
- country: US
  region: ME
  name: South Windham
  lat: '43.7380'
  long: "-70.4236"
  nearby_rate_centers:
  - name: WINDHAM
    distance:
      value: 5.84
      units: km
  - name: GORHAM
    distance:
      value: 6.79
      units: km
  - name: WESTBROOK
    distance:
      value: 7.96
      units: km
- country: US
  region: ME
  name: Steep Falls
  lat: '43.7905'
  long: "-70.6275"
  nearby_rate_centers:
  - name: STEEPFALLS
    distance:
      value: 1.43
      units: km
  - name: LIMINGTON
    distance:
      value: 6.75
      units: km
  - name: SEBAGO
    distance:
      value: 7.57
      units: km
- country: US
  region: ME
  name: Turner
  lat: '44.2581'
  long: "-70.2580"
  nearby_rate_centers:
  - name: TURNER
    distance:
      value: 2.46
      units: km
  - name: NO TURNER
    distance:
      value: 2.46
      units: km
  - name: LEEDS
    distance:
      value: 7.96
      units: km
  - name: BUCKFIELD
    distance:
      value: 8.34
      units: km
- country: US
  region: ME
  name: Vanceboro
  lat: '45.5674'
  long: "-67.4293"
  nearby_rate_centers:
  - name: VANCEBORO
    distance:
      value: 0.33
      units: km
  - name: DANFORTH
    distance:
      value: 35.59
      units: km
  - name: PRINCETON
    distance:
      value: 40.09
      units: km
- country: US
  region: ME
  name: Veazie
  lat: '44.8407'
  long: "-68.7134"
  nearby_rate_centers:
  - name: ORONO
    distance:
      value: 5.76
      units: km
  - name: BANGOR
    distance:
      value: 5.98
      units: km
  - name: OLD TOWN
    distance:
      value: 11.61
      units: km
- country: US
  region: ME
  name: Waterville
  lat: '44.5441'
  long: "-69.6624"
  nearby_rate_centers:
  - name: WATERVILLE
    distance:
      value: 2.74
      units: km
  - name: OAKLAND
    distance:
      value: 4.24
      units: km
  - name: FAIRFIELD
    distance:
      value: 7.01
      units: km
- country: US
  region: ME
  name: West Kennebunk
  lat: '43.4142'
  long: "-70.5810"
  nearby_rate_centers:
  - name: KENNEBUNK
    distance:
      value: 4.85
      units: km
  - name: KENNEBNKPT
    distance:
      value: 10.43
      units: km
  - name: GOODWINSML
    distance:
      value: 10.46
      units: km
- country: US
  region: ME
  name: Westbrook
  lat: '43.6954'
  long: "-70.3539"
  nearby_rate_centers:
  - name: WESTBROOK
    distance:
      value: 1.92
      units: km
  - name: GORHAM
    distance:
      value: 7.29
      units: km
  - name: PORTLAND
    distance:
      value: 8.59
      units: km
- country: US
  region: ME
  name: York Harbor
  lat: '43.1435'
  long: "-70.6490"
  nearby_rate_centers:
  - name: YORK
    distance:
      value: 0.29
      units: km
  - name: KITTERY
    distance:
      value: 10.0
      units: km
  - name: ELIOT
    distance:
      value: 13.97
      units: km
