---
cities:
  us:
    NH:
    - name: Berlin
      region: NH
      lat: '44.4869'
      long: "-71.2599"
    - name: Blodgett Landing
      region: NH
      lat: '43.3757'
      long: "-72.0392"
    - name: Center Ossipee
      region: NH
      lat: '43.7542'
      long: "-71.1508"
    - name: Center Sandwich
      region: NH
      lat: '43.8085'
      long: "-71.4394"
    - name: Claremont
      region: NH
      lat: '43.3790'
      long: "-72.3368"
    - name: Concord
      region: NH
      lat: '43.2305'
      long: "-71.5595"
    - name: Contoocook
      region: NH
      lat: '43.2232'
      long: "-71.7129"
    - name: Dover
      region: NH
      lat: '43.1887'
      long: "-70.8845"
    - name: East Merrimack
      region: NH
      lat: '42.8692'
      long: "-71.4819"
    - name: Francestown
      region: NH
      lat: '42.9895'
      long: "-71.8141"
    - name: Franklin
      region: NH
      lat: '43.4499'
      long: "-71.6691"
    - name: Groveton
      region: NH
      lat: '44.6048'
      long: "-71.5201"
    - name: Hampton Beach
      region: NH
      lat: '42.9140'
      long: "-70.8127"
    - name: Keene
      region: NH
      lat: '42.9494'
      long: "-72.2998"
    - name: Klondike Corner
      region: NH
      lat: '42.9640'
      long: "-71.6389"
    - name: Laconia
      region: NH
      lat: '43.5725'
      long: "-71.4775"
    - name: Lebanon
      region: NH
      lat: '43.6353'
      long: "-72.2531"
    - name: Manchester
      region: NH
      lat: '42.9848'
      long: "-71.4447"
    - name: Melvin Village
      region: NH
      lat: '43.6896'
      long: "-71.3064"
    - name: Milton Mills
      region: NH
      lat: '43.5037'
      long: "-70.9654"
    - name: Mountain Lakes
      region: NH
      lat: '44.1205'
      long: "-71.9580"
    - name: Nashua
      region: NH
      lat: '42.7491'
      long: "-71.4910"
    - name: New Boston
      region: NH
      lat: '42.9781'
      long: "-71.6937"
    - name: North Conway
      region: NH
      lat: '44.0415'
      long: "-71.1224"
    - name: North Haverhill
      region: NH
      lat: '44.0915'
      long: "-72.0236"
    - name: North Walpole
      region: NH
      lat: '43.1467'
      long: "-72.4458"
    - name: North Woodstock
      region: NH
      lat: '44.0364'
      long: "-71.6968"
    - name: Pinardville
      region: NH
      lat: '43.0010'
      long: "-71.5171"
    - name: Portsmouth
      region: NH
      lat: '43.0580'
      long: "-70.7826"
    - name: Rochester
      region: NH
      lat: '43.2990'
      long: "-70.9787"
    - name: Sanbornville
      region: NH
      lat: '43.5525'
      long: "-71.0297"
    - name: Seabrook Beach
      region: NH
      lat: '42.8850'
      long: "-70.8234"
    - name: Somersworth
      region: NH
      lat: '43.2534'
      long: "-70.8856"
    - name: South Hooksett
      region: NH
      lat: '43.0331'
      long: "-71.4254"
    - name: Suissevale
      region: NH
      lat: '43.7234'
      long: "-71.3623"
    - name: Suncook
      region: NH
      lat: '43.1382'
      long: "-71.4530"
    - name: Tilton Northfield
      region: NH
      lat: '43.4444'
      long: "-71.5924"
    - name: Union
      region: NH
      lat: '43.4912'
      long: "-71.0231"
    - name: West Stewartstown
      region: NH
      lat: '44.9907'
      long: "-71.5311"
    - name: West Swanzey
      region: NH
      lat: '42.8707'
      long: "-72.3225"
    - name: Woodsville
      region: NH
      lat: '44.1423'
      long: "-72.0256"
