---
cities:
  US:
    NJ:
    - name: Absecon
      region: NJ
      lat: '39.4229'
      long: "-74.4944"
      closest_rate_centers:
      - name: Pleasantville
        distance:
          value: 4.61
          units: km
      - name: Atlantic City
        distance:
          value: 8.78
          units: km
      - name: Brigantine
        distance:
          value: 10.94
          units: km
    - name: Absecon Highlands
      region: NJ
      lat: '39.4409'
      long: "-74.4735"
      closest_rate_centers:
      - name: Pleasantville
        distance:
          value: 7.28
          units: km
      - name: Atlantic City
        distance:
          value: 9.68
          units: km
      - name: Brigantine
        distance:
          value: 9.87
          units: km
    - name: Allendale
      region: NJ
      lat: '41.0332'
      long: "-74.1333"
      closest_rate_centers:
      - name: Ramsey
        distance:
          value: 2.57
          units: km
      - name: Wyckoff
        distance:
          value: 3.99
          units: km
      - name: Ridgewood
        distance:
          value: 6.16
          units: km
    - name: Allenhurst
      region: NJ
      lat: '40.2362'
      long: "-74.0017"
      closest_rate_centers:
      - name: Deal
        distance:
          value: 0.32
          units: km
      - name: Asbury Park
        distance:
          value: 2.39
          units: km
      - name: Belmar (Monmouth)
        distance:
          value: 6.86
          units: km
    - name: Allentown
      region: NJ
      lat: '40.1778'
      long: "-74.5873"
      closest_rate_centers:
      - name: Allentown
        distance:
          value: 0.28
          units: km
      - name: Mercerville
        distance:
          value: 10.9
          units: km
      - name: Bordentown
        distance:
          value: 11.17
          units: km
    - name: Allenwood
      region: NJ
      lat: '40.1384'
      long: "-74.1032"
      closest_rate_centers:
      - name: Manasquan
        distance:
          value: 5.08
          units: km
      - name: Spring Lake
        distance:
          value: 6.28
          units: km
      - name: Point Pleasant
        distance:
          value: 7.1
          units: km
    - name: Alpha
      region: NJ
      lat: '40.6598'
      long: "-75.1571"
      closest_rate_centers:
      - name: Phillipsburg
        distance:
          value: 5.17
          units: km
      - name: Bloomsbury
        distance:
          value: 6.15
          units: km
      - name: Milford
        distance:
          value: 11.63
          units: km
    - name: Alpine
      region: NJ
      lat: '40.9616'
      long: "-73.9198"
      closest_rate_centers:
      - name: Closter
        distance:
          value: 3.87
          units: km
      - name: Dumont
        distance:
          value: 6.93
          units: km
      - name: Englewood
        distance:
          value: 8.7
          units: km
    - name: Ampere North
      region: NJ
      lat: '40.7758'
      long: "-74.1918"
      closest_rate_centers:
      - name: Bloomfield
        distance:
          value: 2.67
          units: km
      - name: Orange
        distance:
          value: 3.29
          units: km
      - name: Kearny
        distance:
          value: 3.7
          units: km
    - name: Anderson
      region: NJ
      lat: '40.7617'
      long: "-74.9301"
      closest_rate_centers:
      - name: Washington
        distance:
          value: 4.29
          units: km
      - name: Hampton
        distance:
          value: 6.52
          units: km
      - name: Oxford
        distance:
          value: 7.36
          units: km
    - name: Annandale
      region: NJ
      lat: '40.6468'
      long: "-74.8881"
      closest_rate_centers:
      - name: Clinton
        distance:
          value: 2.37
          units: km
      - name: High Bridge
        distance:
          value: 2.5
          units: km
      - name: Lebanon
        distance:
          value: 4.04
          units: km
    - name: Arrowhead Lake
      region: NJ
      lat: '39.4757'
      long: "-75.3174"
      closest_rate_centers:
      - name: Bridgeton
        distance:
          value: 9.31
          units: km
      - name: Salem
        distance:
          value: 17.19
          units: km
      - name: Elmer
        distance:
          value: 18.15
          units: km
    - name: Asbury
      region: NJ
      lat: '40.7003'
      long: "-75.0121"
      closest_rate_centers:
      - name: Hampton
        distance:
          value: 4.67
          units: km
      - name: Washington
        distance:
          value: 7.09
          units: km
      - name: Bloomsbury
        distance:
          value: 8.08
          units: km
    - name: Asbury Park
      region: NJ
      lat: '40.2226'
      long: "-74.0119"
      closest_rate_centers:
      - name: Asbury Park
        distance:
          value: 0.66
          units: km
      - name: Deal
        distance:
          value: 1.44
          units: km
      - name: Belmar (Monmouth)
        distance:
          value: 5.19
          units: km
    - name: Ashland
      region: NJ
      lat: '39.8782'
      long: "-75.0085"
      closest_rate_centers:
      - name: Haddonfield
        distance:
          value: 3.01
          units: km
      - name: Haddon Heights
        distance:
          value: 4.53
          units: km
      - name: Laurel Springs
        distance:
          value: 6.36
          units: km
    - name: Atco
      region: NJ
      lat: '39.7682'
      long: "-74.8618"
      closest_rate_centers:
      - name: Berlin
        distance:
          value: 6.64
          units: km
      - name: Laurel Springs
        distance:
          value: 13.33
          units: km
      - name: Williamstown
        distance:
          value: 14.4
          units: km
    - name: Atlantic City
      region: NJ
      lat: '39.3797'
      long: "-74.4527"
      closest_rate_centers:
      - name: Atlantic City
        distance:
          value: 2.78
          units: km
      - name: Pleasantville
        distance:
          value: 6.19
          units: km
      - name: Brigantine
        distance:
          value: 7.57
          units: km
    - name: Atlantic Highlands
      region: NJ
      lat: '40.4112'
      long: "-74.0295"
      closest_rate_centers:
      - name: Atlantic Highlands
        distance:
          value: 0.71
          units: km
      - name: Middletown
        distance:
          value: 7.55
          units: km
      - name: Red Bank
        distance:
          value: 7.63
          units: km
    - name: Auburn
      region: NJ
      lat: '39.6969'
      long: "-75.3561"
      closest_rate_centers:
      - name: Woodstown
        distance:
          value: 5.23
          units: km
      - name: Swedesboro
        distance:
          value: 6.62
          units: km
      - name: Penns Grove
        distance:
          value: 10.49
          units: km
    - name: Audubon
      region: NJ
      lat: '39.8906'
      long: "-75.0722"
      closest_rate_centers:
      - name: Haddon Heights
        distance:
          value: 1.28
          units: km
      - name: Beaver Brook
        distance:
          value: 2.81
          units: km
      - name: Collingswood
        distance:
          value: 2.95
          units: km
    - name: Audubon Park
      region: NJ
      lat: '39.8969'
      long: "-75.0890"
      closest_rate_centers:
      - name: Gloucester
        distance:
          value: 2.6
          units: km
      - name: Collingswood
        distance:
          value: 2.65
          units: km
      - name: Haddon Heights
        distance:
          value: 2.85
          units: km
    - name: Avalon
      region: NJ
      lat: '39.0906'
      long: "-74.7356"
      closest_rate_centers:
      - name: Avalon
        distance:
          value: 2.04
          units: km
      - name: Cape May Court House
        distance:
          value: 7.57
          units: km
      - name: Sea Isle City
        distance:
          value: 8.09
          units: km
    - name: Avenel
      region: NJ
      lat: '40.5842'
      long: "-74.2716"
      closest_rate_centers:
      - name: Rahway
        distance:
          value: 2.68
          units: km
      - name: Woodbridge
        distance:
          value: 3.29
          units: km
      - name: Carteret
        distance:
          value: 4.44
          units: km
    - name: Avon-by-the-Sea
      region: NJ
      lat: '40.1913'
      long: "-74.0166"
      closest_rate_centers:
      - name: Belmar (Monmouth)
        distance:
          value: 1.72
          units: km
      - name: Asbury Park
        distance:
          value: 2.85
          units: km
      - name: Spring Lake
        distance:
          value: 4.44
          units: km
    - name: Barclay
      region: NJ
      lat: '39.9013'
      long: "-75.0009"
      closest_rate_centers:
      - name: Haddonfield
        distance:
          value: 2.53
          units: km
      - name: Haddon Heights
        distance:
          value: 5.56
          units: km
      - name: Collingswood
        distance:
          value: 6.37
          units: km
    - name: Bargaintown
      region: NJ
      lat: '39.3687'
      long: "-74.5924"
      closest_rate_centers:
      - name: Somers Point
        distance:
          value: 5.98
          units: km
      - name: Pleasantville
        distance:
          value: 6.28
          units: km
      - name: Ocean City
        distance:
          value: 10.55
          units: km
    - name: Barnegat Light
      region: NJ
      lat: '39.7530'
      long: "-74.1095"
      closest_rate_centers:
      - name: Barnegat
        distance:
          value: 9.84
          units: km
      - name: Seaside Park
        distance:
          value: 18.47
          units: km
      - name: Toms River
        distance:
          value: 23.47
          units: km
    - name: Barrington
      region: NJ
      lat: '39.8689'
      long: "-75.0514"
      closest_rate_centers:
      - name: Haddon Heights
        distance:
          value: 1.74
          units: km
      - name: Beaver Brook
        distance:
          value: 2.77
          units: km
      - name: Haddonfield
        distance:
          value: 3.83
          units: km
    - name: Basking Ridge
      region: NJ
      lat: '40.7061'
      long: "-74.5568"
      closest_rate_centers:
      - name: Bernardsville
        distance:
          value: 1.78
          units: km
      - name: Millington
        distance:
          value: 4.5
          units: km
      - name: Mendham
        distance:
          value: 8.3
          units: km
    - name: Bay Head
      region: NJ
      lat: '40.0701'
      long: "-74.0482"
      closest_rate_centers:
      - name: Point Pleasant
        distance:
          value: 2.14
          units: km
      - name: Manasquan
        distance:
          value: 5.78
          units: km
      - name: Spring Lake
        distance:
          value: 9.33
          units: km
    - name: Bayonne
      region: NJ
      lat: '40.6668'
      long: "-74.1158"
      closest_rate_centers:
      - name: Bayonne
        distance:
          value: 0.07
          units: km
      - name: Elizabeth
        distance:
          value: 8.35
          units: km
      - name: Jersey City
        distance:
          value: 8.44
          units: km
    - name: Beach Haven
      region: NJ
      lat: '39.5660'
      long: "-74.2492"
      closest_rate_centers:
      - name: Beach Haven
        distance:
          value: 0.77
          units: km
      - name: Tuckerton
        distance:
          value: 8.76
          units: km
      - name: Barnegat
        distance:
          value: 20.7
          units: km
    - name: Beach Haven West
      region: NJ
      lat: '39.6703'
      long: "-74.2338"
      closest_rate_centers:
      - name: Barnegat
        distance:
          value: 9.03
          units: km
      - name: Beach Haven
        distance:
          value: 11.48
          units: km
      - name: Tuckerton
        distance:
          value: 11.92
          units: km
    - name: Beachwood
      region: NJ
      lat: '39.9286'
      long: "-74.2022"
      closest_rate_centers:
      - name: Toms River
        distance:
          value: 2.67
          units: km
      - name: Seaside Park
        distance:
          value: 10.74
          units: km
      - name: Lakehurst
        distance:
          value: 13.19
          units: km
    - name: Beattystown
      region: NJ
      lat: '40.8222'
      long: "-74.8502"
      closest_rate_centers:
      - name: Hackettstown
        distance:
          value: 3.68
          units: km
      - name: Long Valley
        distance:
          value: 7.51
          units: km
      - name: Great Meadows
        distance:
          value: 7.76
          units: km
    - name: Beckett
      region: NJ
      lat: '39.7559'
      long: "-75.3569"
      closest_rate_centers:
      - name: Swedesboro
        distance:
          value: 3.67
          units: km
      - name: Penns Grove
        distance:
          value: 10.03
          units: km
      - name: Mullica Hill
        distance:
          value: 11.43
          units: km
    - name: Bedminster
      region: NJ
      lat: '40.6745'
      long: "-74.6592"
      closest_rate_centers:
      - name: Peapack
        distance:
          value: 4.82
          units: km
      - name: Oldwick
        distance:
          value: 7.79
          units: km
      - name: Bernardsville
        distance:
          value: 8.93
          units: km
    - name: Beesleys Point
      region: NJ
      lat: '39.2777'
      long: "-74.6333"
      closest_rate_centers:
      - name: Ocean City
        distance:
          value: 5.15
          units: km
      - name: Somers Point
        distance:
          value: 5.34
          units: km
      - name: Tuckahoe
        distance:
          value: 10.6
          units: km
    - name: Belford
      region: NJ
      lat: '40.4261'
      long: "-74.0802"
      closest_rate_centers:
      - name: Atlantic Highlands
        distance:
          value: 3.9
          units: km
      - name: Middletown
        distance:
          value: 4.65
          units: km
      - name: Keansburg
        distance:
          value: 4.98
          units: km
    - name: Belle Mead
      region: NJ
      lat: '40.4684'
      long: "-74.6559"
      closest_rate_centers:
      - name: Belle Mead
        distance:
          value: 0.79
          units: km
      - name: East Millstone
        distance:
          value: 7.44
          units: km
      - name: Neshanic
        distance:
          value: 7.79
          units: km
    - name: Belleplain
      region: NJ
      lat: '39.2662'
      long: "-74.8672"
      closest_rate_centers:
      - name: Dennisville
        distance:
          value: 9.03
          units: km
      - name: Tuckahoe
        distance:
          value: 10.11
          units: km
      - name: Mauricetown
        distance:
          value: 14.49
          units: km
      - name: Port Norris
        distance:
          value: 14.49
          units: km
    - name: Bellmawr
      region: NJ
      lat: '39.8666'
      long: "-75.0941"
      closest_rate_centers:
      - name: Beaver Brook
        distance:
          value: 0.89
          units: km
      - name: Haddon Heights
        distance:
          value: 3.32
          units: km
      - name: Gloucester
        distance:
          value: 3.53
          units: km
    - name: Belmar
      region: NJ
      lat: '40.1798'
      long: "-74.0255"
      closest_rate_centers:
      - name: Belmar (Monmouth)
        distance:
          value: 0.38
          units: km
      - name: Spring Lake
        distance:
          value: 3.02
          units: km
      - name: Asbury Park
        distance:
          value: 4.23
          units: km
    - name: Belvidere
      region: NJ
      lat: '40.8295'
      long: "-75.0728"
      closest_rate_centers:
      - name: Belvidere
        distance:
          value: 0.78
          units: km
      - name: Oxford
        distance:
          value: 6.92
          units: km
      - name: Columbia
        distance:
          value: 10.85
          units: km
    - name: Bergenfield
      region: NJ
      lat: '40.9236'
      long: "-73.9982"
      closest_rate_centers:
      - name: Dumont
        distance:
          value: 2.19
          units: km
      - name: Englewood
        distance:
          value: 3.94
          units: km
      - name: Oradell
        distance:
          value: 4.46
          units: km
    - name: Berlin
      region: NJ
      lat: '39.7915'
      long: "-74.9374"
      closest_rate_centers:
      - name: Berlin
        distance:
          value: 0.5
          units: km
      - name: Laurel Springs
        distance:
          value: 6.42
          units: km
      - name: Marlton
        distance:
          value: 10.97
          units: km
    - name: Bernardsville
      region: NJ
      lat: '40.7268'
      long: "-74.5918"
      closest_rate_centers:
      - name: Bernardsville
        distance:
          value: 2.03
          units: km
      - name: Mendham
        distance:
          value: 5.25
          units: km
      - name: Peapack
        distance:
          value: 5.93
          units: km
    - name: Beverly
      region: NJ
      lat: '40.0652'
      long: "-74.9221"
      closest_rate_centers:
      - name: Riverside
        distance:
          value: 4.64
          units: km
      - name: Burlington
        distance:
          value: 5.35
          units: km
      - name: Riverton
        distance:
          value: 11.02
          units: km
    - name: Blackwells Mills
      region: NJ
      lat: '40.4773'
      long: "-74.5976"
      closest_rate_centers:
      - name: East Millstone
        distance:
          value: 3.16
          units: km
      - name: Belle Mead
        distance:
          value: 5.73
          units: km
      - name: Franklin Park
        distance:
          value: 8.68
          units: km
    - name: Blackwood
      region: NJ
      lat: '39.7982'
      long: "-75.0629"
      closest_rate_centers:
      - name: Blackwood
        distance:
          value: 0.36
          units: km
      - name: Laurel Springs
        distance:
          value: 5.81
          units: km
      - name: Wenonah
        distance:
          value: 7.81
          units: km
    - name: Blawenburg
      region: NJ
      lat: '40.4056'
      long: "-74.6971"
      closest_rate_centers:
      - name: Hopewell (Mercer)
        distance:
          value: 5.97
          units: km
      - name: Princeton
        distance:
          value: 6.89
          units: km
      - name: Belle Mead
        distance:
          value: 7.07
          units: km
    - name: Bloomingdale
      region: NJ
      lat: '41.0300'
      long: "-74.3319"
      closest_rate_centers:
      - name: Butler
        distance:
          value: 3.63
          units: km
      - name: Pompton Lakes
        distance:
          value: 4.76
          units: km
      - name: Oakland
        distance:
          value: 7.85
          units: km
    - name: Bloomsbury
      region: NJ
      lat: '40.6537'
      long: "-75.0840"
      closest_rate_centers:
      - name: Bloomsbury
        distance:
          value: 0.11
          units: km
      - name: Milford
        distance:
          value: 9.66
          units: km
      - name: Phillipsburg
        distance:
          value: 10.23
          units: km
    - name: Bogota
      region: NJ
      lat: '40.8751'
      long: "-74.0293"
      closest_rate_centers:
      - name: Teaneck
        distance:
          value: 1.52
          units: km
      - name: Hackensack
        distance:
          value: 1.6
          units: km
      - name: Leonia
        distance:
          value: 3.71
          units: km
    - name: Boonton
      region: NJ
      lat: '40.9047'
      long: "-74.4048"
      closest_rate_centers:
      - name: Boonton
        distance:
          value: 0.26
          units: km
      - name: Rockaway
        distance:
          value: 8.91
          units: km
      - name: Whippany
        distance:
          value: 9.05
          units: km
    - name: Bound Brook
      region: NJ
      lat: '40.5676'
      long: "-74.5383"
      closest_rate_centers:
      - name: Bound Brook
        distance:
          value: 1.06
          units: km
      - name: Somerville
        distance:
          value: 6.41
          units: km
      - name: Dunellen
        distance:
          value: 6.8
          units: km
    - name: Bradley Beach
      region: NJ
      lat: '40.2018'
      long: "-74.0128"
      closest_rate_centers:
      - name: Asbury Park
        distance:
          value: 1.67
          units: km
      - name: Belmar (Monmouth)
        distance:
          value: 2.93
          units: km
      - name: Deal
        distance:
          value: 3.67
          units: km
    - name: Bradley Gardens
      region: NJ
      lat: '40.5711'
      long: "-74.6678"
      closest_rate_centers:
      - name: Somerville
        distance:
          value: 4.55
          units: km
      - name: Neshanic
        distance:
          value: 8.88
          units: km
      - name: Whitehouse
        distance:
          value: 9.9
          units: km
    - name: Brainards
      region: NJ
      lat: '40.7718'
      long: "-75.1699"
      closest_rate_centers:
      - name: Phillipsburg
        distance:
          value: 8.23
          units: km
      - name: Belvidere
        distance:
          value: 9.62
          units: km
      - name: Oxford
        distance:
          value: 14.86
          units: km
    - name: Branchville
      region: NJ
      lat: '41.1471'
      long: "-74.7494"
      closest_rate_centers:
      - name: Branchville
        distance:
          value: 0.07
          units: km
      - name: Newton
        distance:
          value: 10.22
          units: km
      - name: Franklin Boro
        distance:
          value: 13.85
          units: km
    - name: Brass Castle
      region: NJ
      lat: '40.7621'
      long: "-75.0140"
      closest_rate_centers:
      - name: Washington
        distance:
          value: 2.8
          units: km
      - name: Oxford
        distance:
          value: 4.75
          units: km
      - name: Hampton
        distance:
          value: 7.78
          units: km
    - name: Bridgeport
      region: NJ
      lat: '39.8009'
      long: "-75.3468"
      closest_rate_centers:
      - name: Swedesboro
        distance:
          value: 6.51
          units: km
      - name: Paulsboro
        distance:
          value: 9.49
          units: km
      - name: Mullica Hill
        distance:
          value: 12.79
          units: km
    - name: Bridgeville
      region: NJ
      lat: '40.8427'
      long: "-75.0303"
      closest_rate_centers:
      - name: Belvidere
        distance:
          value: 4.64
          units: km
      - name: Oxford
        distance:
          value: 5.16
          units: km
      - name: Hope
        distance:
          value: 9.22
          units: km
    - name: Bridgewater Center
      region: NJ
      lat: '40.6037'
      long: "-74.6445"
      closest_rate_centers:
      - name: Somerville
        distance:
          value: 4.83
          units: km
      - name: Whitehouse
        distance:
          value: 10.68
          units: km
      - name: Bound Brook
        distance:
          value: 10.76
          units: km
    - name: Brielle
      region: NJ
      lat: '40.1048'
      long: "-74.0637"
      closest_rate_centers:
      - name: Point Pleasant
        distance:
          value: 2.09
          units: km
      - name: Manasquan
        distance:
          value: 2.37
          units: km
      - name: Spring Lake
        distance:
          value: 6.01
          units: km
    - name: Brigantine
      region: NJ
      lat: '39.4138'
      long: "-74.3787"
      closest_rate_centers:
      - name: Brigantine
        distance:
          value: 1.45
          units: km
      - name: Atlantic City
        distance:
          value: 7.65
          units: km
      - name: Pleasantville
        distance:
          value: 12.79
          units: km
    - name: Broadway
      region: NJ
      lat: '40.7356'
      long: "-75.0495"
      closest_rate_centers:
      - name: Washington
        distance:
          value: 6.36
          units: km
      - name: Hampton
        distance:
          value: 8.4
          units: km
      - name: Oxford
        distance:
          value: 8.66
          units: km
    - name: Brookdale
      region: NJ
      lat: '40.8348'
      long: "-74.1798"
      closest_rate_centers:
      - name: Nutley
        distance:
          value: 2.37
          units: km
      - name: Bloomfield
        distance:
          value: 4.65
          units: km
      - name: Passaic
        distance:
          value: 5.38
          units: km
    - name: Brookfield
      region: NJ
      lat: '40.8163'
      long: "-75.0645"
      closest_rate_centers:
      - name: Belvidere
        distance:
          value: 1.77
          units: km
      - name: Oxford
        distance:
          value: 5.76
          units: km
      - name: Washington
        distance:
          value: 9.46
          units: km
    - name: Brooklawn
      region: NJ
      lat: '39.8788'
      long: "-75.1207"
      closest_rate_centers:
      - name: Gloucester
        distance:
          value: 1.49
          units: km
      - name: Beaver Brook
        distance:
          value: 3.42
          units: km
      - name: Haddon Heights
        distance:
          value: 5.09
          units: km
    - name: Brookside
      region: NJ
      lat: '40.7944'
      long: "-74.5661"
      closest_rate_centers:
      - name: Mount Freedom
        distance:
          value: 2.43
          units: km
      - name: Mendham
        distance:
          value: 3.57
          units: km
      - name: Morristown
        distance:
          value: 7.46
          units: km
    - name: Browns Mills
      region: NJ
      lat: '39.9737'
      long: "-74.5690"
      closest_rate_centers:
      - name: Fort Dix
        distance:
          value: 8.01
          units: km
      - name: Pemberton
        distance:
          value: 9.97
          units: km
      - name: New Egypt
        distance:
          value: 10.9
          units: km
    - name: Brownville
      region: NJ
      lat: '40.4014'
      long: "-74.2959"
      closest_rate_centers:
      - name: Matawan
        distance:
          value: 5.64
          units: km
      - name: South River
        distance:
          value: 8.69
          units: km
      - name: Keyport
        distance:
          value: 8.92
          units: km
    - name: Budd Lake
      region: NJ
      lat: '40.8733'
      long: "-74.7375"
      closest_rate_centers:
      - name: Netcong
        distance:
          value: 3.62
          units: km
      - name: Hackettstown
        distance:
          value: 8.18
          units: km
      - name: Succasunna
        distance:
          value: 8.71
          units: km
    - name: Buena
      region: NJ
      lat: '39.5282'
      long: "-74.9448"
      closest_rate_centers:
      - name: Vineland
        distance:
          value: 7.87
          units: km
      - name: Milmay
        distance:
          value: 12.34
          units: km
      - name: Franklinville
        distance:
          value: 15.13
          units: km
    - name: Burleigh
      region: NJ
      lat: '39.0490'
      long: "-74.8465"
      closest_rate_centers:
      - name: Cape May Court House
        distance:
          value: 4.26
          units: km
      - name: Wildwood
        distance:
          value: 7.63
          units: km
      - name: Avalon
        distance:
          value: 12.64
          units: km
    - name: Butler
      region: NJ
      lat: '40.9990'
      long: "-74.3472"
      closest_rate_centers:
      - name: Butler
        distance:
          value: 0.74
          units: km
      - name: Pompton Lakes
        distance:
          value: 5.03
          units: km
      - name: Oakland
        distance:
          value: 9.42
          units: km
    - name: Buttzville
      region: NJ
      lat: '40.8293'
      long: "-75.0060"
      closest_rate_centers:
      - name: Oxford
        distance:
          value: 2.98
          units: km
      - name: Belvidere
        distance:
          value: 6.32
          units: km
      - name: Washington
        distance:
          value: 8.04
          units: km
    - name: Byram Center
      region: NJ
      lat: '40.9325'
      long: "-74.7179"
      closest_rate_centers:
      - name: Netcong
        distance:
          value: 3.9
          units: km
      - name: Andover
        distance:
          value: 6.27
          units: km
      - name: Hopatcong
        distance:
          value: 7.11
          units: km
    - name: Caldwell
      region: NJ
      lat: '40.8389'
      long: "-74.2776"
      closest_rate_centers:
      - name: Caldwell
        distance:
          value: 0.46
          units: km
      - name: Verona
        distance:
          value: 2.27
          units: km
      - name: Livingston
        distance:
          value: 5.66
          units: km
    - name: Califon
      region: NJ
      lat: '40.7193'
      long: "-74.8371"
      closest_rate_centers:
      - name: Califon
        distance:
          value: 0.31
          units: km
      - name: High Bridge
        distance:
          value: 7.65
          units: km
      - name: Lebanon
        distance:
          value: 8.59
          units: km
    - name: Camden
      region: NJ
      lat: '39.9361'
      long: "-75.1073"
      closest_rate_centers:
      - name: Camden
        distance:
          value: 1.46
          units: km
      - name: Collingswood
        distance:
          value: 3.63
          units: km
      - name: Gloucester
        distance:
          value: 4.99
          units: km
    - name: Cape May
      region: NJ
      lat: '38.9409'
      long: "-74.9042"
      closest_rate_centers:
      - name: Wildwood
        distance:
          value: 9.44
          units: km
      - name: Cape May Court House
        distance:
          value: 17.25
          units: km
      - name: Avalon
        distance:
          value: 24.12
          units: km
    - name: Cape May Court House
      region: NJ
      lat: '39.0788'
      long: "-74.8205"
      closest_rate_centers:
      - name: Cape May Court House
        distance:
          value: 0.45
          units: km
      - name: Avalon
        distance:
          value: 9.31
          units: km
      - name: Wildwood
        distance:
          value: 10.35
          units: km
    - name: Cape May Point
      region: NJ
      lat: '38.9372'
      long: "-74.9651"
      closest_rate_centers:
      - name: Wildwood
        distance:
          value: 14.33
          units: km
      - name: Cape May Court House
        distance:
          value: 20.31
          units: km
      - name: Avalon
        distance:
          value: 28.2
          units: km
    - name: Carlls Corner
      region: NJ
      lat: '39.4659'
      long: "-75.2036"
      closest_rate_centers:
      - name: Bridgeton
        distance:
          value: 4.66
          units: km
      - name: Elmer
        distance:
          value: 14.6
          units: km
      - name: Cedarville
        distance:
          value: 14.68
          units: km
    - name: Carlstadt
      region: NJ
      lat: '40.8247'
      long: "-74.0613"
      closest_rate_centers:
      - name: Rutherford
        distance:
          value: 3.86
          units: km
      - name: Hasbrouck Heights
        distance:
          value: 4.54
          units: km
      - name: Cliffside
        distance:
          value: 6.04
          units: km
    - name: Carteret
      region: NJ
      lat: '40.5849'
      long: "-74.2284"
      closest_rate_centers:
      - name: Carteret
        distance:
          value: 1.06
          units: km
      - name: Rahway
        distance:
          value: 5.1
          units: km
      - name: Woodbridge
        distance:
          value: 5.46
          units: km
    - name: Cedar Glen Lakes
      region: NJ
      lat: '39.9527'
      long: "-74.3995"
      closest_rate_centers:
      - name: Lakehurst
        distance:
          value: 9.85
          units: km
      - name: Toms River
        distance:
          value: 17.08
          units: km
      - name: New Egypt
        distance:
          value: 17.17
          units: km
    - name: Cedar Glen West
      region: NJ
      lat: '40.0418'
      long: "-74.2851"
      closest_rate_centers:
      - name: Lakehurst
        distance:
          value: 4.13
          units: km
      - name: Lakewood
        distance:
          value: 8.23
          units: km
      - name: Toms River
        distance:
          value: 12.34
          units: km
    - name: Cedar Knolls
      region: NJ
      lat: '40.8199'
      long: "-74.4551"
      closest_rate_centers:
      - name: Morristown
        distance:
          value: 3.17
          units: km
      - name: Whippany
        distance:
          value: 3.53
          units: km
      - name: Madison
        distance:
          value: 7.32
          units: km
    - name: Cedarville
      region: NJ
      lat: '39.3382'
      long: "-75.2068"
      closest_rate_centers:
      - name: Cedarville
        distance:
          value: 0.76
          units: km
      - name: Bridgeton
        distance:
          value: 10.2
          units: km
      - name: Millville
        distance:
          value: 15.82
          units: km
    - name: Centre Grove
      region: NJ
      lat: '39.3628'
      long: "-75.1351"
      closest_rate_centers:
      - name: Cedarville
        distance:
          value: 6.43
          units: km
      - name: Millville
        distance:
          value: 9.07
          units: km
      - name: Bridgeton
        distance:
          value: 10.81
          units: km
    - name: Cherry Hill Mall
      region: NJ
      lat: '39.9384'
      long: "-75.0117"
      closest_rate_centers:
      - name: Merchantville
        distance:
          value: 3.83
          units: km
      - name: Haddonfield
        distance:
          value: 4.63
          units: km
      - name: Collingswood
        distance:
          value: 5.71
          units: km
    - name: Chesilhurst
      region: NJ
      lat: '39.7306'
      long: "-74.8785"
      closest_rate_centers:
      - name: Berlin
        distance:
          value: 8.37
          units: km
      - name: Williamstown
        distance:
          value: 10.88
          units: km
      - name: Hammonton
        distance:
          value: 12.37
          units: km
    - name: Clayton
      region: NJ
      lat: '39.6627'
      long: "-75.0782"
      closest_rate_centers:
      - name: Franklinville
        distance:
          value: 5.17
          units: km
      - name: Glassboro
        distance:
          value: 5.47
          units: km
      - name: Williamstown
        distance:
          value: 7.86
          units: km
    - name: Clementon
      region: NJ
      lat: '39.8046'
      long: "-74.9850"
      closest_rate_centers:
      - name: Laurel Springs
        distance:
          value: 2.34
          units: km
      - name: Berlin
        distance:
          value: 4.68
          units: km
      - name: Blackwood
        distance:
          value: 6.93
          units: km
    - name: Cliffside Park
      region: NJ
      lat: '40.8222'
      long: "-73.9879"
      closest_rate_centers:
      - name: Cliffside
        distance:
          value: 0.24
          units: km
      - name: Leonia
        distance:
          value: 4.56
          units: km
      - name: Union City
        distance:
          value: 6.56
          units: km
    - name: Cliffwood Beach
      region: NJ
      lat: '40.4427'
      long: "-74.2179"
      closest_rate_centers:
      - name: Keyport
        distance:
          value: 1.53
          units: km
      - name: Matawan
        distance:
          value: 3.37
          units: km
      - name: South Amboy
        distance:
          value: 6.64
          units: km
    - name: Clifton
      region: NJ
      lat: '40.8630'
      long: "-74.1575"
      closest_rate_centers:
      - name: Passaic
        distance:
          value: 2.63
          units: km
      - name: Nutley
        distance:
          value: 4.95
          units: km
      - name: Paterson
        distance:
          value: 5.54
          units: km
    - name: Closter
      region: NJ
      lat: '40.9733'
      long: "-73.9604"
      closest_rate_centers:
      - name: Closter
        distance:
          value: 0.54
          units: km
      - name: Dumont
        distance:
          value: 4.64
          units: km
      - name: Westwood
        distance:
          value: 6.48
          units: km
    - name: Clyde
      region: NJ
      lat: '40.4874'
      long: "-74.5132"
      closest_rate_centers:
      - name: New Brunswick
        distance:
          value: 5.83
          units: km
      - name: East Millstone
        distance:
          value: 5.89
          units: km
      - name: Franklin Park
        distance:
          value: 6.21
          units: km
    - name: Collings Lakes
      region: NJ
      lat: '39.5939'
      long: "-74.8821"
      closest_rate_centers:
      - name: Hammonton
        distance:
          value: 8.28
          units: km
      - name: Williamstown
        distance:
          value: 13.82
          units: km
      - name: Vineland
        distance:
          value: 16.75
          units: km
    - name: Cologne
      region: NJ
      lat: '39.4933'
      long: "-74.6091"
      closest_rate_centers:
      - name: Egg Harbor
        distance:
          value: 5.67
          units: km
      - name: Mays Landing
        distance:
          value: 11.13
          units: km
      - name: Pleasantville
        distance:
          value: 13.79
          units: km
    - name: Colonia
      region: NJ
      lat: '40.5926'
      long: "-74.3148"
      closest_rate_centers:
      - name: Rahway
        distance:
          value: 3.26
          units: km
      - name: Woodbridge
        distance:
          value: 5.09
          units: km
      - name: Linden
        distance:
          value: 6.68
          units: km
    - name: Columbia
      region: NJ
      lat: '40.9260'
      long: "-75.0945"
      closest_rate_centers:
      - name: Columbia
        distance:
          value: 0.2
          units: km
      - name: Hope
        distance:
          value: 10.76
          units: km
      - name: Belvidere
        distance:
          value: 11.16
          units: km
    - name: Concordia
      region: NJ
      lat: '40.3125'
      long: "-74.4461"
      closest_rate_centers:
      - name: Jamesburg
        distance:
          value: 4.11
          units: km
      - name: Cranbury
        distance:
          value: 6.05
          units: km
      - name: Englishtown
        distance:
          value: 7.46
          units: km
    - name: Connecticut Farms
      region: NJ
      lat: '40.6930'
      long: "-74.2716"
      closest_rate_centers:
      - name: Unionville
        distance:
          value: 0.49
          units: km
      - name: Roselle
        distance:
          value: 3.6
          units: km
      - name: Millburn
        distance:
          value: 4.17
          units: km
    - name: Cookstown
      region: NJ
      lat: '40.0446'
      long: "-74.5547"
      closest_rate_centers:
      - name: New Egypt
        distance:
          value: 3.15
          units: km
      - name: Fort Dix
        distance:
          value: 5.41
          units: km
      - name: Pemberton
        distance:
          value: 13.77
          units: km
    - name: Corbin City
      region: NJ
      lat: '39.3046'
      long: "-74.7199"
      closest_rate_centers:
      - name: Tuckahoe
        distance:
          value: 3.29
          units: km
      - name: Somers Point
        distance:
          value: 10.88
          units: km
      - name: Ocean City
        distance:
          value: 13.02
          units: km
    - name: Country Lake Estates
      region: NJ
      lat: '39.9486'
      long: "-74.5409"
      closest_rate_centers:
      - name: Fort Dix
        distance:
          value: 11.66
          units: km
      - name: Pemberton
        distance:
          value: 12.64
          units: km
      - name: New Egypt
        distance:
          value: 13.28
          units: km
    - name: Crandon Lakes
      region: NJ
      lat: '41.1234'
      long: "-74.8403"
      closest_rate_centers:
      - name: Branchville
        distance:
          value: 8.02
          units: km
      - name: Newton
        distance:
          value: 10.24
          units: km
      - name: Andover
        distance:
          value: 17.34
          units: km
    - name: Cranford
      region: NJ
      lat: '40.6548'
      long: "-74.3053"
      closest_rate_centers:
      - name: Cranford
        distance:
          value: 0.27
          units: km
      - name: Roselle
        distance:
          value: 3.42
          units: km
      - name: Westfield
        distance:
          value: 3.44
          units: km
    - name: Cream Ridge
      region: NJ
      lat: '40.1326'
      long: "-74.5348"
      closest_rate_centers:
      - name: Allentown
        distance:
          value: 6.44
          units: km
      - name: New Egypt
        distance:
          value: 7.19
          units: km
      - name: Fort Dix
        distance:
          value: 12.86
          units: km
    - name: Cresskill
      region: NJ
      lat: '40.9405'
      long: "-73.9596"
      closest_rate_centers:
      - name: Closter
        distance:
          value: 3.27
          units: km
      - name: Dumont
        distance:
          value: 3.3
          units: km
      - name: Englewood
        distance:
          value: 5.27
          units: km
    - name: Crestwood Village
      region: NJ
      lat: '39.9568'
      long: "-74.3524"
      closest_rate_centers:
      - name: Lakehurst
        distance:
          value: 6.94
          units: km
      - name: Toms River
        distance:
          value: 13.07
          units: km
      - name: Lakewood
        distance:
          value: 19.07
          units: km
    - name: Crosswicks
      region: NJ
      lat: '40.1439'
      long: "-74.6409"
      closest_rate_centers:
      - name: Allentown
        distance:
          value: 5.96
          units: km
      - name: Bordentown
        distance:
          value: 6.02
          units: km
      - name: Mercerville
        distance:
          value: 11.05
          units: km
    - name: Cumberland-Hesstown
      region: NJ
      lat: '39.3641'
      long: "-74.9284"
      closest_rate_centers:
      - name: Millville
        distance:
          value: 10.11
          units: km
      - name: Milmay
        distance:
          value: 10.5
          units: km
      - name: Vineland
        distance:
          value: 15.66
          units: km
    - name: Dayton
      region: NJ
      lat: '40.3768'
      long: "-74.5112"
      closest_rate_centers:
      - name: Monmouth Junction
        distance:
          value: 2.72
          units: km
      - name: Franklin Park
        distance:
          value: 6.09
          units: km
      - name: Jamesburg
        distance:
          value: 6.91
          units: km
    - name: Deal
      region: NJ
      lat: '40.2497'
      long: "-73.9976"
      closest_rate_centers:
      - name: Deal
        distance:
          value: 1.82
          units: km
      - name: Asbury Park
        distance:
          value: 3.91
          units: km
      - name: Long Branch
        distance:
          value: 6.12
          units: km
    - name: Deans
      region: NJ
      lat: '40.4037'
      long: "-74.5130"
      closest_rate_centers:
      - name: Franklin Park
        distance:
          value: 3.1
          units: km
      - name: Monmouth Junction
        distance:
          value: 3.71
          units: km
      - name: Jamesburg
        distance:
          value: 8.78
          units: km
    - name: Deerfield Street
      region: NJ
      lat: '39.5212'
      long: "-75.2421"
      closest_rate_centers:
      - name: Elmer
        distance:
          value: 10.13
          units: km
      - name: Bridgeton
        distance:
          value: 10.39
          units: km
      - name: Woodstown
        distance:
          value: 16.61
          units: km
    - name: Delaware Park
      region: NJ
      lat: '40.7051'
      long: "-75.1883"
      closest_rate_centers:
      - name: Phillipsburg
        distance:
          value: 0.65
          units: km
      - name: Bloomsbury
        distance:
          value: 10.48
          units: km
      - name: Belvidere
        distance:
          value: 16.21
          units: km
    - name: Delmont
      region: NJ
      lat: '39.2152'
      long: "-74.9494"
      closest_rate_centers:
      - name: Port Norris
        distance:
          value: 8.03
          units: km
      - name: Mauricetown
        distance:
          value: 8.03
          units: km
      - name: Dennisville
        distance:
          value: 11.43
          units: km
      - name: Cape May Court House
        distance:
          value: 18.36
          units: km
    - name: Demarest
      region: NJ
      lat: '40.9550'
      long: "-73.9568"
      closest_rate_centers:
      - name: Closter
        distance:
          value: 1.76
          units: km
      - name: Dumont
        distance:
          value: 3.75
          units: km
      - name: Oradell
        distance:
          value: 6.58
          units: km
    - name: Dennisville
      region: NJ
      lat: '39.2018'
      long: "-74.8217"
      closest_rate_centers:
      - name: Dennisville
        distance:
          value: 0.91
          units: km
      - name: Tuckahoe
        distance:
          value: 11.64
          units: km
      - name: Sea Isle City
        distance:
          value: 12.62
          units: km
    - name: Diamond Beach
      region: NJ
      lat: '38.9595'
      long: "-74.8531"
      closest_rate_centers:
      - name: Wildwood
        distance:
          value: 4.64
          units: km
      - name: Cape May Court House
        distance:
          value: 13.93
          units: km
      - name: Avalon
        distance:
          value: 19.72
          units: km
    - name: Dividing Creek
      region: NJ
      lat: '39.2709'
      long: "-75.1007"
      closest_rate_centers:
      - name: Mauricetown
        distance:
          value: 6.39
          units: km
      - name: Port Norris
        distance:
          value: 6.39
          units: km
      - name: Cedarville
        distance:
          value: 11.04
          units: km
      - name: Millville
        distance:
          value: 14.89
          units: km
    - name: Dorchester
      region: NJ
      lat: '39.2711'
      long: "-74.9729"
      closest_rate_centers:
      - name: Port Norris
        distance:
          value: 5.9
          units: km
      - name: Mauricetown
        distance:
          value: 5.9
          units: km
      - name: Millville
        distance:
          value: 14.99
          units: km
      - name: Dennisville
        distance:
          value: 15.75
          units: km
    - name: Dorothy
      region: NJ
      lat: '39.4054'
      long: "-74.8333"
      closest_rate_centers:
      - name: Milmay
        distance:
          value: 4.39
          units: km
      - name: Mays Landing
        distance:
          value: 10.49
          units: km
      - name: Tuckahoe
        distance:
          value: 14.22
          units: km
    - name: Dover
      region: NJ
      lat: '40.8859'
      long: "-74.5597"
      closest_rate_centers:
      - name: Dover
        distance:
          value: 0.4
          units: km
      - name: Rockaway
        distance:
          value: 4.44
          units: km
      - name: Succasunna
        distance:
          value: 6.59
          units: km
    - name: Dover Beaches North
      region: NJ
      lat: '39.9921'
      long: "-74.0715"
      closest_rate_centers:
      - name: Seaside Park
        distance:
          value: 8.34
          units: km
      - name: Point Pleasant
        distance:
          value: 10.97
          units: km
      - name: Toms River
        distance:
          value: 11.73
          units: km
    - name: Dover Beaches South
      region: NJ
      lat: '39.9539'
      long: "-74.0806"
      closest_rate_centers:
      - name: Seaside Park
        distance:
          value: 4.09
          units: km
      - name: Toms River
        distance:
          value: 10.11
          units: km
      - name: Point Pleasant
        distance:
          value: 15.28
          units: km
    - name: Dumont
      region: NJ
      lat: '40.9452'
      long: "-73.9923"
      closest_rate_centers:
      - name: Dumont
        distance:
          value: 0.58
          units: km
      - name: Closter
        distance:
          value: 3.58
          units: km
      - name: Oradell
        distance:
          value: 3.68
          units: km
    - name: Dunellen
      region: NJ
      lat: '40.5903'
      long: "-74.4656"
      closest_rate_centers:
      - name: Dunellen
        distance:
          value: 0.18
          units: km
      - name: Plainfield
        distance:
          value: 4.82
          units: km
      - name: Bound Brook
        distance:
          value: 6.47
          units: km
    - name: Dutch Neck
      region: NJ
      lat: '39.4017'
      long: "-75.2787"
      closest_rate_centers:
      - name: Bridgeton
        distance:
          value: 5.28
          units: km
      - name: Cedarville
        distance:
          value: 10.14
          units: km
      - name: Millville
        distance:
          value: 20.64
          units: km
    - name: East Franklin
      region: NJ
      lat: '40.4933'
      long: "-74.4710"
      closest_rate_centers:
      - name: New Brunswick
        distance:
          value: 2.21
          units: km
      - name: Franklin Park
        distance:
          value: 7.79
          units: km
      - name: Bound Brook
        distance:
          value: 8.97
          units: km
    - name: East Freehold
      region: NJ
      lat: '40.2718'
      long: "-74.2425"
      closest_rate_centers:
      - name: Freehold
        distance:
          value: 2.73
          units: km
      - name: Holmdel
        distance:
          value: 9.27
          units: km
      - name: Englishtown
        distance:
          value: 10.41
          units: km
    - name: East Millstone
      region: NJ
      lat: '40.5011'
      long: "-74.5661"
      closest_rate_centers:
      - name: East Millstone
        distance:
          value: 1.18
          units: km
      - name: Bound Brook
        distance:
          value: 7.19
          units: km
      - name: Somerville
        distance:
          value: 8.37
          units: km
    - name: East Newark
      region: NJ
      lat: '40.7510'
      long: "-74.1623"
      closest_rate_centers:
      - name: Newark
        distance:
          value: 1.55
          units: km
      - name: Kearny
        distance:
          value: 2.54
          units: km
      - name: Belleville
        distance:
          value: 4.46
          units: km
    - name: East Orange
      region: NJ
      lat: '40.7651'
      long: "-74.2117"
      closest_rate_centers:
      - name: Orange
        distance:
          value: 1.77
          units: km
      - name: Bloomfield
        distance:
          value: 3.66
          units: km
      - name: South Orange
        distance:
          value: 4.26
          units: km
    - name: East Rocky Hill
      region: NJ
      lat: '40.4079'
      long: "-74.6128"
      closest_rate_centers:
      - name: Monmouth Junction
        distance:
          value: 6.7
          units: km
      - name: Belle Mead
        distance:
          value: 7.51
          units: km
      - name: Princeton
        distance:
          value: 7.69
          units: km
    - name: East Rutherford
      region: NJ
      lat: '40.8179'
      long: "-74.0854"
      closest_rate_centers:
      - name: Rutherford
        distance:
          value: 2.12
          units: km
      - name: Hasbrouck Heights
        distance:
          value: 5.07
          units: km
      - name: Passaic
        distance:
          value: 5.94
          units: km
    - name: East Vineland
      region: NJ
      lat: '39.4805'
      long: "-74.9158"
      closest_rate_centers:
      - name: Milmay
        distance:
          value: 6.75
          units: km
      - name: Vineland
        distance:
          value: 8.87
          units: km
      - name: Millville
        distance:
          value: 14.13
          units: km
    - name: Eatontown
      region: NJ
      lat: '40.2913'
      long: "-74.0558"
      closest_rate_centers:
      - name: Eatontown
        distance:
          value: 1.69
          units: km
      - name: Long Branch
        distance:
          value: 5.98
          units: km
      - name: Red Bank
        distance:
          value: 6.33
          units: km
    - name: Echelon
      region: NJ
      lat: '39.8482'
      long: "-74.9957"
      closest_rate_centers:
      - name: Laurel Springs
        distance:
          value: 3.05
          units: km
      - name: Haddonfield
        distance:
          value: 6.42
          units: km
      - name: Haddon Heights
        distance:
          value: 6.78
          units: km
    - name: Edgewater
      region: NJ
      lat: '40.8237'
      long: "-73.9740"
      closest_rate_centers:
      - name: Cliffside
        distance:
          value: 1.31
          units: km
      - name: Leonia
        distance:
          value: 4.55
          units: km
      - name: Union City
        distance:
          value: 7.36
          units: km
    - name: Elizabeth
      region: NJ
      lat: '40.6658'
      long: "-74.1913"
      closest_rate_centers:
      - name: Elizabeth
        distance:
          value: 1.99
          units: km
      - name: Roselle
        distance:
          value: 6.29
          units: km
      - name: Bayonne
        distance:
          value: 6.37
          units: km
    - name: Ellisburg
      region: NJ
      lat: '39.9199'
      long: "-75.0093"
      closest_rate_centers:
      - name: Haddonfield
        distance:
          value: 2.91
          units: km
      - name: Merchantville
        distance:
          value: 5.31
          units: km
      - name: Collingswood
        distance:
          value: 5.41
          units: km
    - name: Elmer
      region: NJ
      lat: '39.5919'
      long: "-75.1740"
      closest_rate_centers:
      - name: Elmer
        distance:
          value: 0.36
          units: km
      - name: Franklinville
        distance:
          value: 8.54
          units: km
      - name: Glassboro
        distance:
          value: 13.41
          units: km
    - name: Elmwood Park
      region: NJ
      lat: '40.9049'
      long: "-74.1201"
      closest_rate_centers:
      - name: Fair Lawn
        distance:
          value: 1.98
          units: km
      - name: Paterson
        distance:
          value: 3.97
          units: km
      - name: Passaic
        distance:
          value: 4.87
          units: km
    - name: Elwood
      region: NJ
      lat: '39.5731'
      long: "-74.7148"
      closest_rate_centers:
      - name: Egg Harbor
        distance:
          value: 7.1
          units: km
      - name: Hammonton
        distance:
          value: 10.27
          units: km
      - name: Mays Landing
        distance:
          value: 13.45
          units: km
    - name: Emerson
      region: NJ
      lat: '40.9748'
      long: "-74.0240"
      closest_rate_centers:
      - name: Westwood
        distance:
          value: 2.04
          units: km
      - name: Oradell
        distance:
          value: 2.66
          units: km
      - name: Dumont
        distance:
          value: 4.1
          units: km
    - name: Encore at Monroe
      region: NJ
      lat: '40.3197'
      long: "-74.4663"
      closest_rate_centers:
      - name: Jamesburg
        distance:
          value: 4.03
          units: km
      - name: Cranbury
        distance:
          value: 4.38
          units: km
      - name: Hightstown
        distance:
          value: 7.67
          units: km
    - name: Englewood
      region: NJ
      lat: '40.8917'
      long: "-73.9736"
      closest_rate_centers:
      - name: Englewood
        distance:
          value: 0.29
          units: km
      - name: Leonia
        distance:
          value: 3.4
          units: km
      - name: Teaneck
        distance:
          value: 3.82
          units: km
    - name: Englewood Cliffs
      region: NJ
      lat: '40.8823'
      long: "-73.9467"
      closest_rate_centers:
      - name: Englewood
        distance:
          value: 2.52
          units: km
      - name: Leonia
        distance:
          value: 4.08
          units: km
      - name: Teaneck
        distance:
          value: 6.04
          units: km
    - name: English Creek
      region: NJ
      lat: '39.3795'
      long: "-74.6481"
      closest_rate_centers:
      - name: Somers Point
        distance:
          value: 8.55
          units: km
      - name: Mays Landing
        distance:
          value: 10.6
          units: km
      - name: Pleasantville
        distance:
          value: 10.72
          units: km
    - name: Englishtown
      region: NJ
      lat: '40.2971'
      long: "-74.3607"
      closest_rate_centers:
      - name: Englishtown
        distance:
          value: 0.24
          units: km
      - name: Freehold
        distance:
          value: 8.66
          units: km
      - name: Jamesburg
        distance:
          value: 8.74
          units: km
    - name: Erma
      region: NJ
      lat: '38.9953'
      long: "-74.8932"
      closest_rate_centers:
      - name: Wildwood
        distance:
          value: 7.13
          units: km
      - name: Cape May Court House
        distance:
          value: 11.45
          units: km
      - name: Avalon
        distance:
          value: 19.29
          units: km
    - name: Essex Fells
      region: NJ
      lat: '40.8271'
      long: "-74.2798"
      closest_rate_centers:
      - name: Caldwell
        distance:
          value: 1.74
          units: km
      - name: Verona
        distance:
          value: 2.56
          units: km
      - name: Livingston
        distance:
          value: 4.47
          units: km
    - name: Estell Manor
      region: NJ
      lat: '39.3587'
      long: "-74.7752"
      closest_rate_centers:
      - name: Tuckahoe
        distance:
          value: 7.54
          units: km
      - name: Mays Landing
        distance:
          value: 11.21
          units: km
      - name: Milmay
        distance:
          value: 11.48
          units: km
    - name: Fair Haven
      region: NJ
      lat: '40.3618'
      long: "-74.0392"
      closest_rate_centers:
      - name: Red Bank
        distance:
          value: 2.62
          units: km
      - name: Atlantic Highlands
        distance:
          value: 5.64
          units: km
      - name: Eatontown
        distance:
          value: 6.46
          units: km
    - name: Fair Lawn
      region: NJ
      lat: '40.9359'
      long: "-74.1177"
      closest_rate_centers:
      - name: Fair Lawn
        distance:
          value: 1.68
          units: km
      - name: Hawthorne
        distance:
          value: 3.35
          units: km
      - name: Paterson
        distance:
          value: 4.85
          units: km
    - name: Fairton
      region: NJ
      lat: '39.3758'
      long: "-75.2130"
      closest_rate_centers:
      - name: Cedarville
        distance:
          value: 4.79
          units: km
      - name: Bridgeton
        distance:
          value: 5.99
          units: km
      - name: Millville
        distance:
          value: 15.15
          units: km
    - name: Fairview
      region: NJ
      lat: '40.8182'
      long: "-74.0022"
      closest_rate_centers:
      - name: Cliffside
        distance:
          value: 1.25
          units: km
      - name: Leonia
        distance:
          value: 5.14
          units: km
      - name: Union City
        distance:
          value: 5.63
          units: km
    - name: Fanwood
      region: NJ
      lat: '40.6417'
      long: "-74.3857"
      closest_rate_centers:
      - name: Fanwood
        distance:
          value: 0.25
          units: km
      - name: Westfield
        distance:
          value: 3.5
          units: km
      - name: Plainfield
        distance:
          value: 4.02
          units: km
    - name: Far Hills
      region: NJ
      lat: '40.6906'
      long: "-74.6257"
      closest_rate_centers:
      - name: Peapack
        distance:
          value: 4.26
          units: km
      - name: Bernardsville
        distance:
          value: 5.59
          units: km
      - name: Millington
        distance:
          value: 8.83
          units: km
    - name: Farmingdale
      region: NJ
      lat: '40.1985'
      long: "-74.1702"
      closest_rate_centers:
      - name: Farmingdale
        distance:
          value: 0.74
          units: km
      - name: Freehold
        distance:
          value: 10.96
          units: km
      - name: Lakewood
        distance:
          value: 12.5
          units: km
    - name: Fieldsboro
      region: NJ
      lat: '40.1364'
      long: "-74.7315"
      closest_rate_centers:
      - name: Bordentown
        distance:
          value: 1.95
          units: km
      - name: Florence (Burlington)
        distance:
          value: 6.87
          units: km
      - name: Trenton
        distance:
          value: 9.71
          units: km
    - name: Finderne
      region: NJ
      lat: '40.5626'
      long: "-74.5743"
      closest_rate_centers:
      - name: Somerville
        distance:
          value: 3.4
          units: km
      - name: Bound Brook
        distance:
          value: 3.68
          units: km
      - name: East Millstone
        distance:
          value: 6.72
          units: km
    - name: Finesville
      region: NJ
      lat: '40.6110'
      long: "-75.1738"
      closest_rate_centers:
      - name: Milford
        distance:
          value: 8.37
          units: km
      - name: Bloomsbury
        distance:
          value: 8.84
          units: km
      - name: Phillipsburg
        distance:
          value: 9.91
          units: km
    - name: Flagtown
      region: NJ
      lat: '40.5232'
      long: "-74.6909"
      closest_rate_centers:
      - name: Neshanic
        distance:
          value: 3.87
          units: km
      - name: Belle Mead
        distance:
          value: 7.04
          units: km
      - name: Somerville
        distance:
          value: 8.1
          units: km
    - name: Flanders
      region: NJ
      lat: '40.8412'
      long: "-74.7102"
      closest_rate_centers:
      - name: Chester
        distance:
          value: 6.29
          units: km
      - name: Netcong
        distance:
          value: 6.32
          units: km
      - name: Succasunna
        distance:
          value: 7.03
          units: km
    - name: Flemington
      region: NJ
      lat: '40.5087'
      long: "-74.8599"
      closest_rate_centers:
      - name: Flemington
        distance:
          value: 0.25
          units: km
      - name: Neshanic
        distance:
          value: 10.82
          units: km
      - name: Whitehouse
        distance:
          value: 13.97
          units: km
    - name: Florham Park
      region: NJ
      lat: '40.7773'
      long: "-74.3953"
      closest_rate_centers:
      - name: Madison
        distance:
          value: 2.38
          units: km
      - name: Chatham
        distance:
          value: 4.36
          units: km
      - name: Whippany
        distance:
          value: 5.37
          units: km
    - name: Folsom
      region: NJ
      lat: '39.5929'
      long: "-74.8424"
      closest_rate_centers:
      - name: Hammonton
        distance:
          value: 5.89
          units: km
      - name: Williamstown
        distance:
          value: 16.38
          units: km
      - name: Milmay
        distance:
          value: 16.99
          units: km
    - name: Fords
      region: NJ
      lat: '40.5359'
      long: "-74.3126"
      closest_rate_centers:
      - name: Woodbridge
        distance:
          value: 3.5
          units: km
      - name: Metuchen
        distance:
          value: 4.29
          units: km
      - name: Perth Amboy
        distance:
          value: 4.47
          units: km
    - name: Forked River
      region: NJ
      lat: '39.8257'
      long: "-74.1819"
      closest_rate_centers:
      - name: Barnegat
        distance:
          value: 9.05
          units: km
      - name: Seaside Park
        distance:
          value: 13.54
          units: km
      - name: Toms River
        distance:
          value: 14.18
          units: km
    - name: Forsgate
      region: NJ
      lat: '40.3487'
      long: "-74.4637"
      closest_rate_centers:
      - name: Jamesburg
        distance:
          value: 2.16
          units: km
      - name: Cranbury
        distance:
          value: 5.97
          units: km
      - name: Monmouth Junction
        distance:
          value: 7.55
          units: km
    - name: Fort Dix
      region: NJ
      lat: '40.0060'
      long: "-74.6089"
      closest_rate_centers:
      - name: Fort Dix
        distance:
          value: 3.37
          units: km
      - name: Pemberton
        distance:
          value: 7.56
          units: km
      - name: New Egypt
        distance:
          value: 9.41
          units: km
    - name: Fort Lee
      region: NJ
      lat: '40.8509'
      long: "-73.9713"
      closest_rate_centers:
      - name: Leonia
        distance:
          value: 1.97
          units: km
      - name: Cliffside
        distance:
          value: 3.36
          units: km
      - name: Englewood
        distance:
          value: 4.8
          units: km
    - name: Fortescue
      region: NJ
      lat: '39.2359'
      long: "-75.1701"
      closest_rate_centers:
      - name: Cedarville
        distance:
          value: 11.2
          units: km
      - name: Mauricetown
        distance:
          value: 11.82
          units: km
      - name: Port Norris
        distance:
          value: 11.82
          units: km
      - name: Millville
        distance:
          value: 21.08
          units: km
    - name: Franklin
      region: NJ
      lat: '41.1101'
      long: "-74.5886"
      closest_rate_centers:
      - name: Franklin Boro
        distance:
          value: 1.1
          units: km
      - name: Lake Mohawk
        distance:
          value: 8.94
          units: km
      - name: Sussex
        distance:
          value: 11.11
          units: km
    - name: Franklin Center
      region: NJ
      lat: '40.5321'
      long: "-74.5415"
      closest_rate_centers:
      - name: Bound Brook
        distance:
          value: 3.22
          units: km
      - name: East Millstone
        distance:
          value: 4.64
          units: km
      - name: Somerville
        distance:
          value: 7.26
          units: km
    - name: Franklin Lakes
      region: NJ
      lat: '41.0086'
      long: "-74.2083"
      closest_rate_centers:
      - name: Oakland
        distance:
          value: 2.95
          units: km
      - name: Wyckoff
        distance:
          value: 3.07
          units: km
      - name: Pompton Lakes
        distance:
          value: 6.68
          units: km
    - name: Franklin Park
      region: NJ
      lat: '40.4439'
      long: "-74.5431"
      closest_rate_centers:
      - name: Franklin Park
        distance:
          value: 2.78
          units: km
      - name: Monmouth Junction
        distance:
          value: 7.16
          units: km
      - name: East Millstone
        distance:
          value: 7.21
          units: km
    - name: Franklinville
      region: NJ
      lat: '39.6194'
      long: "-75.0738"
      closest_rate_centers:
      - name: Franklinville
        distance:
          value: 0.6
          units: km
      - name: Elmer
        distance:
          value: 8.92
          units: km
      - name: Glassboro
        distance:
          value: 9.96
          units: km
    - name: Frenchtown
      region: NJ
      lat: '40.5272'
      long: "-75.0571"
      closest_rate_centers:
      - name: Frenchtown
        distance:
          value: 0.57
          units: km
      - name: Milford
        distance:
          value: 5.39
          units: km
      - name: Bloomsbury
        distance:
          value: 14.17
          units: km
    - name: Gandys Beach
      region: NJ
      lat: '39.2715'
      long: "-75.2316"
      closest_rate_centers:
      - name: Cedarville
        distance:
          value: 7.46
          units: km
      - name: Mauricetown
        distance:
          value: 17.28
          units: km
      - name: Port Norris
        distance:
          value: 17.28
          units: km
      - name: Bridgeton
        distance:
          value: 17.45
          units: km
    - name: Garfield
      region: NJ
      lat: '40.8791'
      long: "-74.1085"
      closest_rate_centers:
      - name: Passaic
        distance:
          value: 2.47
          units: km
      - name: Hasbrouck Heights
        distance:
          value: 3.04
          units: km
      - name: Fair Lawn
        distance:
          value: 4.72
          units: km
    - name: Garwood
      region: NJ
      lat: '40.6513'
      long: "-74.3231"
      closest_rate_centers:
      - name: Cranford
        distance:
          value: 1.4
          units: km
      - name: Westfield
        distance:
          value: 1.89
          units: km
      - name: Roselle
        distance:
          value: 4.97
          units: km
    - name: Germania
      region: NJ
      lat: '39.5088'
      long: "-74.5922"
      closest_rate_centers:
      - name: Egg Harbor
        distance:
          value: 5.66
          units: km
      - name: Mays Landing
        distance:
          value: 13.19
          units: km
      - name: Pleasantville
        distance:
          value: 14.63
          units: km
    - name: Gibbsboro
      region: NJ
      lat: '39.8333'
      long: "-74.9657"
      closest_rate_centers:
      - name: Laurel Springs
        distance:
          value: 3.36
          units: km
      - name: Berlin
        distance:
          value: 5.26
          units: km
      - name: Marlton
        distance:
          value: 7.28
          units: km
    - name: Gibbstown
      region: NJ
      lat: '39.8233'
      long: "-75.2782"
      closest_rate_centers:
      - name: Paulsboro
        distance:
          value: 3.13
          units: km
      - name: Swedesboro
        distance:
          value: 9.0
          units: km
      - name: Woodbury
        distance:
          value: 10.67
          units: km
    - name: Gillette
      region: NJ
      lat: '40.6921'
      long: "-74.4629"
      closest_rate_centers:
      - name: Millington
        distance:
          value: 5.43
          units: km
      - name: Chatham
        distance:
          value: 8.44
          units: km
      - name: Madison
        distance:
          value: 8.74
          units: km
    - name: Glassboro
      region: NJ
      lat: '39.7014'
      long: "-75.1113"
      closest_rate_centers:
      - name: Glassboro
        distance:
          value: 0.34
          units: km
      - name: Pitman
        distance:
          value: 4.4
          units: km
      - name: Franklinville
        distance:
          value: 9.86
          units: km
    - name: Glen Gardner
      region: NJ
      lat: '40.7004'
      long: "-74.9395"
      closest_rate_centers:
      - name: Hampton
        distance:
          value: 1.66
          units: km
      - name: High Bridge
        distance:
          value: 5.04
          units: km
      - name: Clinton
        distance:
          value: 7.4
          units: km
    - name: Glen Ridge
      region: NJ
      lat: '40.8041'
      long: "-74.2043"
      closest_rate_centers:
      - name: Bloomfield
        distance:
          value: 0.73
          units: km
      - name: Nutley
        distance:
          value: 3.94
          units: km
      - name: Orange
        distance:
          value: 4.19
          units: km
    - name: Glen Rock
      region: NJ
      lat: '40.9601'
      long: "-74.1250"
      closest_rate_centers:
      - name: Ridgewood
        distance:
          value: 2.38
          units: km
      - name: Hawthorne
        distance:
          value: 2.98
          units: km
      - name: Fair Lawn
        distance:
          value: 4.44
          units: km
    - name: Glendora
      region: NJ
      lat: '39.8405'
      long: "-75.0677"
      closest_rate_centers:
      - name: Beaver Brook
        distance:
          value: 3.24
          units: km
      - name: Blackwood
        distance:
          value: 4.45
          units: km
      - name: Haddon Heights
        distance:
          value: 4.72
          units: km
    - name: Gloucester City
      region: NJ
      lat: '39.8924'
      long: "-75.1172"
      closest_rate_centers:
      - name: Gloucester
        distance:
          value: 0.14
          units: km
      - name: Beaver Brook
        distance:
          value: 4.02
          units: km
      - name: Collingswood
        distance:
          value: 4.7
          units: km
    - name: Golden Triangle
      region: NJ
      lat: '39.9288'
      long: "-75.0398"
      closest_rate_centers:
      - name: Collingswood
        distance:
          value: 3.08
          units: km
      - name: Merchantville
        distance:
          value: 3.13
          units: km
      - name: Haddonfield
        distance:
          value: 3.37
          units: km
    - name: Goshen
      region: NJ
      lat: '39.1465'
      long: "-74.8524"
      closest_rate_centers:
      - name: Dennisville
        distance:
          value: 5.96
          units: km
      - name: Cape May Court House
        distance:
          value: 7.56
          units: km
      - name: Avalon
        distance:
          value: 12.73
          units: km
    - name: Gouldtown
      region: NJ
      lat: '39.4152'
      long: "-75.1912"
      closest_rate_centers:
      - name: Bridgeton
        distance:
          value: 3.48
          units: km
      - name: Cedarville
        distance:
          value: 9.07
          units: km
      - name: Millville
        distance:
          value: 13.28
          units: km
    - name: Great Meadows
      region: NJ
      lat: '40.8770'
      long: "-74.9034"
      closest_rate_centers:
      - name: Great Meadows
        distance:
          value: 1.77
          units: km
      - name: Hope
        distance:
          value: 6.61
          units: km
      - name: Hackettstown
        distance:
          value: 6.75
          units: km
    - name: Great Notch
      region: NJ
      lat: '40.8705'
      long: "-74.2084"
      closest_rate_centers:
      - name: Little Falls
        distance:
          value: 2.03
          units: km
      - name: Verona
        distance:
          value: 5.35
          units: km
      - name: Paterson
        distance:
          value: 5.85
          units: km
    - name: Green Knoll
      region: NJ
      lat: '40.6047'
      long: "-74.6147"
      closest_rate_centers:
      - name: Somerville
        distance:
          value: 4.21
          units: km
      - name: Bound Brook
        distance:
          value: 8.65
          units: km
      - name: Millington
        distance:
          value: 10.98
          units: km
    - name: Green Village
      region: NJ
      lat: '40.7386'
      long: "-74.4460"
      closest_rate_centers:
      - name: Madison
        distance:
          value: 3.69
          units: km
      - name: Chatham
        distance:
          value: 5.2
          units: km
      - name: Morristown
        distance:
          value: 7.02
          units: km
    - name: Greentree
      region: NJ
      lat: '39.8989'
      long: "-74.9613"
      closest_rate_centers:
      - name: Marlton
        distance:
          value: 3.54
          units: km
      - name: Haddonfield
        distance:
          value: 5.9
          units: km
      - name: Moorestown
        distance:
          value: 7.46
          units: km
    - name: Greenwich
      region: NJ
      lat: '39.3910'
      long: "-75.3432"
      closest_rate_centers:
      - name: Bridgeton
        distance:
          value: 10.74
          units: km
      - name: Cedarville
        distance:
          value: 13.86
          units: km
      - name: Salem
        distance:
          value: 23.21
          units: km
    - name: Grenloch
      region: NJ
      lat: '39.7825'
      long: "-75.0562"
      closest_rate_centers:
      - name: Blackwood
        distance:
          value: 2.17
          units: km
      - name: Laurel Springs
        distance:
          value: 6.33
          units: km
      - name: Pitman
        distance:
          value: 8.36
          units: km
    - name: Griggstown
      region: NJ
      lat: '40.4400'
      long: "-74.5989"
      closest_rate_centers:
      - name: Belle Mead
        distance:
          value: 6.02
          units: km
      - name: East Millstone
        distance:
          value: 7.11
          units: km
      - name: Franklin Park
        distance:
          value: 7.2
          units: km
    - name: Groveville
      region: NJ
      lat: '40.1679'
      long: "-74.6523"
      closest_rate_centers:
      - name: Bordentown
        distance:
          value: 5.64
          units: km
      - name: Allentown
        distance:
          value: 5.8
          units: km
      - name: Mercerville
        distance:
          value: 8.22
          units: km
    - name: Guttenberg
      region: NJ
      lat: '40.7928'
      long: "-74.0049"
      closest_rate_centers:
      - name: Union City
        distance:
          value: 3.05
          units: km
      - name: Cliffside
        distance:
          value: 3.71
          units: km
      - name: Leonia
        distance:
          value: 7.95
          units: km
    - name: Hackensack
      region: NJ
      lat: '40.8891'
      long: "-74.0462"
      closest_rate_centers:
      - name: Hackensack
        distance:
          value: 0.56
          units: km
      - name: Teaneck
        distance:
          value: 2.37
          units: km
      - name: Hasbrouck Heights
        distance:
          value: 3.99
          units: km
    - name: Hackettstown
      region: NJ
      lat: '40.8540'
      long: "-74.8257"
      closest_rate_centers:
      - name: Hackettstown
        distance:
          value: 0.47
          units: km
      - name: Great Meadows
        distance:
          value: 8.1
          units: km
      - name: Long Valley
        distance:
          value: 8.88
          units: km
    - name: Haddon Heights
      region: NJ
      lat: '39.8792'
      long: "-75.0645"
      closest_rate_centers:
      - name: Haddon Heights
        distance:
          value: 0.47
          units: km
      - name: Beaver Brook
        distance:
          value: 2.14
          units: km
      - name: Haddonfield
        distance:
          value: 3.66
          units: km
    - name: Hainesburg
      region: NJ
      lat: '40.9577'
      long: "-75.0503"
      closest_rate_centers:
      - name: Columbia
        distance:
          value: 5.31
          units: km
      - name: Blairstown
        distance:
          value: 7.97
          units: km
      - name: Stroudsburg
        distance:
          value: 8.51
          units: km
    - name: Haledon
      region: NJ
      lat: '40.9363'
      long: "-74.1887"
      closest_rate_centers:
      - name: Hawthorne
        distance:
          value: 3.01
          units: km
      - name: Paterson
        distance:
          value: 3.26
          units: km
      - name: Fair Lawn
        distance:
          value: 6.68
          units: km
    - name: Hamburg
      region: NJ
      lat: '41.1485'
      long: "-74.5736"
      closest_rate_centers:
      - name: Franklin Boro
        distance:
          value: 3.39
          units: km
      - name: Sussex
        distance:
          value: 7.26
          units: km
      - name: Vernon
        distance:
          value: 10.26
          units: km
    - name: Hamilton Square
      region: NJ
      lat: '40.2248'
      long: "-74.6526"
      closest_rate_centers:
      - name: Mercerville
        distance:
          value: 3.47
          units: km
      - name: Allentown
        distance:
          value: 7.9
          units: km
      - name: Trenton
        distance:
          value: 8.86
          units: km
    - name: Hammonton
      region: NJ
      lat: '39.6572'
      long: "-74.7678"
      closest_rate_centers:
      - name: Hammonton
        distance:
          value: 3.79
          units: km
      - name: Egg Harbor
        distance:
          value: 17.08
          units: km
      - name: Williamstown
        distance:
          value: 19.39
          units: km
    - name: Hancocks Bridge
      region: NJ
      lat: '39.5051'
      long: "-75.4605"
      closest_rate_centers:
      - name: Salem
        distance:
          value: 7.81
          units: km
      - name: Woodstown
        distance:
          value: 20.01
          units: km
      - name: Bridgeton
        distance:
          value: 21.71
          units: km
    - name: Harlingen
      region: NJ
      lat: '40.4502'
      long: "-74.6581"
      closest_rate_centers:
      - name: Belle Mead
        distance:
          value: 1.55
          units: km
      - name: East Millstone
        distance:
          value: 8.79
          units: km
      - name: Neshanic
        distance:
          value: 8.95
          units: km
    - name: Harrington Park
      region: NJ
      lat: '40.9899'
      long: "-73.9804"
      closest_rate_centers:
      - name: Closter
        distance:
          value: 2.61
          units: km
      - name: Westwood
        distance:
          value: 4.48
          units: km
      - name: Dumont
        distance:
          value: 5.41
          units: km
    - name: Harrison
      region: NJ
      lat: '40.7431'
      long: "-74.1531"
      closest_rate_centers:
      - name: Newark
        distance:
          value: 1.69
          units: km
      - name: Kearny
        distance:
          value: 3.16
          units: km
      - name: Belleville
        distance:
          value: 5.26
          units: km
    - name: Harrisonville
      region: NJ
      lat: '39.6881'
      long: "-75.2701"
      closest_rate_centers:
      - name: Mullica Hill
        distance:
          value: 6.14
          units: km
      - name: Woodstown
        distance:
          value: 6.36
          units: km
      - name: Swedesboro
        distance:
          value: 7.66
          units: km
    - name: Harvey Cedars
      region: NJ
      lat: '39.6995'
      long: "-74.1426"
      closest_rate_centers:
      - name: Barnegat
        distance:
          value: 9.07
          units: km
      - name: Beach Haven
        distance:
          value: 16.93
          units: km
      - name: Tuckerton
        distance:
          value: 20.15
          units: km
    - name: Hasbrouck Heights
      region: NJ
      lat: '40.8618'
      long: "-74.0741"
      closest_rate_centers:
      - name: Hasbrouck Heights
        distance:
          value: 0.45
          units: km
      - name: Hackensack
        distance:
          value: 3.99
          units: km
      - name: Passaic
        distance:
          value: 4.39
          units: km
    - name: Haworth
      region: NJ
      lat: '40.9622'
      long: "-73.9976"
      closest_rate_centers:
      - name: Dumont
        distance:
          value: 2.11
          units: km
      - name: Closter
        distance:
          value: 2.89
          units: km
      - name: Oradell
        distance:
          value: 3.33
          units: km
    - name: Hawthorne
      region: NJ
      lat: '40.9579'
      long: "-74.1582"
      closest_rate_centers:
      - name: Hawthorne
        distance:
          value: 1.34
          units: km
      - name: Ridgewood
        distance:
          value: 4.44
          units: km
      - name: Paterson
        distance:
          value: 5.11
          units: km
    - name: Heathcote
      region: NJ
      lat: '40.3878'
      long: "-74.5780"
      closest_rate_centers:
      - name: Monmouth Junction
        distance:
          value: 3.1
          units: km
      - name: Plainsboro
        distance:
          value: 6.08
          units: km
      - name: Franklin Park
        distance:
          value: 7.25
          units: km
    - name: Heislerville
      region: NJ
      lat: '39.2236'
      long: "-74.9915"
      closest_rate_centers:
      - name: Port Norris
        distance:
          value: 4.42
          units: km
      - name: Mauricetown
        distance:
          value: 4.42
          units: km
      - name: Dennisville
        distance:
          value: 15.17
          units: km
      - name: Millville
        distance:
          value: 19.58
          units: km
    - name: Helmetta
      region: NJ
      lat: '40.3777'
      long: "-74.4238"
      closest_rate_centers:
      - name: Jamesburg
        distance:
          value: 3.42
          units: km
      - name: South River
        distance:
          value: 8.52
          units: km
      - name: Franklin Park
        distance:
          value: 9.74
          units: km
    - name: Hewitt
      region: NJ
      lat: '41.1601'
      long: "-74.3311"
      closest_rate_centers:
      - name: Upper Greenwood Lake
        distance:
          value: 4.42
          units: km
      - name: West Milford
        distance:
          value: 5.28
          units: km
      - name: Erskine Lakes
        distance:
          value: 6.31
          units: km
    - name: Hi-Nella
      region: NJ
      lat: '39.8367'
      long: "-75.0220"
      closest_rate_centers:
      - name: Laurel Springs
        distance:
          value: 2.44
          units: km
      - name: Blackwood
        distance:
          value: 5.5
          units: km
      - name: Haddon Heights
        distance:
          value: 6.11
          units: km
    - name: Hibernia
      region: NJ
      lat: '40.9423'
      long: "-74.5011"
      closest_rate_centers:
      - name: Rockaway
        distance:
          value: 4.69
          units: km
      - name: Dover
        distance:
          value: 8.26
          units: km
      - name: Boonton
        distance:
          value: 8.85
          units: km
    - name: High Bridge
      region: NJ
      lat: '40.6684'
      long: "-74.8940"
      closest_rate_centers:
      - name: High Bridge
        distance:
          value: 0.31
          units: km
      - name: Clinton
        distance:
          value: 3.85
          units: km
      - name: Lebanon
        distance:
          value: 5.37
          units: km
    - name: Highland Lakes
      region: NJ
      lat: '41.1716'
      long: "-74.4643"
      closest_rate_centers:
      - name: Vernon
        distance:
          value: 4.11
          units: km
      - name: Upper Greenwood Lake
        distance:
          value: 7.3
          units: km
      - name: West Milford
        distance:
          value: 8.88
          units: km
    - name: Highland Park
      region: NJ
      lat: '40.5006'
      long: "-74.4283"
      closest_rate_centers:
      - name: New Brunswick
        distance:
          value: 1.55
          units: km
      - name: Metuchen
        distance:
          value: 7.01
          units: km
      - name: South River
        distance:
          value: 7.28
          units: km
    - name: Highlands
      region: NJ
      lat: '40.4036'
      long: "-73.9898"
      closest_rate_centers:
      - name: Atlantic Highlands
        distance:
          value: 4.17
          units: km
      - name: Red Bank
        distance:
          value: 8.84
          units: km
      - name: Middletown
        distance:
          value: 10.73
          units: km
    - name: Hightstown
      region: NJ
      lat: '40.2686'
      long: "-74.5253"
      closest_rate_centers:
      - name: Hightstown
        distance:
          value: 0.12
          units: km
      - name: Cranbury
        distance:
          value: 5.09
          units: km
      - name: Plainsboro
        distance:
          value: 9.4
          units: km
    - name: Hillsborough
      region: NJ
      lat: '40.5069'
      long: "-74.6523"
      closest_rate_centers:
      - name: Belle Mead
        distance:
          value: 4.89
          units: km
      - name: East Millstone
        distance:
          value: 6.13
          units: km
      - name: Neshanic
        distance:
          value: 6.73
          units: km
    - name: Hillsdale
      region: NJ
      lat: '41.0074'
      long: "-74.0440"
      closest_rate_centers:
      - name: Westwood
        distance:
          value: 1.96
          units: km
      - name: Park Ridge
        distance:
          value: 2.77
          units: km
      - name: Oradell
        distance:
          value: 6.16
          units: km
    - name: Ho-Ho-Kus
      region: NJ
      lat: '41.0001'
      long: "-74.0972"
      closest_rate_centers:
      - name: Ridgewood
        distance:
          value: 2.66
          units: km
      - name: Westwood
        distance:
          value: 5.41
          units: km
      - name: Park Ridge
        distance:
          value: 6.42
          units: km
    - name: Hoboken
      region: NJ
      lat: '40.7452'
      long: "-74.0281"
      closest_rate_centers:
      - name: Union City
        distance:
          value: 2.9
          units: km
      - name: Jersey City
        distance:
          value: 3.49
          units: km
      - name: Cliffside
        distance:
          value: 9.35
          units: km
    - name: Holiday City South
      region: NJ
      lat: '39.9533'
      long: "-74.2367"
      closest_rate_centers:
      - name: Toms River
        distance:
          value: 3.2
          units: km
      - name: Lakehurst
        distance:
          value: 9.17
          units: km
      - name: Seaside Park
        distance:
          value: 14.18
          units: km
    - name: Holiday City-Berkeley
      region: NJ
      lat: '39.9639'
      long: "-74.2787"
      closest_rate_centers:
      - name: Lakehurst
        distance:
          value: 6.04
          units: km
      - name: Toms River
        distance:
          value: 6.9
          units: km
      - name: Lakewood
        distance:
          value: 15.2
          units: km
    - name: Holiday Heights
      region: NJ
      lat: '39.9396'
      long: "-74.2572"
      closest_rate_centers:
      - name: Toms River
        distance:
          value: 5.15
          units: km
      - name: Lakehurst
        distance:
          value: 9.3
          units: km
      - name: Seaside Park
        distance:
          value: 15.55
          units: km
    - name: Hopatcong
      region: NJ
      lat: '40.9541'
      long: "-74.6593"
      closest_rate_centers:
      - name: Hopatcong
        distance:
          value: 3.51
          units: km
      - name: Netcong
        distance:
          value: 7.53
          units: km
      - name: Andover
        distance:
          value: 7.92
          units: km
    - name: Hopelawn
      region: NJ
      lat: '40.5286'
      long: "-74.2936"
      closest_rate_centers:
      - name: Perth Amboy
        distance:
          value: 2.74
          units: km
      - name: Woodbridge
        distance:
          value: 3.18
          units: km
      - name: South Amboy
        distance:
          value: 5.49
          units: km
    - name: Hopewell
      region: NJ
      lat: '40.3893'
      long: "-74.7638"
      closest_rate_centers:
      - name: Hopewell (Mercer)
        distance:
          value: 0.11
          units: km
      - name: Pennington
        distance:
          value: 7.47
          units: km
      - name: Princeton
        distance:
          value: 9.69
          units: km
    - name: Hutchinson
      region: NJ
      lat: '40.7800'
      long: "-75.1204"
      closest_rate_centers:
      - name: Belvidere
        distance:
          value: 6.11
          units: km
      - name: Oxford
        distance:
          value: 10.59
          units: km
      - name: Phillipsburg
        distance:
          value: 10.69
          units: km
    - name: Interlaken
      region: NJ
      lat: '40.2350'
      long: "-74.0166"
      closest_rate_centers:
      - name: Deal
        distance:
          value: 1.06
          units: km
      - name: Asbury Park
        distance:
          value: 2.04
          units: km
      - name: Belmar (Monmouth)
        distance:
          value: 6.5
          units: km
    - name: Iselin
      region: NJ
      lat: '40.5697'
      long: "-74.3172"
      closest_rate_centers:
      - name: Woodbridge
        distance:
          value: 3.53
          units: km
      - name: Metuchen
        distance:
          value: 5.13
          units: km
      - name: Rahway
        distance:
          value: 5.16
          units: km
    - name: Island Heights
      region: NJ
      lat: '39.9424'
      long: "-74.1454"
      closest_rate_centers:
      - name: Toms River
        distance:
          value: 4.72
          units: km
      - name: Seaside Park
        distance:
          value: 6.46
          units: km
      - name: Lakehurst
        distance:
          value: 16.21
          units: km
    - name: Jamesburg
      region: NJ
      lat: '40.3493'
      long: "-74.4399"
      closest_rate_centers:
      - name: Jamesburg
        distance:
          value: 0.15
          units: km
      - name: Cranbury
        distance:
          value: 7.65
          units: km
      - name: Englishtown
        distance:
          value: 8.78
          units: km
    - name: Jersey City
      region: NJ
      lat: '40.7184'
      long: "-74.0686"
      closest_rate_centers:
      - name: Jersey City
        distance:
          value: 2.59
          units: km
      - name: Union City
        distance:
          value: 6.83
          units: km
      - name: Bayonne
        distance:
          value: 6.92
          units: km
    - name: Jobstown
      region: NJ
      lat: '40.0334'
      long: "-74.6945"
      closest_rate_centers:
      - name: Fort Dix
        distance:
          value: 6.59
          units: km
      - name: Pemberton
        distance:
          value: 6.83
          units: km
      - name: Mount Holly
        distance:
          value: 9.52
          units: km
    - name: Johnsonburg
      region: NJ
      lat: '40.9623'
      long: "-74.8765"
      closest_rate_centers:
      - name: Blairstown
        distance:
          value: 7.31
          units: km
      - name: Hope
        distance:
          value: 9.58
          units: km
      - name: Great Meadows
        distance:
          value: 11.16
          units: km
    - name: Juliustown
      region: NJ
      lat: '40.0121'
      long: "-74.6715"
      closest_rate_centers:
      - name: Pemberton
        distance:
          value: 4.59
          units: km
      - name: Fort Dix
        distance:
          value: 5.31
          units: km
      - name: Mount Holly
        distance:
          value: 10.55
          units: km
    - name: Kean University
      region: NJ
      lat: '40.6791'
      long: "-74.2314"
      closest_rate_centers:
      - name: Elizabeth
        distance:
          value: 1.98
          units: km
      - name: Roselle
        distance:
          value: 3.52
          units: km
      - name: Unionville
        distance:
          value: 3.64
          units: km
    - name: Keansburg
      region: NJ
      lat: '40.4469'
      long: "-74.1315"
      closest_rate_centers:
      - name: Keansburg
        distance:
          value: 0.35
          units: km
      - name: Middletown
        distance:
          value: 6.0
          units: km
      - name: Keyport
        distance:
          value: 6.02
          units: km
    - name: Kearny
      region: NJ
      lat: '40.7528'
      long: "-74.1202"
      closest_rate_centers:
      - name: Kearny
        distance:
          value: 3.13
          units: km
      - name: Newark
        distance:
          value: 4.65
          units: km
      - name: Belleville
        distance:
          value: 4.96
          units: km
    - name: Keasbey
      region: NJ
      lat: '40.5143'
      long: "-74.3078"
      closest_rate_centers:
      - name: Perth Amboy
        distance:
          value: 3.1
          units: km
      - name: South Amboy
        distance:
          value: 4.49
          units: km
      - name: Woodbridge
        distance:
          value: 5.13
          units: km
    - name: Kendall Park
      region: NJ
      lat: '40.4135'
      long: "-74.5631"
      closest_rate_centers:
      - name: Monmouth Junction
        distance:
          value: 4.14
          units: km
      - name: Franklin Park
        distance:
          value: 4.58
          units: km
      - name: Plainsboro
        distance:
          value: 9.17
          units: km
    - name: Kenilworth
      region: NJ
      lat: '40.6781'
      long: "-74.2890"
      closest_rate_centers:
      - name: Unionville
        distance:
          value: 2.7
          units: km
      - name: Roselle
        distance:
          value: 2.75
          units: km
      - name: Cranford
        distance:
          value: 2.9
          units: km
    - name: Kenvil
      region: NJ
      lat: '40.8816'
      long: "-74.6220"
      closest_rate_centers:
      - name: Succasunna
        distance:
          value: 1.88
          units: km
      - name: Dover
        distance:
          value: 5.29
          units: km
      - name: Hopatcong
        distance:
          value: 5.4
          units: km
    - name: Keyport
      region: NJ
      lat: '40.4328'
      long: "-74.2011"
      closest_rate_centers:
      - name: Keyport
        distance:
          value: 0.47
          units: km
      - name: Matawan
        distance:
          value: 3.3
          units: km
      - name: Keansburg
        distance:
          value: 5.82
          units: km
    - name: Kingston
      region: NJ
      lat: '40.3838'
      long: "-74.6122"
      closest_rate_centers:
      - name: Princeton
        distance:
          value: 5.67
          units: km
      - name: Plainsboro
        distance:
          value: 5.67
          units: km
      - name: Monmouth Junction
        distance:
          value: 5.87
          units: km
    - name: Kingston Estates
      region: NJ
      lat: '39.9188'
      long: "-74.9898"
      closest_rate_centers:
      - name: Haddonfield
        distance:
          value: 4.09
          units: km
      - name: Moorestown
        distance:
          value: 6.37
          units: km
      - name: Merchantville
        distance:
