---
cities:
- country: US
  region: NJ
  name: Absecon
  lat: '39.4229'
  long: "-74.4944"
  nearby_rate_centers:
  - name: PLEASANTVL
    distance:
      value: 4.61
      units: km
  - name: ATLNTIC CY
    distance:
      value: 8.78
      units: km
  - name: BRIGANTINE
    distance:
      value: 10.94
      units: km
- country: US
  region: NJ
  name: Absecon Highlands
  lat: '39.4409'
  long: "-74.4735"
  nearby_rate_centers:
  - name: PLEASANTVL
    distance:
      value: 7.28
      units: km
  - name: ATLNTIC CY
    distance:
      value: 9.68
      units: km
  - name: BRIGANTINE
    distance:
      value: 9.87
      units: km
- country: US
  region: NJ
  name: Allendale
  lat: '41.0332'
  long: "-74.1333"
  nearby_rate_centers:
  - name: RAMSEY
    distance:
      value: 2.57
      units: km
  - name: WYCKOFF
    distance:
      value: 3.99
      units: km
  - name: RIDGEWOOD
    distance:
      value: 6.16
      units: km
- country: US
  region: NJ
  name: Allenhurst
  lat: '40.2362'
  long: "-74.0017"
  nearby_rate_centers:
  - name: DEAL
    distance:
      value: 0.32
      units: km
  - name: ASBURYPARK
    distance:
      value: 2.39
      units: km
  - name: BELMAR
    distance:
      value: 6.86
      units: km
- country: US
  region: NJ
  name: Allentown
  lat: '40.1778'
  long: "-74.5873"
  nearby_rate_centers:
  - name: ALLENTOWN
    distance:
      value: 0.28
      units: km
  - name: MERCERVL
    distance:
      value: 10.9
      units: km
  - name: BORDENTOWN
    distance:
      value: 11.17
      units: km
- country: US
  region: NJ
  name: Allenwood
  lat: '40.1384'
  long: "-74.1032"
  nearby_rate_centers:
  - name: MANASQUAN
    distance:
      value: 5.08
      units: km
  - name: SPRINGLAKE
    distance:
      value: 6.28
      units: km
  - name: PTPLEASANT
    distance:
      value: 7.1
      units: km
- country: US
  region: NJ
  name: Alpha
  lat: '40.6598'
  long: "-75.1571"
  nearby_rate_centers:
  - name: PHILLIPSBG
    distance:
      value: 5.17
      units: km
  - name: BLOOMSBURY
    distance:
      value: 6.15
      units: km
  - name: MILFORD
    distance:
      value: 11.63
      units: km
- country: US
  region: NJ
  name: Alpine
  lat: '40.9616'
  long: "-73.9198"
  nearby_rate_centers:
  - name: CLOSTER
    distance:
      value: 3.87
      units: km
  - name: DUMONT
    distance:
      value: 6.93
      units: km
  - name: ENGLEWOOD
    distance:
      value: 8.7
      units: km
- country: US
  region: NJ
  name: Ampere North
  lat: '40.7758'
  long: "-74.1918"
  nearby_rate_centers:
  - name: BLOOMFIELD
    distance:
      value: 2.67
      units: km
  - name: ORANGE
    distance:
      value: 3.29
      units: km
  - name: KEARNY
    distance:
      value: 3.7
      units: km
- country: US
  region: NJ
  name: Anderson
  lat: '40.7617'
  long: "-74.9301"
  nearby_rate_centers:
  - name: WASHINGTON
    distance:
      value: 4.29
      units: km
  - name: HAMPTON
    distance:
      value: 6.52
      units: km
  - name: OXFORD
    distance:
      value: 7.36
      units: km
- country: US
  region: NJ
  name: Annandale
  lat: '40.6468'
  long: "-74.8881"
  nearby_rate_centers:
  - name: CLINTON
    distance:
      value: 2.37
      units: km
  - name: HIGHBRIDGE
    distance:
      value: 2.5
      units: km
  - name: LEBANON
    distance:
      value: 4.04
      units: km
- country: US
  region: NJ
  name: Arrowhead Lake
  lat: '39.4757'
  long: "-75.3174"
  nearby_rate_centers:
  - name: BRIDGETON
    distance:
      value: 9.31
      units: km
  - name: SALEM
    distance:
      value: 17.19
      units: km
  - name: ELMER
    distance:
      value: 18.15
      units: km
- country: US
  region: NJ
  name: Asbury
  lat: '40.7003'
  long: "-75.0121"
  nearby_rate_centers:
  - name: HAMPTON
    distance:
      value: 4.67
      units: km
  - name: WASHINGTON
    distance:
      value: 7.09
      units: km
  - name: BLOOMSBURY
    distance:
      value: 8.08
      units: km
- country: US
  region: NJ
  name: Asbury Park
  lat: '40.2226'
  long: "-74.0119"
  nearby_rate_centers:
  - name: ASBURYPARK
    distance:
      value: 0.66
      units: km
  - name: DEAL
    distance:
      value: 1.44
      units: km
  - name: BELMAR
    distance:
      value: 5.19
      units: km
- country: US
  region: NJ
  name: Ashland
  lat: '39.8782'
  long: "-75.0085"
  nearby_rate_centers:
  - name: HADDONFLD
    distance:
      value: 3.01
      units: km
  - name: HADDON HTS
    distance:
      value: 4.53
      units: km
  - name: LAUREL SPG
    distance:
      value: 6.36
      units: km
- country: US
  region: NJ
  name: Atco
  lat: '39.7682'
  long: "-74.8618"
  nearby_rate_centers:
  - name: BERLIN
    distance:
      value: 6.64
      units: km
  - name: LAUREL SPG
    distance:
      value: 13.33
      units: km
  - name: WILLIAMSTN
    distance:
      value: 14.4
      units: km
- country: US
  region: NJ
  name: Atlantic City
  lat: '39.3797'
  long: "-74.4527"
  nearby_rate_centers:
  - name: ATLNTIC CY
    distance:
      value: 2.78
      units: km
  - name: PLEASANTVL
    distance:
      value: 6.19
      units: km
  - name: BRIGANTINE
    distance:
      value: 7.57
      units: km
- country: US
  region: NJ
  name: Atlantic Highlands
  lat: '40.4112'
  long: "-74.0295"
  nearby_rate_centers:
  - name: ATLATCHLDS
    distance:
      value: 0.71
      units: km
  - name: MIDDLETOWN
    distance:
      value: 7.55
      units: km
  - name: RED BANK
    distance:
      value: 7.63
      units: km
- country: US
  region: NJ
  name: Auburn
  lat: '39.6969'
  long: "-75.3561"
  nearby_rate_centers:
  - name: WOODSTOWN
    distance:
      value: 5.23
      units: km
  - name: SWEDESBORO
    distance:
      value: 6.62
      units: km
  - name: PENNSGROVE
    distance:
      value: 10.49
      units: km
- country: US
  region: NJ
  name: Audubon
  lat: '39.8906'
  long: "-75.0722"
  nearby_rate_centers:
  - name: HADDON HTS
    distance:
      value: 1.28
      units: km
  - name: BEAVER BRK
    distance:
      value: 2.81
      units: km
  - name: COLLINGSWD
    distance:
      value: 2.95
      units: km
- country: US
  region: NJ
  name: Audubon Park
  lat: '39.8969'
  long: "-75.0890"
  nearby_rate_centers:
  - name: GLOUCESTER
    distance:
      value: 2.6
      units: km
  - name: COLLINGSWD
    distance:
      value: 2.65
      units: km
  - name: HADDON HTS
    distance:
      value: 2.85
      units: km
- country: US
  region: NJ
  name: Avalon
  lat: '39.0906'
  long: "-74.7356"
  nearby_rate_centers:
  - name: AVALON
    distance:
      value: 2.04
      units: km
  - name: CAPMAYCTHS
    distance:
      value: 7.57
      units: km
  - name: SEAIS CITY
    distance:
      value: 8.09
      units: km
- country: US
  region: NJ
  name: Avenel
  lat: '40.5842'
  long: "-74.2716"
  nearby_rate_centers:
  - name: RAHWAY
    distance:
      value: 2.68
      units: km
  - name: WOODBRIDGE
    distance:
      value: 3.29
      units: km
  - name: CARTERET
    distance:
      value: 4.44
      units: km
- country: US
  region: NJ
  name: Avon-by-the-Sea
  lat: '40.1913'
  long: "-74.0166"
  nearby_rate_centers:
  - name: BELMAR
    distance:
      value: 1.72
      units: km
  - name: ASBURYPARK
    distance:
      value: 2.85
      units: km
  - name: SPRINGLAKE
    distance:
      value: 4.44
      units: km
- country: US
  region: NJ
  name: Barclay
  lat: '39.9013'
  long: "-75.0009"
  nearby_rate_centers:
  - name: HADDONFLD
    distance:
      value: 2.53
      units: km
  - name: HADDON HTS
    distance:
      value: 5.56
      units: km
  - name: COLLINGSWD
    distance:
      value: 6.37
      units: km
- country: US
  region: NJ
  name: Bargaintown
  lat: '39.3687'
  long: "-74.5924"
  nearby_rate_centers:
  - name: SOMERS PT
    distance:
      value: 5.98
      units: km
  - name: PLEASANTVL
    distance:
      value: 6.28
      units: km
  - name: OCEAN CITY
    distance:
      value: 10.55
      units: km
- country: US
  region: NJ
  name: Barnegat Light
  lat: '39.7530'
  long: "-74.1095"
  nearby_rate_centers:
  - name: BARNEGAT
    distance:
      value: 9.84
      units: km
  - name: SEASIDE PK
    distance:
      value: 18.47
      units: km
  - name: TOMS RIVER
    distance:
      value: 23.47
      units: km
- country: US
  region: NJ
  name: Barrington
  lat: '39.8689'
  long: "-75.0514"
  nearby_rate_centers:
  - name: HADDON HTS
    distance:
      value: 1.74
      units: km
  - name: BEAVER BRK
    distance:
      value: 2.77
      units: km
  - name: HADDONFLD
    distance:
      value: 3.83
      units: km
- country: US
  region: NJ
  name: Basking Ridge
  lat: '40.7061'
  long: "-74.5568"
  nearby_rate_centers:
  - name: BERNARDSVL
    distance:
      value: 1.78
      units: km
  - name: MILLINGTON
    distance:
      value: 4.5
      units: km
  - name: MENDHAM
    distance:
      value: 8.3
      units: km
- country: US
  region: NJ
  name: Bay Head
  lat: '40.0701'
  long: "-74.0482"
  nearby_rate_centers:
  - name: PTPLEASANT
    distance:
      value: 2.14
      units: km
  - name: MANASQUAN
    distance:
      value: 5.78
      units: km
  - name: SPRINGLAKE
    distance:
      value: 9.33
      units: km
- country: US
  region: NJ
  name: Bayonne
  lat: '40.6668'
  long: "-74.1158"
  nearby_rate_centers:
  - name: BAYONNE
    distance:
      value: 0.07
      units: km
  - name: ELIZABETH
    distance:
      value: 8.35
      units: km
  - name: JERSEYCITY
    distance:
      value: 8.44
      units: km
- country: US
  region: NJ
  name: Beach Haven
  lat: '39.5660'
  long: "-74.2492"
  nearby_rate_centers:
  - name: BEACHHAVEN
    distance:
      value: 0.77
      units: km
  - name: TUCKERTON
    distance:
      value: 8.76
      units: km
  - name: BARNEGAT
    distance:
      value: 20.7
      units: km
- country: US
  region: NJ
  name: Beach Haven West
  lat: '39.6703'
  long: "-74.2338"
  nearby_rate_centers:
  - name: BARNEGAT
    distance:
      value: 9.03
      units: km
  - name: BEACHHAVEN
    distance:
      value: 11.48
      units: km
  - name: TUCKERTON
    distance:
      value: 11.92
      units: km
- country: US
  region: NJ
  name: Beachwood
  lat: '39.9286'
  long: "-74.2022"
  nearby_rate_centers:
  - name: TOMS RIVER
    distance:
      value: 2.67
      units: km
  - name: SEASIDE PK
    distance:
      value: 10.74
      units: km
  - name: LAKEHURST
    distance:
      value: 13.19
      units: km
- country: US
  region: NJ
  name: Beattystown
  lat: '40.8222'
  long: "-74.8502"
  nearby_rate_centers:
  - name: HACKETTSTN
    distance:
      value: 3.68
      units: km
  - name: LONGVALLEY
    distance:
      value: 7.51
      units: km
  - name: GREAT MDW
    distance:
      value: 7.76
      units: km
- country: US
  region: NJ
  name: Beckett
  lat: '39.7559'
  long: "-75.3569"
  nearby_rate_centers:
  - name: SWEDESBORO
    distance:
      value: 3.67
      units: km
  - name: PENNSGROVE
    distance:
      value: 10.03
      units: km
  - name: MULLICA HL
    distance:
      value: 11.43
      units: km
- country: US
  region: NJ
  name: Bedminster
  lat: '40.6745'
  long: "-74.6592"
  nearby_rate_centers:
  - name: PEAPACK
    distance:
      value: 4.82
      units: km
  - name: OLDWICK
    distance:
      value: 7.79
      units: km
  - name: BERNARDSVL
    distance:
      value: 8.93
      units: km
- country: US
  region: NJ
  name: Beesleys Point
  lat: '39.2777'
  long: "-74.6333"
  nearby_rate_centers:
  - name: OCEAN CITY
    distance:
      value: 5.15
      units: km
  - name: SOMERS PT
    distance:
      value: 5.34
      units: km
  - name: TUCKAHOE
    distance:
      value: 10.6
      units: km
- country: US
  region: NJ
  name: Belford
  lat: '40.4261'
  long: "-74.0802"
  nearby_rate_centers:
  - name: ATLATCHLDS
    distance:
      value: 3.9
      units: km
  - name: MIDDLETOWN
    distance:
      value: 4.65
      units: km
  - name: KEANSBURG
    distance:
      value: 4.98
      units: km
- country: US
  region: NJ
  name: Belle Mead
  lat: '40.4684'
  long: "-74.6559"
  nearby_rate_centers:
  - name: BELLE MEAD
    distance:
      value: 0.79
      units: km
  - name: EMILLSTONE
    distance:
      value: 7.44
      units: km
  - name: NESHANIC
    distance:
      value: 7.79
      units: km
- country: US
  region: NJ
  name: Belleplain
  lat: '39.2662'
  long: "-74.8672"
  nearby_rate_centers:
  - name: DENNISVL
    distance:
      value: 9.03
      units: km
  - name: TUCKAHOE
    distance:
      value: 10.11
      units: km
  - name: MAURICETN
    distance:
      value: 14.49
      units: km
  - name: PORTNORRIS
    distance:
      value: 14.49
      units: km
- country: US
  region: NJ
  name: Bellmawr
  lat: '39.8666'
  long: "-75.0941"
  nearby_rate_centers:
  - name: BEAVER BRK
    distance:
      value: 0.89
      units: km
  - name: HADDON HTS
    distance:
      value: 3.32
      units: km
  - name: GLOUCESTER
    distance:
      value: 3.53
      units: km
- country: US
  region: NJ
  name: Belmar
  lat: '40.1798'
  long: "-74.0255"
  nearby_rate_centers:
  - name: BELMAR
    distance:
      value: 0.38
      units: km
  - name: SPRINGLAKE
    distance:
      value: 3.02
      units: km
  - name: ASBURYPARK
    distance:
      value: 4.23
      units: km
- country: US
  region: NJ
  name: Belvidere
  lat: '40.8295'
  long: "-75.0728"
  nearby_rate_centers:
  - name: BELVIDERE
    distance:
      value: 0.78
      units: km
  - name: OXFORD
    distance:
      value: 6.92
      units: km
  - name: COLUMBIA
    distance:
      value: 10.85
      units: km
- country: US
  region: NJ
  name: Bergenfield
  lat: '40.9236'
  long: "-73.9982"
  nearby_rate_centers:
  - name: DUMONT
    distance:
      value: 2.19
      units: km
  - name: ENGLEWOOD
    distance:
      value: 3.94
      units: km
  - name: ORADELL
    distance:
      value: 4.46
      units: km
- country: US
  region: NJ
  name: Berlin
  lat: '39.7915'
  long: "-74.9374"
  nearby_rate_centers:
  - name: BERLIN
    distance:
      value: 0.5
      units: km
  - name: LAUREL SPG
    distance:
      value: 6.42
      units: km
  - name: MARLTON
    distance:
      value: 10.97
      units: km
- country: US
  region: NJ
  name: Bernardsville
  lat: '40.7268'
  long: "-74.5918"
  nearby_rate_centers:
  - name: BERNARDSVL
    distance:
      value: 2.03
      units: km
  - name: MENDHAM
    distance:
      value: 5.25
      units: km
  - name: PEAPACK
    distance:
      value: 5.93
      units: km
- country: US
  region: NJ
  name: Beverly
  lat: '40.0652'
  long: "-74.9221"
  nearby_rate_centers:
  - name: RIVERSIDE
    distance:
      value: 4.64
      units: km
  - name: BURLINGTON
    distance:
      value: 5.35
      units: km
  - name: RIVERTON
    distance:
      value: 11.02
      units: km
- country: US
  region: NJ
  name: Blackwells Mills
  lat: '40.4773'
  long: "-74.5976"
  nearby_rate_centers:
  - name: EMILLSTONE
    distance:
      value: 3.16
      units: km
  - name: BELLE MEAD
    distance:
      value: 5.73
      units: km
  - name: FRANKLINPK
    distance:
      value: 8.68
      units: km
- country: US
  region: NJ
  name: Blackwood
  lat: '39.7982'
  long: "-75.0629"
  nearby_rate_centers:
  - name: BLACKWOOD
    distance:
      value: 0.36
      units: km
  - name: LAUREL SPG
    distance:
      value: 5.81
      units: km
  - name: WENONAH
    distance:
      value: 7.81
      units: km
- country: US
  region: NJ
  name: Blawenburg
  lat: '40.4056'
  long: "-74.6971"
  nearby_rate_centers:
  - name: HOPEWELL
    distance:
      value: 5.97
      units: km
  - name: PRINCETON
    distance:
      value: 6.89
      units: km
  - name: BELLE MEAD
    distance:
      value: 7.07
      units: km
- country: US
  region: NJ
  name: Bloomingdale
  lat: '41.0300'
  long: "-74.3319"
  nearby_rate_centers:
  - name: BUTLER
    distance:
      value: 3.63
      units: km
  - name: POMPTONLKS
    distance:
      value: 4.76
      units: km
  - name: OAKLAND
    distance:
      value: 7.85
      units: km
- country: US
  region: NJ
  name: Bloomsbury
  lat: '40.6537'
  long: "-75.0840"
  nearby_rate_centers:
  - name: BLOOMSBURY
    distance:
      value: 0.11
      units: km
  - name: MILFORD
    distance:
      value: 9.66
      units: km
  - name: PHILLIPSBG
    distance:
      value: 10.23
      units: km
- country: US
  region: NJ
  name: Bogota
  lat: '40.8751'
  long: "-74.0293"
  nearby_rate_centers:
  - name: TEANECK
    distance:
      value: 1.52
      units: km
  - name: HACKENSACK
    distance:
      value: 1.6
      units: km
  - name: LEONIA
    distance:
      value: 3.71
      units: km
- country: US
  region: NJ
  name: Boonton
  lat: '40.9047'
  long: "-74.4048"
  nearby_rate_centers:
  - name: BOONTON
    distance:
      value: 0.26
      units: km
  - name: ROCKAWAY
    distance:
      value: 8.91
      units: km
  - name: WHIPPANY
    distance:
      value: 9.05
      units: km
- country: US
  region: NJ
  name: Bound Brook
  lat: '40.5676'
  long: "-74.5383"
  nearby_rate_centers:
  - name: BOUNDBROOK
    distance:
      value: 1.06
      units: km
  - name: SOMERVILLE
    distance:
      value: 6.41
      units: km
  - name: DUNELLEN
    distance:
      value: 6.8
      units: km
- country: US
  region: NJ
  name: Bradley Beach
  lat: '40.2018'
  long: "-74.0128"
  nearby_rate_centers:
  - name: ASBURYPARK
    distance:
      value: 1.67
      units: km
  - name: BELMAR
    distance:
      value: 2.93
      units: km
  - name: DEAL
    distance:
      value: 3.67
      units: km
- country: US
  region: NJ
  name: Bradley Gardens
  lat: '40.5711'
  long: "-74.6678"
  nearby_rate_centers:
  - name: SOMERVILLE
    distance:
      value: 4.55
      units: km
  - name: NESHANIC
    distance:
      value: 8.88
      units: km
  - name: WHITEHOUSE
    distance:
      value: 9.9
      units: km
- country: US
  region: NJ
  name: Brainards
  lat: '40.7718'
  long: "-75.1699"
  nearby_rate_centers:
  - name: PHILLIPSBG
    distance:
      value: 8.23
      units: km
  - name: BELVIDERE
    distance:
      value: 9.62
      units: km
  - name: OXFORD
    distance:
      value: 14.86
      units: km
- country: US
  region: NJ
  name: Branchville
  lat: '41.1471'
  long: "-74.7494"
  nearby_rate_centers:
  - name: BRANCHVL
    distance:
      value: 0.07
      units: km
  - name: NEWTON
    distance:
      value: 10.22
      units: km
  - name: FRANKLINBO
    distance:
      value: 13.85
      units: km
- country: US
  region: NJ
  name: Brass Castle
  lat: '40.7621'
  long: "-75.0140"
  nearby_rate_centers:
  - name: WASHINGTON
    distance:
      value: 2.8
      units: km
  - name: OXFORD
    distance:
      value: 4.75
      units: km
  - name: HAMPTON
    distance:
      value: 7.78
      units: km
- country: US
  region: NJ
  name: Bridgeport
  lat: '39.8009'
  long: "-75.3468"
  nearby_rate_centers:
  - name: SWEDESBORO
    distance:
      value: 6.51
      units: km
  - name: PAULSBORO
    distance:
      value: 9.49
      units: km
  - name: MULLICA HL
    distance:
      value: 12.79
      units: km
- country: US
  region: NJ
  name: Bridgeville
  lat: '40.8427'
  long: "-75.0303"
  nearby_rate_centers:
  - name: BELVIDERE
    distance:
      value: 4.64
      units: km
  - name: OXFORD
    distance:
      value: 5.16
      units: km
  - name: HOPE
    distance:
      value: 9.22
      units: km
- country: US
  region: NJ
  name: Bridgewater Center
  lat: '40.6037'
  long: "-74.6445"
  nearby_rate_centers:
  - name: SOMERVILLE
    distance:
      value: 4.83
      units: km
  - name: WHITEHOUSE
    distance:
      value: 10.68
      units: km
  - name: BOUNDBROOK
    distance:
      value: 10.76
      units: km
- country: US
  region: NJ
  name: Brielle
  lat: '40.1048'
  long: "-74.0637"
  nearby_rate_centers:
  - name: PTPLEASANT
    distance:
      value: 2.09
      units: km
  - name: MANASQUAN
    distance:
      value: 2.37
      units: km
  - name: SPRINGLAKE
    distance:
      value: 6.01
      units: km
- country: US
  region: NJ
  name: Brigantine
  lat: '39.4138'
  long: "-74.3787"
  nearby_rate_centers:
  - name: BRIGANTINE
    distance:
      value: 1.45
      units: km
  - name: ATLNTIC CY
    distance:
      value: 7.65
      units: km
  - name: PLEASANTVL
    distance:
      value: 12.79
      units: km
- country: US
  region: NJ
  name: Broadway
  lat: '40.7356'
  long: "-75.0495"
  nearby_rate_centers:
  - name: WASHINGTON
    distance:
      value: 6.36
      units: km
  - name: HAMPTON
    distance:
      value: 8.4
      units: km
  - name: OXFORD
    distance:
      value: 8.66
      units: km
- country: US
  region: NJ
  name: Brookdale
  lat: '40.8348'
  long: "-74.1798"
  nearby_rate_centers:
  - name: NUTLEY
    distance:
      value: 2.37
      units: km
  - name: BLOOMFIELD
    distance:
      value: 4.65
      units: km
  - name: PASSAIC
    distance:
      value: 5.38
      units: km
- country: US
  region: NJ
  name: Brookfield
  lat: '40.8163'
  long: "-75.0645"
  nearby_rate_centers:
  - name: BELVIDERE
    distance:
      value: 1.77
      units: km
  - name: OXFORD
    distance:
      value: 5.76
      units: km
  - name: WASHINGTON
    distance:
      value: 9.46
      units: km
- country: US
  region: NJ
  name: Brooklawn
  lat: '39.8788'
  long: "-75.1207"
  nearby_rate_centers:
  - name: GLOUCESTER
    distance:
      value: 1.49
      units: km
  - name: BEAVER BRK
    distance:
      value: 3.42
      units: km
  - name: HADDON HTS
    distance:
      value: 5.09
      units: km
- country: US
  region: NJ
  name: Brookside
  lat: '40.7944'
  long: "-74.5661"
  nearby_rate_centers:
  - name: MT FREEDOM
    distance:
      value: 2.43
      units: km
  - name: MENDHAM
    distance:
      value: 3.57
      units: km
  - name: MORRISTOWN
    distance:
      value: 7.46
      units: km
- country: US
  region: NJ
  name: Browns Mills
  lat: '39.9737'
  long: "-74.5690"
  nearby_rate_centers:
  - name: FORT DIX
    distance:
      value: 8.01
      units: km
  - name: PEMBERTON
    distance:
      value: 9.97
      units: km
  - name: NEW EGYPT
    distance:
      value: 10.9
      units: km
- country: US
  region: NJ
  name: Brownville
  lat: '40.4014'
  long: "-74.2959"
  nearby_rate_centers:
  - name: MATAWAN
    distance:
      value: 5.64
      units: km
  - name: SOUTHRIVER
    distance:
      value: 8.69
      units: km
  - name: KEYPORT
    distance:
      value: 8.92
      units: km
- country: US
  region: NJ
  name: Budd Lake
  lat: '40.8733'
  long: "-74.7375"
  nearby_rate_centers:
  - name: NETCONG
    distance:
      value: 3.62
      units: km
  - name: HACKETTSTN
    distance:
      value: 8.18
      units: km
  - name: SUCCASUNNA
    distance:
      value: 8.71
      units: km
- country: US
  region: NJ
  name: Buena
  lat: '39.5282'
  long: "-74.9448"
  nearby_rate_centers:
  - name: VINELAND
    distance:
      value: 7.87
      units: km
  - name: MILMAY
    distance:
      value: 12.34
      units: km
  - name: FRANKLINVL
    distance:
      value: 15.13
      units: km
- country: US
  region: NJ
  name: Burleigh
  lat: '39.0490'
  long: "-74.8465"
  nearby_rate_centers:
  - name: CAPMAYCTHS
    distance:
      value: 4.26
      units: km
  - name: WILDWOOD
    distance:
      value: 7.63
      units: km
  - name: AVALON
    distance:
      value: 12.64
      units: km
- country: US
  region: NJ
  name: Butler
  lat: '40.9990'
  long: "-74.3472"
  nearby_rate_centers:
  - name: BUTLER
    distance:
      value: 0.74
      units: km
  - name: POMPTONLKS
    distance:
      value: 5.03
      units: km
  - name: OAKLAND
    distance:
      value: 9.42
      units: km
- country: US
  region: NJ
  name: Buttzville
  lat: '40.8293'
  long: "-75.0060"
  nearby_rate_centers:
  - name: OXFORD
    distance:
      value: 2.98
      units: km
  - name: BELVIDERE
    distance:
      value: 6.32
      units: km
  - name: WASHINGTON
    distance:
      value: 8.04
      units: km
- country: US
  region: NJ
  name: Byram Center
  lat: '40.9325'
  long: "-74.7179"
  nearby_rate_centers:
  - name: NETCONG
    distance:
      value: 3.9
      units: km
  - name: ANDOVER
    distance:
      value: 6.27
      units: km
  - name: HOPATCONG
    distance:
      value: 7.11
      units: km
- country: US
  region: NJ
  name: Caldwell
  lat: '40.8389'
  long: "-74.2776"
  nearby_rate_centers:
  - name: CALDWELL
    distance:
      value: 0.46
      units: km
  - name: VERONA
    distance:
      value: 2.27
      units: km
  - name: LIVINGSTON
    distance:
      value: 5.66
      units: km
- country: US
  region: NJ
  name: Califon
  lat: '40.7193'
  long: "-74.8371"
  nearby_rate_centers:
  - name: CALIFON
    distance:
      value: 0.31
      units: km
  - name: HIGHBRIDGE
    distance:
      value: 7.65
      units: km
  - name: LEBANON
    distance:
      value: 8.59
      units: km
- country: US
  region: NJ
  name: Camden
  lat: '39.9361'
  long: "-75.1073"
  nearby_rate_centers:
  - name: CAMDEN
    distance:
      value: 1.46
      units: km
  - name: COLLINGSWD
    distance:
      value: 3.63
      units: km
  - name: GLOUCESTER
    distance:
      value: 4.99
      units: km
- country: US
  region: NJ
  name: Cape May
  lat: '38.9409'
  long: "-74.9042"
  nearby_rate_centers:
  - name: WILDWOOD
    distance:
      value: 9.44
      units: km
  - name: CAPMAYCTHS
    distance:
      value: 17.25
      units: km
  - name: AVALON
    distance:
      value: 24.12
      units: km
- country: US
  region: NJ
  name: Cape May Court House
  lat: '39.0788'
  long: "-74.8205"
  nearby_rate_centers:
  - name: CAPMAYCTHS
    distance:
      value: 0.45
      units: km
  - name: AVALON
    distance:
      value: 9.31
      units: km
  - name: WILDWOOD
    distance:
      value: 10.35
      units: km
- country: US
  region: NJ
  name: Cape May Point
  lat: '38.9372'
  long: "-74.9651"
  nearby_rate_centers:
  - name: WILDWOOD
    distance:
      value: 14.33
      units: km
  - name: CAPMAYCTHS
    distance:
      value: 20.31
      units: km
  - name: AVALON
    distance:
      value: 28.2
      units: km
- country: US
  region: NJ
  name: Carlls Corner
  lat: '39.4659'
  long: "-75.2036"
  nearby_rate_centers:
  - name: BRIDGETON
    distance:
      value: 4.66
      units: km
  - name: ELMER
    distance:
      value: 14.6
      units: km
  - name: CEDARVILLE
    distance:
      value: 14.68
      units: km
- country: US
  region: NJ
  name: Carlstadt
  lat: '40.8247'
  long: "-74.0613"
  nearby_rate_centers:
  - name: RUTHERFORD
    distance:
      value: 3.86
      units: km
  - name: HASBROKHTS
    distance:
      value: 4.54
      units: km
  - name: CLIFFSIDE
    distance:
      value: 6.04
      units: km
- country: US
  region: NJ
  name: Carteret
  lat: '40.5849'
  long: "-74.2284"
  nearby_rate_centers:
  - name: CARTERET
    distance:
      value: 1.06
      units: km
  - name: RAHWAY
    distance:
      value: 5.1
      units: km
  - name: WOODBRIDGE
    distance:
      value: 5.46
      units: km
- country: US
  region: NJ
  name: Cedar Glen Lakes
  lat: '39.9527'
  long: "-74.3995"
  nearby_rate_centers:
  - name: LAKEHURST
    distance:
      value: 9.85
      units: km
  - name: TOMS RIVER
    distance:
      value: 17.08
      units: km
  - name: NEW EGYPT
    distance:
      value: 17.17
      units: km
- country: US
  region: NJ
  name: Cedar Glen West
  lat: '40.0418'
  long: "-74.2851"
  nearby_rate_centers:
  - name: LAKEHURST
    distance:
      value: 4.13
      units: km
  - name: LAKEWOOD
    distance:
      value: 8.23
      units: km
  - name: TOMS RIVER
    distance:
      value: 12.34
      units: km
- country: US
  region: NJ
  name: Cedar Knolls
  lat: '40.8199'
  long: "-74.4551"
  nearby_rate_centers:
  - name: MORRISTOWN
    distance:
      value: 3.17
      units: km
  - name: WHIPPANY
    distance:
      value: 3.53
      units: km
  - name: MADISON
    distance:
      value: 7.32
      units: km
- country: US
  region: NJ
  name: Cedarville
  lat: '39.3382'
  long: "-75.2068"
  nearby_rate_centers:
  - name: CEDARVILLE
    distance:
      value: 0.76
      units: km
  - name: BRIDGETON
    distance:
      value: 10.2
      units: km
  - name: MILLVILLE
    distance:
      value: 15.82
      units: km
- country: US
  region: NJ
  name: Centre Grove
  lat: '39.3628'
  long: "-75.1351"
  nearby_rate_centers:
  - name: CEDARVILLE
    distance:
      value: 6.43
      units: km
  - name: MILLVILLE
    distance:
      value: 9.07
      units: km
  - name: BRIDGETON
    distance:
      value: 10.81
      units: km
- country: US
  region: NJ
  name: Cherry Hill Mall
  lat: '39.9384'
  long: "-75.0117"
  nearby_rate_centers:
  - name: MERCHANTVL
    distance:
      value: 3.83
      units: km
  - name: HADDONFLD
    distance:
      value: 4.63
      units: km
  - name: COLLINGSWD
    distance:
      value: 5.71
      units: km
- country: US
  region: NJ
  name: Chesilhurst
  lat: '39.7306'
  long: "-74.8785"
  nearby_rate_centers:
  - name: BERLIN
    distance:
      value: 8.37
      units: km
  - name: WILLIAMSTN
    distance:
      value: 10.88
      units: km
  - name: HAMMONTON
    distance:
      value: 12.37
      units: km
- country: US
  region: NJ
  name: Clayton
  lat: '39.6627'
  long: "-75.0782"
  nearby_rate_centers:
  - name: FRANKLINVL
    distance:
      value: 5.17
      units: km
  - name: GLASSBORO
    distance:
      value: 5.47
      units: km
  - name: WILLIAMSTN
    distance:
      value: 7.86
      units: km
- country: US
  region: NJ
  name: Clementon
  lat: '39.8046'
  long: "-74.9850"
  nearby_rate_centers:
  - name: LAUREL SPG
    distance:
      value: 2.34
      units: km
  - name: BERLIN
    distance:
      value: 4.68
      units: km
  - name: BLACKWOOD
    distance:
      value: 6.93
      units: km
- country: US
  region: NJ
  name: Cliffside Park
  lat: '40.8222'
  long: "-73.9879"
  nearby_rate_centers:
  - name: CLIFFSIDE
    distance:
      value: 0.24
      units: km
  - name: LEONIA
    distance:
      value: 4.56
      units: km
  - name: UNION CITY
    distance:
      value: 6.56
      units: km
- country: US
  region: NJ
  name: Cliffwood Beach
  lat: '40.4427'
  long: "-74.2179"
  nearby_rate_centers:
  - name: KEYPORT
    distance:
      value: 1.53
      units: km
  - name: MATAWAN
    distance:
      value: 3.37
      units: km
  - name: SOUTHAMBOY
    distance:
      value: 6.64
      units: km
- country: US
  region: NJ
  name: Clifton
  lat: '40.8630'
  long: "-74.1575"
  nearby_rate_centers:
  - name: PASSAIC
    distance:
      value: 2.63
      units: km
  - name: NUTLEY
    distance:
      value: 4.95
      units: km
  - name: PATERSON
    distance:
      value: 5.54
      units: km
- country: US
  region: NJ
  name: Closter
  lat: '40.9733'
  long: "-73.9604"
  nearby_rate_centers:
  - name: CLOSTER
    distance:
      value: 0.54
      units: km
  - name: DUMONT
    distance:
      value: 4.64
      units: km
  - name: WESTWOOD
    distance:
      value: 6.48
      units: km
- country: US
  region: NJ
  name: Clyde
  lat: '40.4874'
  long: "-74.5132"
  nearby_rate_centers:
  - name: NEWBRNSWCK
    distance:
      value: 5.83
      units: km
  - name: EMILLSTONE
    distance:
      value: 5.89
      units: km
  - name: FRANKLINPK
    distance:
      value: 6.21
      units: km
- country: US
  region: NJ
  name: Collings Lakes
  lat: '39.5939'
  long: "-74.8821"
  nearby_rate_centers:
  - name: HAMMONTON
    distance:
      value: 8.28
      units: km
  - name: WILLIAMSTN
    distance:
      value: 13.82
      units: km
  - name: VINELAND
    distance:
      value: 16.75
      units: km
- country: US
  region: NJ
  name: Cologne
  lat: '39.4933'
  long: "-74.6091"
  nearby_rate_centers:
  - name: EGG HARBOR
    distance:
      value: 5.67
      units: km
  - name: MAYS LDG
    distance:
      value: 11.13
      units: km
  - name: PLEASANTVL
    distance:
      value: 13.79
      units: km
- country: US
  region: NJ
  name: Colonia
  lat: '40.5926'
  long: "-74.3148"
  nearby_rate_centers:
  - name: RAHWAY
    distance:
      value: 3.26
      units: km
  - name: WOODBRIDGE
    distance:
      value: 5.09
      units: km
  - name: LINDEN
    distance:
      value: 6.68
      units: km
- country: US
  region: NJ
  name: Columbia
  lat: '40.9260'
  long: "-75.0945"
  nearby_rate_centers:
  - name: COLUMBIA
    distance:
      value: 0.2
      units: km
  - name: HOPE
    distance:
      value: 10.76
      units: km
  - name: BELVIDERE
    distance:
      value: 11.16
      units: km
- country: US
  region: NJ
  name: Concordia
  lat: '40.3125'
  long: "-74.4461"
  nearby_rate_centers:
  - name: JAMESBURG
    distance:
      value: 4.11
      units: km
  - name: CRANBURY
    distance:
      value: 6.05
      units: km
  - name: ENGLISHTN
    distance:
      value: 7.46
      units: km
- country: US
  region: NJ
  name: Connecticut Farms
  lat: '40.6930'
  long: "-74.2716"
  nearby_rate_centers:
  - name: UNIONVILLE
    distance:
      value: 0.49
      units: km
  - name: ROSELLE
    distance:
      value: 3.6
      units: km
  - name: MILLBURN
    distance:
      value: 4.17
      units: km
- country: US
  region: NJ
  name: Cookstown
  lat: '40.0446'
  long: "-74.5547"
  nearby_rate_centers:
  - name: NEW EGYPT
    distance:
      value: 3.15
      units: km
  - name: FORT DIX
    distance:
      value: 5.41
      units: km
  - name: PEMBERTON
    distance:
      value: 13.77
      units: km
- country: US
  region: NJ
  name: Corbin City
  lat: '39.3046'
  long: "-74.7199"
  nearby_rate_centers:
  - name: TUCKAHOE
    distance:
      value: 3.29
      units: km
  - name: SOMERS PT
    distance:
      value: 10.88
      units: km
  - name: OCEAN CITY
    distance:
      value: 13.02
      units: km
- country: US
  region: NJ
  name: Country Lake Estates
  lat: '39.9486'
  long: "-74.5409"
  nearby_rate_centers:
  - name: FORT DIX
    distance:
      value: 11.66
      units: km
  - name: PEMBERTON
    distance:
      value: 12.64
      units: km
  - name: NEW EGYPT
    distance:
      value: 13.28
      units: km
- country: US
  region: NJ
  name: Crandon Lakes
  lat: '41.1234'
  long: "-74.8403"
  nearby_rate_centers:
  - name: BRANCHVL
    distance:
      value: 8.02
      units: km
  - name: NEWTON
    distance:
      value: 10.24
      units: km
  - name: ANDOVER
    distance:
      value: 17.34
      units: km
- country: US
  region: NJ
  name: Cranford
  lat: '40.6548'
  long: "-74.3053"
  nearby_rate_centers:
  - name: CRANFORD
    distance:
      value: 0.27
      units: km
  - name: ROSELLE
    distance:
      value: 3.42
      units: km
  - name: WESTFIELD
    distance:
      value: 3.44
      units: km
- country: US
  region: NJ
  name: Cream Ridge
  lat: '40.1326'
  long: "-74.5348"
  nearby_rate_centers:
  - name: ALLENTOWN
    distance:
      value: 6.44
      units: km
  - name: NEW EGYPT
    distance:
      value: 7.19
      units: km
  - name: FORT DIX
    distance:
      value: 12.86
      units: km
- country: US
  region: NJ
  name: Cresskill
  lat: '40.9405'
  long: "-73.9596"
  nearby_rate_centers:
  - name: CLOSTER
    distance:
      value: 3.27
      units: km
  - name: DUMONT
    distance:
      value: 3.3
      units: km
  - name: ENGLEWOOD
    distance:
      value: 5.27
      units: km
- country: US
  region: NJ
  name: Crestwood Village
  lat: '39.9568'
  long: "-74.3524"
  nearby_rate_centers:
  - name: LAKEHURST
    distance:
      value: 6.94
      units: km
  - name: TOMS RIVER
    distance:
      value: 13.07
      units: km
  - name: LAKEWOOD
    distance:
      value: 19.07
      units: km
- country: US
  region: NJ
  name: Crosswicks
  lat: '40.1439'
  long: "-74.6409"
  nearby_rate_centers:
  - name: ALLENTOWN
    distance:
      value: 5.96
      units: km
  - name: BORDENTOWN
    distance:
      value: 6.02
      units: km
  - name: MERCERVL
    distance:
      value: 11.05
      units: km
- country: US
  region: NJ
  name: Cumberland-Hesstown
  lat: '39.3641'
  long: "-74.9284"
  nearby_rate_centers:
  - name: MILLVILLE
    distance:
      value: 10.11
      units: km
  - name: MILMAY
    distance:
      value: 10.5
      units: km
  - name: VINELAND
    distance:
      value: 15.66
      units: km
- country: US
  region: NJ
  name: Dayton
  lat: '40.3768'
  long: "-74.5112"
  nearby_rate_centers:
  - name: MONMTH JCT
    distance:
      value: 2.72
      units: km
  - name: FRANKLINPK
    distance:
      value: 6.09
      units: km
  - name: JAMESBURG
    distance:
      value: 6.91
      units: km
- country: US
  region: NJ
  name: Deal
  lat: '40.2497'
  long: "-73.9976"
  nearby_rate_centers:
  - name: DEAL
    distance:
      value: 1.82
      units: km
  - name: ASBURYPARK
    distance:
      value: 3.91
      units: km
  - name: LONGBRANCH
    distance:
      value: 6.12
      units: km
- country: US
  region: NJ
  name: Deans
  lat: '40.4037'
  long: "-74.5130"
  nearby_rate_centers:
  - name: FRANKLINPK
    distance:
      value: 3.1
      units: km
  - name: MONMTH JCT
    distance:
      value: 3.71
      units: km
  - name: JAMESBURG
    distance:
      value: 8.78
      units: km
- country: US
  region: NJ
  name: Deerfield Street
  lat: '39.5212'
  long: "-75.2421"
  nearby_rate_centers:
  - name: ELMER
    distance:
      value: 10.13
      units: km
  - name: BRIDGETON
    distance:
      value: 10.39
      units: km
  - name: WOODSTOWN
    distance:
      value: 16.61
      units: km
- country: US
  region: NJ
  name: Delaware Park
  lat: '40.7051'
  long: "-75.1883"
  nearby_rate_centers:
  - name: PHILLIPSBG
    distance:
      value: 0.65
      units: km
  - name: BLOOMSBURY
    distance:
      value: 10.48
      units: km
  - name: BELVIDERE
    distance:
      value: 16.21
      units: km
- country: US
  region: NJ
  name: Delmont
  lat: '39.2152'
  long: "-74.9494"
  nearby_rate_centers:
  - name: PORTNORRIS
    distance:
      value: 8.03
      units: km
  - name: MAURICETN
    distance:
      value: 8.03
      units: km
  - name: DENNISVL
    distance:
      value: 11.43
      units: km
  - name: CAPMAYCTHS
    distance:
      value: 18.36
      units: km
- country: US
  region: NJ
  name: Demarest
  lat: '40.9550'
  long: "-73.9568"
  nearby_rate_centers:
  - name: CLOSTER
    distance:
      value: 1.76
      units: km
  - name: DUMONT
    distance:
      value: 3.75
      units: km
  - name: ORADELL
    distance:
      value: 6.58
      units: km
- country: US
  region: NJ
  name: Dennisville
  lat: '39.2018'
  long: "-74.8217"
  nearby_rate_centers:
  - name: DENNISVL
    distance:
      value: 0.91
      units: km
  - name: TUCKAHOE
    distance:
      value: 11.64
      units: km
  - name: SEAIS CITY
    distance:
      value: 12.62
      units: km
- country: US
  region: NJ
  name: Diamond Beach
  lat: '38.9595'
  long: "-74.8531"
  nearby_rate_centers:
  - name: WILDWOOD
    distance:
      value: 4.64
      units: km
  - name: CAPMAYCTHS
    distance:
      value: 13.93
      units: km
  - name: AVALON
    distance:
      value: 19.72
      units: km
- country: US
  region: NJ
  name: Dividing Creek
  lat: '39.2709'
  long: "-75.1007"
  nearby_rate_centers:
  - name: MAURICETN
    distance:
      value: 6.39
      units: km
  - name: PORTNORRIS
    distance:
      value: 6.39
      units: km
  - name: CEDARVILLE
    distance:
      value: 11.04
      units: km
  - name: MILLVILLE
    distance:
      value: 14.89
      units: km
- country: US
  region: NJ
  name: Dorchester
  lat: '39.2711'
  long: "-74.9729"
  nearby_rate_centers:
  - name: PORTNORRIS
    distance:
      value: 5.9
      units: km
  - name: MAURICETN
    distance:
      value: 5.9
      units: km
  - name: MILLVILLE
    distance:
      value: 14.99
      units: km
  - name: DENNISVL
    distance:
      value: 15.75
      units: km
- country: US
  region: NJ
  name: Dorothy
  lat: '39.4054'
  long: "-74.8333"
  nearby_rate_centers:
  - name: MILMAY
    distance:
      value: 4.39
      units: km
  - name: MAYS LDG
    distance:
      value: 10.49
      units: km
  - name: TUCKAHOE
    distance:
      value: 14.22
      units: km
- country: US
  region: NJ
  name: Dover
  lat: '40.8859'
  long: "-74.5597"
  nearby_rate_centers:
  - name: DOVER
    distance:
      value: 0.4
      units: km
  - name: ROCKAWAY
    distance:
      value: 4.44
      units: km
  - name: SUCCASUNNA
    distance:
      value: 6.59
      units: km
- country: US
  region: NJ
  name: Dover Beaches North
  lat: '39.9921'
  long: "-74.0715"
  nearby_rate_centers:
  - name: SEASIDE PK
    distance:
      value: 8.34
      units: km
  - name: PTPLEASANT
    distance:
      value: 10.97
      units: km
  - name: TOMS RIVER
    distance:
      value: 11.73
      units: km
- country: US
  region: NJ
  name: Dover Beaches South
  lat: '39.9539'
  long: "-74.0806"
  nearby_rate_centers:
  - name: SEASIDE PK
    distance:
      value: 4.09
      units: km
  - name: TOMS RIVER
    distance:
      value: 10.11
      units: km
  - name: PTPLEASANT
    distance:
      value: 15.28
      units: km
- country: US
  region: NJ
  name: Dumont
  lat: '40.9452'
  long: "-73.9923"
  nearby_rate_centers:
  - name: DUMONT
    distance:
      value: 0.58
      units: km
  - name: CLOSTER
    distance:
      value: 3.58
      units: km
  - name: ORADELL
    distance:
      value: 3.68
      units: km
- country: US
  region: NJ
  name: Dunellen
  lat: '40.5903'
  long: "-74.4656"
  nearby_rate_centers:
  - name: DUNELLEN
    distance:
      value: 0.18
      units: km
  - name: PLAINFIELD
    distance:
      value: 4.82
      units: km
  - name: BOUNDBROOK
    distance:
      value: 6.47
      units: km
- country: US
  region: NJ
  name: Dutch Neck
  lat: '39.4017'
  long: "-75.2787"
  nearby_rate_centers:
  - name: BRIDGETON
    distance:
      value: 5.28
      units: km
  - name: CEDARVILLE
    distance:
      value: 10.14
      units: km
  - name: MILLVILLE
    distance:
      value: 20.64
      units: km
- country: US
  region: NJ
  name: East Franklin
  lat: '40.4933'
  long: "-74.4710"
  nearby_rate_centers:
  - name: NEWBRNSWCK
    distance:
      value: 2.21
      units: km
  - name: FRANKLINPK
    distance:
      value: 7.79
      units: km
  - name: BOUNDBROOK
    distance:
      value: 8.97
      units: km
- country: US
  region: NJ
  name: East Freehold
  lat: '40.2718'
  long: "-74.2425"
  nearby_rate_centers:
  - name: FREEHOLD
    distance:
      value: 2.73
      units: km
  - name: HOLMDEL
    distance:
      value: 9.27
      units: km
  - name: ENGLISHTN
    distance:
      value: 10.41
      units: km
- country: US
  region: NJ
  name: East Millstone
  lat: '40.5011'
  long: "-74.5661"
  nearby_rate_centers:
  - name: EMILLSTONE
    distance:
      value: 1.18
      units: km
  - name: BOUNDBROOK
    distance:
      value: 7.19
      units: km
  - name: SOMERVILLE
    distance:
      value: 8.37
      units: km
- country: US
  region: NJ
  name: East Newark
  lat: '40.7510'
  long: "-74.1623"
  nearby_rate_centers:
  - name: NEWARK
    distance:
      value: 1.55
      units: km
  - name: KEARNY
    distance:
      value: 2.54
      units: km
  - name: BELLEVILLE
    distance:
      value: 4.46
      units: km
- country: US
  region: NJ
  name: East Orange
  lat: '40.7651'
  long: "-74.2117"
  nearby_rate_centers:
  - name: ORANGE
    distance:
      value: 1.77
      units: km
  - name: BLOOMFIELD
    distance:
      value: 3.66
      units: km
  - name: SO ORANGE
    distance:
      value: 4.26
      units: km
- country: US
  region: NJ
  name: East Rocky Hill
  lat: '40.4079'
  long: "-74.6128"
  nearby_rate_centers:
  - name: MONMTH JCT
    distance:
      value: 6.7
      units: km
  - name: BELLE MEAD
    distance:
      value: 7.51
      units: km
  - name: PRINCETON
    distance:
      value: 7.69
      units: km
- country: US
  region: NJ
  name: East Rutherford
  lat: '40.8179'
  long: "-74.0854"
  nearby_rate_centers:
  - name: RUTHERFORD
    distance:
      value: 2.12
      units: km
  - name: HASBROKHTS
    distance:
      value: 5.07
      units: km
  - name: PASSAIC
    distance:
      value: 5.94
      units: km
- country: US
  region: NJ
  name: East Vineland
  lat: '39.4805'
  long: "-74.9158"
  nearby_rate_centers:
  - name: MILMAY
    distance:
      value: 6.75
      units: km
  - name: VINELAND
    distance:
      value: 8.87
      units: km
  - name: MILLVILLE
    distance:
      value: 14.13
      units: km
- country: US
  region: NJ
  name: Eatontown
  lat: '40.2913'
  long: "-74.0558"
  nearby_rate_centers:
  - name: EATONTOWN
    distance:
      value: 1.69
      units: km
  - name: LONGBRANCH
    distance:
      value: 5.98
      units: km
  - name: RED BANK
    distance:
      value: 6.33
      units: km
- country: US
  region: NJ
  name: Echelon
  lat: '39.8482'
  long: "-74.9957"
  nearby_rate_centers:
  - name: LAUREL SPG
    distance:
      value: 3.05
      units: km
  - name: HADDONFLD
    distance:
      value: 6.42
      units: km
  - name: HADDON HTS
    distance:
      value: 6.78
      units: km
- country: US
  region: NJ
  name: Edgewater
  lat: '40.8237'
  long: "-73.9740"
  nearby_rate_centers:
  - name: CLIFFSIDE
    distance:
      value: 1.31
      units: km
  - name: LEONIA
    distance:
      value: 4.55
      units: km
  - name: UNION CITY
    distance:
      value: 7.36
      units: km
- country: US
  region: NJ
  name: Elizabeth
  lat: '40.6658'
  long: "-74.1913"
  nearby_rate_centers:
  - name: ELIZABETH
    distance:
      value: 1.99
      units: km
  - name: ROSELLE
    distance:
      value: 6.29
      units: km
  - name: BAYONNE
    distance:
      value: 6.37
      units: km
- country: US
  region: NJ
  name: Ellisburg
  lat: '39.9199'
  long: "-75.0093"
  nearby_rate_centers:
  - name: HADDONFLD
    distance:
      value: 2.91
      units: km
  - name: MERCHANTVL
    distance:
      value: 5.31
      units: km
  - name: COLLINGSWD
    distance:
      value: 5.41
      units: km
- country: US
  region: NJ
  name: Elmer
  lat: '39.5919'
  long: "-75.1740"
  nearby_rate_centers:
  - name: ELMER
    distance:
      value: 0.36
      units: km
  - name: FRANKLINVL
    distance:
      value: 8.54
      units: km
  - name: GLASSBORO
    distance:
      value: 13.41
      units: km
- country: US
  region: NJ
  name: Elmwood Park
  lat: '40.9049'
  long: "-74.1201"
  nearby_rate_centers:
  - name: FAIR LAWN
    distance:
      value: 1.98
      units: km
  - name: PATERSON
    distance:
      value: 3.97
      units: km
  - name: PASSAIC
    distance:
      value: 4.87
      units: km
- country: US
  region: NJ
  name: Elwood
  lat: '39.5731'
  long: "-74.7148"
  nearby_rate_centers:
  - name: EGG HARBOR
    distance:
      value: 7.1
      units: km
  - name: HAMMONTON
    distance:
      value: 10.27
      units: km
  - name: MAYS LDG
    distance:
      value: 13.45
      units: km
- country: US
  region: NJ
  name: Emerson
  lat: '40.9748'
  long: "-74.0240"
  nearby_rate_centers:
  - name: WESTWOOD
    distance:
      value: 2.04
      units: km
  - name: ORADELL
    distance:
      value: 2.66
      units: km
  - name: DUMONT
    distance:
      value: 4.1
      units: km
- country: US
  region: NJ
  name: Encore at Monroe
  lat: '40.3197'
  long: "-74.4663"
  nearby_rate_centers:
  - name: JAMESBURG
    distance:
      value: 4.03
      units: km
  - name: CRANBURY
    distance:
      value: 4.38
      units: km
  - name: HIGHTSTOWN
    distance:
      value: 7.67
      units: km
- country: US
  region: NJ
  name: Englewood
  lat: '40.8917'
  long: "-73.9736"
  nearby_rate_centers:
  - name: ENGLEWOOD
    distance:
      value: 0.29
      units: km
  - name: LEONIA
    distance:
      value: 3.4
      units: km
  - name: TEANECK
    distance:
      value: 3.82
      units: km
- country: US
  region: NJ
  name: Englewood Cliffs
  lat: '40.8823'
  long: "-73.9467"
  nearby_rate_centers:
  - name: ENGLEWOOD
    distance:
      value: 2.52
      units: km
  - name: LEONIA
    distance:
      value: 4.08
      units: km
  - name: TEANECK
    distance:
      value: 6.04
      units: km
- country: US
  region: NJ
  name: English Creek
  lat: '39.3795'
  long: "-74.6481"
  nearby_rate_centers:
  - name: SOMERS PT
    distance:
      value: 8.55
      units: km
  - name: MAYS LDG
    distance:
      value: 10.6
      units: km
  - name: PLEASANTVL
    distance:
      value: 10.72
      units: km
- country: US
  region: NJ
  name: Englishtown
  lat: '40.2971'
  long: "-74.3607"
  nearby_rate_centers:
  - name: ENGLISHTN
    distance:
      value: 0.24
      units: km
  - name: FREEHOLD
    distance:
      value: 8.66
      units: km
  - name: JAMESBURG
    distance:
      value: 8.74
      units: km
- country: US
  region: NJ
  name: Erma
  lat: '38.9953'
  long: "-74.8932"
  nearby_rate_centers:
  - name: WILDWOOD
    distance:
      value: 7.13
      units: km
  - name: CAPMAYCTHS
    distance:
      value: 11.45
      units: km
  - name: AVALON
    distance:
      value: 19.29
      units: km
- country: US
  region: NJ
  name: Essex Fells
  lat: '40.8271'
  long: "-74.2798"
  nearby_rate_centers:
  - name: CALDWELL
    distance:
      value: 1.74
      units: km
  - name: VERONA
    distance:
      value: 2.56
      units: km
  - name: LIVINGSTON
    distance:
      value: 4.47
      units: km
- country: US
  region: NJ
  name: Estell Manor
  lat: '39.3587'
  long: "-74.7752"
  nearby_rate_centers:
  - name: TUCKAHOE
    distance:
      value: 7.54
      units: km
  - name: MAYS LDG
    distance:
      value: 11.21
      units: km
  - name: MILMAY
    distance:
      value: 11.48
      units: km
- country: US
  region: NJ
  name: Fair Haven
  lat: '40.3618'
  long: "-74.0392"
  nearby_rate_centers:
  - name: RED BANK
    distance:
      value: 2.62
      units: km
  - name: ATLATCHLDS
    distance:
      value: 5.64
      units: km
  - name: EATONTOWN
    distance:
      value: 6.46
      units: km
- country: US
  region: NJ
  name: Fair Lawn
  lat: '40.9359'
  long: "-74.1177"
  nearby_rate_centers:
  - name: FAIR LAWN
    distance:
      value: 1.68
      units: km
  - name: HAWTHORNE
    distance:
      value: 3.35
      units: km
  - name: PATERSON
    distance:
      value: 4.85
      units: km
- country: US
  region: NJ
  name: Fairton
  lat: '39.3758'
  long: "-75.2130"
  nearby_rate_centers:
  - name: CEDARVILLE
    distance:
      value: 4.79
      units: km
  - name: BRIDGETON
    distance:
      value: 5.99
      units: km
  - name: MILLVILLE
    distance:
      value: 15.15
      units: km
- country: US
  region: NJ
  name: Fairview
  lat: '40.8182'
  long: "-74.0022"
  nearby_rate_centers:
  - name: CLIFFSIDE
    distance:
      value: 1.25
      units: km
  - name: LEONIA
    distance:
      value: 5.14
      units: km
  - name: UNION CITY
    distance:
      value: 5.63
      units: km
- country: US
  region: NJ
  name: Fanwood
  lat: '40.6417'
  long: "-74.3857"
  nearby_rate_centers:
  - name: FANWOOD
    distance:
      value: 0.25
      units: km
  - name: WESTFIELD
    distance:
      value: 3.5
      units: km
  - name: PLAINFIELD
    distance:
      value: 4.02
      units: km
- country: US
  region: NJ
  name: Far Hills
  lat: '40.6906'
  long: "-74.6257"
  nearby_rate_centers:
  - name: PEAPACK
    distance:
      value: 4.26
      units: km
  - name: BERNARDSVL
    distance:
      value: 5.59
      units: km
  - name: MILLINGTON
    distance:
      value: 8.83
      units: km
- country: US
  region: NJ
  name: Farmingdale
  lat: '40.1985'
  long: "-74.1702"
  nearby_rate_centers:
  - name: FARMINGDL
    distance:
      value: 0.74
      units: km
  - name: FREEHOLD
    distance:
      value: 10.96
      units: km
  - name: LAKEWOOD
    distance:
      value: 12.5
      units: km
- country: US
  region: NJ
  name: Fieldsboro
  lat: '40.1364'
  long: "-74.7315"
  nearby_rate_centers:
  - name: BORDENTOWN
    distance:
      value: 1.95
      units: km
  - name: FLORENCE
    distance:
      value: 6.87
      units: km
  - name: TRENTON
    distance:
      value: 9.71
      units: km
- country: US
  region: NJ
  name: Finderne
  lat: '40.5626'
  long: "-74.5743"
  nearby_rate_centers:
  - name: SOMERVILLE
    distance:
      value: 3.4
      units: km
  - name: BOUNDBROOK
    distance:
      value: 3.68
      units: km
  - name: EMILLSTONE
    distance:
      value: 6.72
      units: km
- country: US
  region: NJ
  name: Finesville
  lat: '40.6110'
  long: "-75.1738"
  nearby_rate_centers:
  - name: MILFORD
    distance:
      value: 8.37
      units: km
  - name: BLOOMSBURY
    distance:
      value: 8.84
      units: km
  - name: PHILLIPSBG
    distance:
      value: 9.91
      units: km
- country: US
  region: NJ
  name: Flagtown
  lat: '40.5232'
  long: "-74.6909"
  nearby_rate_centers:
  - name: NESHANIC
    distance:
      value: 3.87
      units: km
  - name: BELLE MEAD
    distance:
      value: 7.04
      units: km
  - name: SOMERVILLE
    distance:
      value: 8.1
      units: km
- country: US
  region: NJ
  name: Flanders
  lat: '40.8412'
  long: "-74.7102"
  nearby_rate_centers:
  - name: CHESTER
    distance:
      value: 6.29
      units: km
  - name: NETCONG
    distance:
      value: 6.32
      units: km
  - name: SUCCASUNNA
    distance:
      value: 7.03
      units: km
- country: US
  region: NJ
  name: Flemington
  lat: '40.5087'
  long: "-74.8599"
  nearby_rate_centers:
  - name: FLEMINGTON
    distance:
      value: 0.25
      units: km
  - name: NESHANIC
    distance:
      value: 10.82
      units: km
  - name: WHITEHOUSE
    distance:
      value: 13.97
      units: km
- country: US
  region: NJ
  name: Florham Park
  lat: '40.7773'
  long: "-74.3953"
  nearby_rate_centers:
  - name: MADISON
    distance:
      value: 2.38
      units: km
  - name: CHATHAM
    distance:
      value: 4.36
      units: km
  - name: WHIPPANY
    distance:
      value: 5.37
      units: km
- country: US
  region: NJ
  name: Folsom
  lat: '39.5929'
  long: "-74.8424"
  nearby_rate_centers:
  - name: HAMMONTON
    distance:
      value: 5.89
      units: km
  - name: WILLIAMSTN
    distance:
      value: 16.38
      units: km
  - name: MILMAY
    distance:
      value: 16.99
      units: km
- country: US
  region: NJ
  name: Fords
  lat: '40.5359'
  long: "-74.3126"
  nearby_rate_centers:
  - name: WOODBRIDGE
    distance:
      value: 3.5
      units: km
  - name: METUCHEN
    distance:
      value: 4.29
      units: km
  - name: PERTHAMBOY
    distance:
      value: 4.47
      units: km
- country: US
  region: NJ
  name: Forked River
  lat: '39.8257'
  long: "-74.1819"
  nearby_rate_centers:
  - name: BARNEGAT
    distance:
      value: 9.05
      units: km
  - name: SEASIDE PK
    distance:
      value: 13.54
      units: km
  - name: TOMS RIVER
    distance:
      value: 14.18
      units: km
- country: US
  region: NJ
  name: Forsgate
  lat: '40.3487'
  long: "-74.4637"
  nearby_rate_centers:
  - name: JAMESBURG
    distance:
      value: 2.16
      units: km
  - name: CRANBURY
    distance:
      value: 5.97
      units: km
  - name: MONMTH JCT
    distance:
      value: 7.55
      units: km
- country: US
  region: NJ
  name: Fort Dix
  lat: '40.0060'
  long: "-74.6089"
  nearby_rate_centers:
  - name: FORT DIX
    distance:
      value: 3.37
      units: km
  - name: PEMBERTON
    distance:
      value: 7.56
      units: km
  - name: NEW EGYPT
    distance:
      value: 9.41
      units: km
- country: US
  region: NJ
  name: Fort Lee
  lat: '40.8509'
  long: "-73.9713"
  nearby_rate_centers:
  - name: LEONIA
    distance:
      value: 1.97
      units: km
  - name: CLIFFSIDE
    distance:
      value: 3.36
      units: km
  - name: ENGLEWOOD
    distance:
      value: 4.8
      units: km
- country: US
  region: NJ
  name: Fortescue
  lat: '39.2359'
  long: "-75.1701"
  nearby_rate_centers:
  - name: CEDARVILLE
    distance:
      value: 11.2
      units: km
  - name: MAURICETN
    distance:
      value: 11.82
      units: km
  - name: PORTNORRIS
    distance:
      value: 11.82
      units: km
  - name: MILLVILLE
    distance:
      value: 21.08
      units: km
- country: US
  region: NJ
  name: Franklin
  lat: '41.1101'
  long: "-74.5886"
  nearby_rate_centers:
  - name: FRANKLINBO
    distance:
      value: 1.1
      units: km
  - name: LAKEMOHAWK
    distance:
      value: 8.94
      units: km
  - name: SUSSEX
    distance:
      value: 11.11
      units: km
- country: US
  region: NJ
  name: Franklin Center
  lat: '40.5321'
  long: "-74.5415"
  nearby_rate_centers:
  - name: BOUNDBROOK
    distance:
      value: 3.22
      units: km
  - name: EMILLSTONE
    distance:
      value: 4.64
      units: km
  - name: SOMERVILLE
    distance:
      value: 7.26
      units: km
- country: US
  region: NJ
  name: Franklin Lakes
  lat: '41.0086'
  long: "-74.2083"
  nearby_rate_centers:
  - name: OAKLAND
    distance:
      value: 2.95
      units: km
  - name: WYCKOFF
    distance:
      value: 3.07
      units: km
  - name: POMPTONLKS
    distance:
      value: 6.68
      units: km
- country: US
  region: NJ
  name: Franklin Park
  lat: '40.4439'
  long: "-74.5431"
  nearby_rate_centers:
  - name: FRANKLINPK
    distance:
      value: 2.78
      units: km
  - name: MONMTH JCT
    distance:
      value: 7.16
      units: km
  - name: EMILLSTONE
    distance:
      value: 7.21
      units: km
- country: US
  region: NJ
  name: Franklinville
  lat: '39.6194'
  long: "-75.0738"
  nearby_rate_centers:
  - name: FRANKLINVL
    distance:
      value: 0.6
      units: km
  - name: ELMER
    distance:
      value: 8.92
      units: km
  - name: GLASSBORO
    distance:
      value: 9.96
      units: km
- country: US
  region: NJ
  name: Frenchtown
  lat: '40.5272'
  long: "-75.0571"
  nearby_rate_centers:
  - name: FRENCHTOWN
    distance:
      value: 0.57
      units: km
  - name: MILFORD
    distance:
      value: 5.39
      units: km
  - name: BLOOMSBURY
    distance:
      value: 14.17
      units: km
- country: US
  region: NJ
  name: Gandys Beach
  lat: '39.2715'
  long: "-75.2316"
  nearby_rate_centers:
  - name: CEDARVILLE
    distance:
      value: 7.46
      units: km
  - name: MAURICETN
    distance:
      value: 17.28
      units: km
  - name: PORTNORRIS
    distance:
      value: 17.28
      units: km
  - name: BRIDGETON
    distance:
      value: 17.45
      units: km
- country: US
  region: NJ
  name: Garfield
  lat: '40.8791'
  long: "-74.1085"
  nearby_rate_centers:
  - name: PASSAIC
    distance:
      value: 2.47
      units: km
  - name: HASBROKHTS
    distance:
      value: 3.04
      units: km
  - name: FAIR LAWN
    distance:
      value: 4.72
      units: km
- country: US
  region: NJ
  name: Garwood
  lat: '40.6513'
  long: "-74.3231"
  nearby_rate_centers:
  - name: CRANFORD
    distance:
      value: 1.4
      units: km
  - name: WESTFIELD
    distance:
      value: 1.89
      units: km
  - name: ROSELLE
    distance:
      value: 4.97
      units: km
- country: US
  region: NJ
  name: Germania
  lat: '39.5088'
  long: "-74.5922"
  nearby_rate_centers:
  - name: EGG HARBOR
    distance:
      value: 5.66
      units: km
  - name: MAYS LDG
    distance:
      value: 13.19
      units: km
  - name: PLEASANTVL
    distance:
      value: 14.63
      units: km
- country: US
  region: NJ
  name: Gibbsboro
  lat: '39.8333'
  long: "-74.9657"
  nearby_rate_centers:
  - name: LAUREL SPG
    distance:
      value: 3.36
      units: km
  - name: BERLIN
    distance:
      value: 5.26
      units: km
  - name: MARLTON
    distance:
      value: 7.28
      units: km
- country: US
  region: NJ
  name: Gibbstown
  lat: '39.8233'
  long: "-75.2782"
  nearby_rate_centers:
  - name: PAULSBORO
    distance:
      value: 3.13
      units: km
  - name: SWEDESBORO
    distance:
      value: 9.0
      units: km
  - name: WOODBURY
    distance:
      value: 10.67
      units: km
- country: US
  region: NJ
  name: Gillette
  lat: '40.6921'
  long: "-74.4629"
  nearby_rate_centers:
  - name: MILLINGTON
    distance:
      value: 5.43
      units: km
  - name: CHATHAM
    distance:
      value: 8.44
      units: km
  - name: MADISON
    distance:
      value: 8.74
      units: km
- country: US
  region: NJ
  name: Glassboro
  lat: '39.7014'
  long: "-75.1113"
  nearby_rate_centers:
  - name: GLASSBORO
    distance:
      value: 0.34
      units: km
  - name: PITMAN
    distance:
      value: 4.4
      units: km
  - name: FRANKLINVL
    distance:
      value: 9.86
      units: km
- country: US
  region: NJ
  name: Glen Gardner
  lat: '40.7004'
  long: "-74.9395"
  nearby_rate_centers:
  - name: HAMPTON
    distance:
      value: 1.66
      units: km
  - name: HIGHBRIDGE
    distance:
      value: 5.04
      units: km
  - name: CLINTON
    distance:
      value: 7.4
      units: km
- country: US
  region: NJ
  name: Glen Ridge
  lat: '40.8041'
  long: "-74.2043"
  nearby_rate_centers:
  - name: BLOOMFIELD
    distance:
      value: 0.73
      units: km
  - name: NUTLEY
    distance:
      value: 3.94
      units: km
  - name: ORANGE
    distance:
      value: 4.19
      units: km
- country: US
  region: NJ
  name: Glen Rock
  lat: '40.9601'
  long: "-74.1250"
  nearby_rate_centers:
  - name: RIDGEWOOD
    distance:
      value: 2.38
      units: km
  - name: HAWTHORNE
    distance:
      value: 2.98
      units: km
  - name: FAIR LAWN
    distance:
      value: 4.44
      units: km
- country: US
  region: NJ
  name: Glendora
  lat: '39.8405'
  long: "-75.0677"
  nearby_rate_centers:
  - name: BEAVER BRK
    distance:
      value: 3.24
      units: km
  - name: BLACKWOOD
    distance:
      value: 4.45
      units: km
  - name: HADDON HTS
    distance:
      value: 4.72
      units: km
- country: US
  region: NJ
  name: Gloucester City
  lat: '39.8924'
  long: "-75.1172"
  nearby_rate_centers:
  - name: GLOUCESTER
    distance:
      value: 0.14
      units: km
  - name: BEAVER BRK
    distance:
      value: 4.02
      units: km
  - name: COLLINGSWD
    distance:
      value: 4.7
      units: km
- country: US
  region: NJ
  name: Golden Triangle
  lat: '39.9288'
  long: "-75.0398"
  nearby_rate_centers:
  - name: COLLINGSWD
    distance:
      value: 3.08
      units: km
  - name: MERCHANTVL
    distance:
      value: 3.13
      units: km
  - name: HADDONFLD
    distance:
      value: 3.37
      units: km
- country: US
  region: NJ
  name: Goshen
  lat: '39.1465'
  long: "-74.8524"
  nearby_rate_centers:
  - name: DENNISVL
    distance:
      value: 5.96
      units: km
  - name: CAPMAYCTHS
    distance:
      value: 7.56
      units: km
  - name: AVALON
    distance:
      value: 12.73
      units: km
- country: US
  region: NJ
  name: Gouldtown
  lat: '39.4152'
  long: "-75.1912"
  nearby_rate_centers:
  - name: BRIDGETON
    distance:
      value: 3.48
      units: km
  - name: CEDARVILLE
    distance:
      value: 9.07
      units: km
  - name: MILLVILLE
    distance:
      value: 13.28
      units: km
- country: US
  region: NJ
  name: Great Meadows
  lat: '40.8770'
  long: "-74.9034"
  nearby_rate_centers:
  - name: GREAT MDW
    distance:
      value: 1.77
      units: km
  - name: HOPE
    distance:
      value: 6.61
      units: km
  - name: HACKETTSTN
    distance:
      value: 6.75
      units: km
- country: US
  region: NJ
  name: Great Notch
  lat: '40.8705'
  long: "-74.2084"
  nearby_rate_centers:
  - name: LITTLE FLS
    distance:
      value: 2.03
      units: km
  - name: VERONA
    distance:
      value: 5.35
      units: km
  - name: PATERSON
    distance:
      value: 5.85
      units: km
- country: US
  region: NJ
  name: Green Knoll
  lat: '40.6047'
  long: "-74.6147"
  nearby_rate_centers:
  - name: SOMERVILLE
    distance:
      value: 4.21
      units: km
  - name: BOUNDBROOK
    distance:
      value: 8.65
      units: km
  - name: MILLINGTON
    distance:
      value: 10.98
      units: km
- country: US
  region: NJ
  name: Green Village
  lat: '40.7386'
  long: "-74.4460"
  nearby_rate_centers:
  - name: MADISON
    distance:
      value: 3.69
      units: km
  - name: CHATHAM
    distance:
      value: 5.2
      units: km
  - name: MORRISTOWN
    distance:
      value: 7.02
      units: km
- country: US
  region: NJ
  name: Greentree
  lat: '39.8989'
  long: "-74.9613"
  nearby_rate_centers:
  - name: MARLTON
    distance:
      value: 3.54
      units: km
  - name: HADDONFLD
    distance:
      value: 5.9
      units: km
  - name: MOORESTOWN
    distance:
      value: 7.46
      units: km
- country: US
  region: NJ
  name: Greenwich
  lat: '39.3910'
  long: "-75.3432"
  nearby_rate_centers:
  - name: BRIDGETON
    distance:
      value: 10.74
      units: km
  - name: CEDARVILLE
    distance:
      value: 13.86
      units: km
  - name: SALEM
    distance:
      value: 23.21
      units: km
- country: US
  region: NJ
  name: Grenloch
  lat: '39.7825'
  long: "-75.0562"
  nearby_rate_centers:
  - name: BLACKWOOD
    distance:
      value: 2.17
      units: km
  - name: LAUREL SPG
    distance:
      value: 6.33
      units: km
  - name: PITMAN
    distance:
      value: 8.36
      units: km
- country: US
  region: NJ
  name: Griggstown
  lat: '40.4400'
  long: "-74.5989"
  nearby_rate_centers:
  - name: BELLE MEAD
    distance:
      value: 6.02
      units: km
  - name: EMILLSTONE
    distance:
      value: 7.11
      units: km
  - name: FRANKLINPK
    distance:
      value: 7.2
      units: km
- country: US
  region: NJ
  name: Groveville
  lat: '40.1679'
  long: "-74.6523"
  nearby_rate_centers:
  - name: BORDENTOWN
    distance:
      value: 5.64
      units: km
  - name: ALLENTOWN
    distance:
      value: 5.8
      units: km
  - name: MERCERVL
    distance:
      value: 8.22
      units: km
- country: US
  region: NJ
  name: Guttenberg
  lat: '40.7928'
  long: "-74.0049"
  nearby_rate_centers:
  - name: UNION CITY
    distance:
      value: 3.05
      units: km
  - name: CLIFFSIDE
    distance:
      value: 3.71
      units: km
  - name: LEONIA
    distance:
      value: 7.95
      units: km
- country: US
  region: NJ
  name: Hackensack
  lat: '40.8891'
  long: "-74.0462"
  nearby_rate_centers:
  - name: HACKENSACK
    distance:
      value: 0.56
      units: km
  - name: TEANECK
    distance:
      value: 2.37
      units: km
  - name: HASBROKHTS
    distance:
      value: 3.99
      units: km
- country: US
  region: NJ
  name: Hackettstown
  lat: '40.8540'
  long: "-74.8257"
  nearby_rate_centers:
  - name: HACKETTSTN
    distance:
      value: 0.47
      units: km
  - name: GREAT MDW
    distance:
      value: 8.1
      units: km
  - name: LONGVALLEY
    distance:
      value: 8.88
      units: km
- country: US
  region: NJ
  name: Haddon Heights
  lat: '39.8792'
  long: "-75.0645"
  nearby_rate_centers:
  - name: HADDON HTS
    distance:
      value: 0.47
      units: km
  - name: BEAVER BRK
    distance:
      value: 2.14
      units: km
  - name: HADDONFLD
    distance:
      value: 3.66
      units: km
- country: US
  region: NJ
  name: Hainesburg
  lat: '40.9577'
  long: "-75.0503"
  nearby_rate_centers:
  - name: COLUMBIA
    distance:
      value: 5.31
      units: km
  - name: BLAIRSTOWN
    distance:
      value: 7.97
      units: km
  - name: STROUDSBG
    distance:
      value: 8.51
      units: km
- country: US
  region: NJ
  name: Haledon
  lat: '40.9363'
  long: "-74.1887"
  nearby_rate_centers:
  - name: HAWTHORNE
    distance:
      value: 3.01
      units: km
  - name: PATERSON
    distance:
      value: 3.26
      units: km
  - name: FAIR LAWN
    distance:
      value: 6.68
      units: km
- country: US
  region: NJ
  name: Hamburg
  lat: '41.1485'
  long: "-74.5736"
  nearby_rate_centers:
  - name: FRANKLINBO
    distance:
      value: 3.39
      units: km
  - name: SUSSEX
    distance:
      value: 7.26
      units: km
  - name: VERNON
    distance:
      value: 10.26
      units: km
- country: US
  region: NJ
  name: Hamilton Square
  lat: '40.2248'
  long: "-74.6526"
  nearby_rate_centers:
  - name: MERCERVL
    distance:
      value: 3.47
      units: km
  - name: ALLENTOWN
    distance:
      value: 7.9
      units: km
  - name: TRENTON
    distance:
      value: 8.86
      units: km
- country: US
  region: NJ
  name: Hammonton
  lat: '39.6572'
  long: "-74.7678"
  nearby_rate_centers:
  - name: HAMMONTON
    distance:
      value: 3.79
      units: km
  - name: EGG HARBOR
    distance:
      value: 17.08
      units: km
  - name: WILLIAMSTN
    distance:
      value: 19.39
      units: km
- country: US
  region: NJ
  name: Hancocks Bridge
  lat: '39.5051'
  long: "-75.4605"
  nearby_rate_centers:
  - name: SALEM
    distance:
      value: 7.81
      units: km
  - name: WOODSTOWN
    distance:
      value: 20.01
      units: km
  - name: BRIDGETON
    distance:
      value: 21.71
      units: km
- country: US
  region: NJ
  name: Harlingen
  lat: '40.4502'
  long: "-74.6581"
  nearby_rate_centers:
  - name: BELLE MEAD
    distance:
      value: 1.55
      units: km
  - name: EMILLSTONE
    distance:
      value: 8.79
      units: km
  - name: NESHANIC
    distance:
      value: 8.95
      units: km
- country: US
  region: NJ
  name: Harrington Park
  lat: '40.9899'
  long: "-73.9804"
  nearby_rate_centers:
  - name: CLOSTER
    distance:
      value: 2.61
      units: km
  - name: WESTWOOD
    distance:
      value: 4.48
      units: km
  - name: DUMONT
    distance:
      value: 5.41
      units: km
- country: US
  region: NJ
  name: Harrison
  lat: '40.7431'
  long: "-74.1531"
  nearby_rate_centers:
  - name: NEWARK
    distance:
      value: 1.69
      units: km
  - name: KEARNY
    distance:
      value: 3.16
      units: km
  - name: BELLEVILLE
    distance:
      value: 5.26
      units: km
- country: US
  region: NJ
  name: Harrisonville
  lat: '39.6881'
  long: "-75.2701"
  nearby_rate_centers:
  - name: MULLICA HL
    distance:
      value: 6.14
      units: km
  - name: WOODSTOWN
    distance:
      value: 6.36
      units: km
  - name: SWEDESBORO
    distance:
      value: 7.66
      units: km
- country: US
  region: NJ
  name: Harvey Cedars
  lat: '39.6995'
  long: "-74.1426"
  nearby_rate_centers:
  - name: BARNEGAT
    distance:
      value: 9.07
      units: km
  - name: BEACHHAVEN
    distance:
      value: 16.93
      units: km
  - name: TUCKERTON
    distance:
      value: 20.15
      units: km
- country: US
  region: NJ
  name: Hasbrouck Heights
  lat: '40.8618'
  long: "-74.0741"
  nearby_rate_centers:
  - name: HASBROKHTS
    distance:
      value: 0.45
      units: km
  - name: HACKENSACK
    distance:
      value: 3.99
      units: km
  - name: PASSAIC
    distance:
      value: 4.39
      units: km
- country: US
  region: NJ
  name: Haworth
  lat: '40.9622'
  long: "-73.9976"
  nearby_rate_centers:
  - name: DUMONT
    distance:
      value: 2.11
      units: km
  - name: CLOSTER
    distance:
      value: 2.89
      units: km
  - name: ORADELL
    distance:
      value: 3.33
      units: km
- country: US
  region: NJ
  name: Hawthorne
  lat: '40.9579'
  long: "-74.1582"
  nearby_rate_centers:
  - name: HAWTHORNE
    distance:
      value: 1.34
      units: km
  - name: RIDGEWOOD
    distance:
      value: 4.44
      units: km
  - name: PATERSON
    distance:
      value: 5.11
      units: km
- country: US
  region: NJ
  name: Heathcote
  lat: '40.3878'
  long: "-74.5780"
  nearby_rate_centers:
  - name: MONMTH JCT
    distance:
      value: 3.1
      units: km
  - name: PLAINSBORO
    distance:
      value: 6.08
      units: km
  - name: FRANKLINPK
    distance:
      value: 7.25
      units: km
- country: US
  region: NJ
  name: Heislerville
  lat: '39.2236'
  long: "-74.9915"
  nearby_rate_centers:
  - name: PORTNORRIS
    distance:
      value: 4.42
      units: km
  - name: MAURICETN
    distance:
      value: 4.42
      units: km
  - name: DENNISVL
    distance:
      value: 15.17
      units: km
  - name: MILLVILLE
    distance:
      value: 19.58
      units: km
- country: US
  region: NJ
  name: Helmetta
  lat: '40.3777'
  long: "-74.4238"
  nearby_rate_centers:
  - name: JAMESBURG
    distance:
      value: 3.42
      units: km
  - name: SOUTHRIVER
    distance:
      value: 8.52
      units: km
  - name: FRANKLINPK
    distance:
      value: 9.74
      units: km
- country: US
  region: NJ
  name: Hewitt
  lat: '41.1601'
  long: "-74.3311"
  nearby_rate_centers:
  - name: UPGRENWDLK
    distance:
      value: 4.42
      units: km
  - name: W MILFORD
    distance:
      value: 5.28
      units: km
  - name: ERSKINELKS
    distance:
      value: 6.31
      units: km
- country: US
  region: NJ
  name: Hi-Nella
  lat: '39.8367'
  long: "-75.0220"
  nearby_rate_centers:
  - name: LAUREL SPG
    distance:
      value: 2.44
      units: km
  - name: BLACKWOOD
    distance:
      value: 5.5
      units: km
  - name: HADDON HTS
    distance:
      value: 6.11
      units: km
- country: US
  region: NJ
  name: Hibernia
  lat: '40.9423'
  long: "-74.5011"
  nearby_rate_centers:
  - name: ROCKAWAY
    distance:
      value: 4.69
      units: km
  - name: DOVER
    distance:
      value: 8.26
      units: km
  - name: BOONTON
    distance:
      value: 8.85
      units: km
- country: US
  region: NJ
  name: High Bridge
  lat: '40.6684'
  long: "-74.8940"
  nearby_rate_centers:
  - name: HIGHBRIDGE
    distance:
      value: 0.31
      units: km
  - name: CLINTON
    distance:
      value: 3.85
      units: km
  - name: LEBANON
    distance:
      value: 5.37
      units: km
- country: US
  region: NJ
  name: Highland Lakes
  lat: '41.1716'
  long: "-74.4643"
  nearby_rate_centers:
  - name: VERNON
    distance:
      value: 4.11
      units: km
  - name: UPGRENWDLK
    distance:
      value: 7.3
      units: km
  - name: W MILFORD
    distance:
      value: 8.88
      units: km
- country: US
  region: NJ
  name: Highland Park
  lat: '40.5006'
  long: "-74.4283"
  nearby_rate_centers:
  - name: NEWBRNSWCK
    distance:
      value: 1.55
      units: km
  - name: METUCHEN
    distance:
      value: 7.01
      units: km
  - name: SOUTHRIVER
    distance:
      value: 7.28
      units: km
- country: US
  region: NJ
  name: Highlands
  lat: '40.4036'
  long: "-73.9898"
  nearby_rate_centers:
  - name: ATLATCHLDS
    distance:
      value: 4.17
      units: km
  - name: RED BANK
    distance:
      value: 8.84
      units: km
  - name: MIDDLETOWN
    distance:
      value: 10.73
      units: km
- country: US
  region: NJ
  name: Hightstown
  lat: '40.2686'
  long: "-74.5253"
  nearby_rate_centers:
  - name: HIGHTSTOWN
    distance:
      value: 0.12
      units: km
  - name: CRANBURY
    distance:
      value: 5.09
      units: km
  - name: PLAINSBORO
    distance:
      value: 9.4
      units: km
- country: US
  region: NJ
  name: Hillsborough
  lat: '40.5069'
  long: "-74.6523"
  nearby_rate_centers:
  - name: BELLE MEAD
    distance:
      value: 4.89
      units: km
  - name: EMILLSTONE
    distance:
      value: 6.13
      units: km
  - name: NESHANIC
    distance:
      value: 6.73
      units: km
- country: US
  region: NJ
  name: Hillsdale
  lat: '41.0074'
  long: "-74.0440"
  nearby_rate_centers:
  - name: WESTWOOD
    distance:
      value: 1.96
      units: km
  - name: PARK RIDGE
    distance:
      value: 2.77
      units: km
  - name: ORADELL
    distance:
      value: 6.16
      units: km
- country: US
  region: NJ
  name: Ho-Ho-Kus
  lat: '41.0001'
  long: "-74.0972"
  nearby_rate_centers:
  - name: RIDGEWOOD
    distance:
      value: 2.66
      units: km
  - name: WESTWOOD
    distance:
      value: 5.41
      units: km
  - name: PARK RIDGE
    distance:
      value: 6.42
      units: km
- country: US
  region: NJ
  name: Hoboken
  lat: '40.7452'
  long: "-74.0281"
  nearby_rate_centers:
  - name: UNION CITY
    distance:
      value: 2.9
      units: km
  - name: JERSEYCITY
    distance:
      value: 3.49
      units: km
  - name: CLIFFSIDE
    distance:
      value: 9.35
      units: km
- country: US
  region: NJ
  name: Holiday City South
  lat: '39.9533'
  long: "-74.2367"
  nearby_rate_centers:
  - name: TOMS RIVER
    distance:
      value: 3.2
      units: km
  - name: LAKEHURST
    distance:
      value: 9.17
      units: km
  - name: SEASIDE PK
    distance:
      value: 14.18
      units: km
- country: US
  region: NJ
  name: Holiday City-Berkeley
  lat: '39.9639'
  long: "-74.2787"
  nearby_rate_centers:
  - name: LAKEHURST
    distance:
      value: 6.04
      units: km
  - name: TOMS RIVER
    distance:
      value: 6.9
      units: km
  - name: LAKEWOOD
    distance:
      value: 15.2
      units: km
- country: US
  region: NJ
  name: Holiday Heights
  lat: '39.9396'
  long: "-74.2572"
  nearby_rate_centers:
  - name: TOMS RIVER
    distance:
      value: 5.15
      units: km
  - name: LAKEHURST
    distance:
      value: 9.3
      units: km
  - name: SEASIDE PK
    distance:
      value: 15.55
      units: km
- country: US
  region: NJ
  name: Hopatcong
  lat: '40.9541'
  long: "-74.6593"
  nearby_rate_centers:
  - name: HOPATCONG
    distance:
      value: 3.51
      units: km
  - name: NETCONG
    distance:
      value: 7.53
      units: km
  - name: ANDOVER
    distance:
      value: 7.92
      units: km
- country: US
  region: NJ
  name: Hopelawn
  lat: '40.5286'
  long: "-74.2936"
  nearby_rate_centers:
  - name: PERTHAMBOY
    distance:
      value: 2.74
      units: km
  - name: WOODBRIDGE
    distance:
      value: 3.18
      units: km
  - name: SOUTHAMBOY
    distance:
      value: 5.49
      units: km
- country: US
  region: NJ
  name: Hopewell
  lat: '40.3893'
  long: "-74.7638"
  nearby_rate_centers:
  - name: HOPEWELL
    distance:
      value: 0.11
      units: km
  - name: PENNINGTON
    distance:
      value: 7.47
      units: km
  - name: PRINCETON
    distance:
      value: 9.69
      units: km
- country: US
  region: NJ
  name: Hutchinson
  lat: '40.7800'
  long: "-75.1204"
  nearby_rate_centers:
  - name: BELVIDERE
    distance:
      value: 6.11
      units: km
  - name: OXFORD
    distance:
      value: 10.59
      units: km
  - name: PHILLIPSBG
    distance:
      value: 10.69
      units: km
- country: US
  region: NJ
  name: Interlaken
  lat: '40.2350'
  long: "-74.0166"
  nearby_rate_centers:
  - name: DEAL
    distance:
      value: 1.06
      units: km
  - name: ASBURYPARK
    distance:
      value: 2.04
      units: km
  - name: BELMAR
    distance:
      value: 6.5
      units: km
- country: US
  region: NJ
  name: Iselin
  lat: '40.5697'
  long: "-74.3172"
  nearby_rate_centers:
  - name: WOODBRIDGE
    distance:
      value: 3.53
      units: km
  - name: METUCHEN
    distance:
      value: 5.13
      units: km
  - name: RAHWAY
    distance:
      value: 5.16
      units: km
- country: US
  region: NJ
  name: Island Heights
  lat: '39.9424'
  long: "-74.1454"
  nearby_rate_centers:
  - name: TOMS RIVER
    distance:
      value: 4.72
      units: km
  - name: SEASIDE PK
    distance:
      value: 6.46
      units: km
  - name: LAKEHURST
    distance:
      value: 16.21
      units: km
- country: US
  region: NJ
  name: Jamesburg
  lat: '40.3493'
  long: "-74.4399"
  nearby_rate_centers:
  - name: JAMESBURG
    distance:
      value: 0.15
      units: km
  - name: CRANBURY
    distance:
      value: 7.65
      units: km
  - name: ENGLISHTN
    distance:
      value: 8.78
      units: km
- country: US
  region: NJ
  name: Jersey City
  lat: '40.7184'
  long: "-74.0686"
  nearby_rate_centers:
  - name: JERSEYCITY
    distance:
      value: 2.59
      units: km
  - name: UNION CITY
    distance:
      value: 6.83
      units: km
  - name: BAYONNE
    distance:
      value: 6.92
      units: km
- country: US
  region: NJ
  name: Jobstown
  lat: '40.0334'
  long: "-74.6945"
  nearby_rate_centers:
  - name: FORT DIX
    distance:
      value: 6.59
      units: km
  - name: PEMBERTON
    distance:
      value: 6.83
      units: km
  - name: MOUNTHOLLY
    distance:
      value: 9.52
      units: km
- country: US
  region: NJ
  name: Johnsonburg
  lat: '40.9623'
  long: "-74.8765"
  nearby_rate_centers:
  - name: BLAIRSTOWN
    distance:
      value: 7.31
      units: km
  - name: HOPE
    distance:
      value: 9.58
      units: km
  - name: GREAT MDW
    distance:
      value: 11.16
      units: km
- country: US
  region: NJ
  name: Juliustown
  lat: '40.0121'
  long: "-74.6715"
  nearby_rate_centers:
  - name: PEMBERTON
    distance:
      value: 4.59
      units: km
  - name: FORT DIX
    distance:
      value: 5.31
      units: km
  - name: MOUNTHOLLY
    distance:
      value: 10.55
      units: km
- country: US
  region: NJ
  name: Kean University
  lat: '40.6791'
  long: "-74.2314"
  nearby_rate_centers:
  - name: ELIZABETH
    distance:
      value: 1.98
      units: km
  - name: ROSELLE
    distance:
      value: 3.52
      units: km
  - name: UNIONVILLE
    distance:
      value: 3.64
      units: km
- country: US
  region: NJ
  name: Keansburg
  lat: '40.4469'
  long: "-74.1315"
  nearby_rate_centers:
  - name: KEANSBURG
    distance:
      value: 0.35
      units: km
  - name: MIDDLETOWN
    distance:
      value: 6.0
      units: km
  - name: KEYPORT
    distance:
      value: 6.02
      units: km
- country: US
  region: NJ
  name: Kearny
  lat: '40.7528'
  long: "-74.1202"
  nearby_rate_centers:
  - name: KEARNY
    distance:
      value: 3.13
      units: km
  - name: NEWARK
    distance:
      value: 4.65
      units: km
  - name: BELLEVILLE
    distance:
      value: 4.96
      units: km
- country: US
  region: NJ
  name: Keasbey
  lat: '40.5143'
  long: "-74.3078"
  nearby_rate_centers:
  - name: PERTHAMBOY
    distance:
      value: 3.1
      units: km
  - name: SOUTHAMBOY
    distance:
      value: 4.49
      units: km
  - name: WOODBRIDGE
    distance:
      value: 5.13
      units: km
- country: US
  region: NJ
  name: Kendall Park
  lat: '40.4135'
  long: "-74.5631"
  nearby_rate_centers:
  - name: MONMTH JCT
    distance:
      value: 4.14
      units: km
  - name: FRANKLINPK
    distance:
      value: 4.58
      units: km
  - name: PLAINSBORO
    distance:
      value: 9.17
      units: km
- country: US
  region: NJ
  name: Kenilworth
  lat: '40.6781'
  long: "-74.2890"
  nearby_rate_centers:
  - name: UNIONVILLE
    distance:
      value: 2.7
      units: km
  - name: ROSELLE
    distance:
      value: 2.75
      units: km
  - name: CRANFORD
    distance:
      value: 2.9
      units: km
- country: US
  region: NJ
  name: Kenvil
  lat: '40.8816'
  long: "-74.6220"
  nearby_rate_centers:
  - name: SUCCASUNNA
    distance:
      value: 1.88
      units: km
  - name: DOVER
    distance:
      value: 5.29
      units: km
  - name: HOPATCONG
    distance:
      value: 5.4
      units: km
- country: US
  region: NJ
  name: Keyport
  lat: '40.4328'
  long: "-74.2011"
  nearby_rate_centers:
  - name: KEYPORT
    distance:
      value: 0.47
      units: km
  - name: MATAWAN
    distance:
      value: 3.3
      units: km
  - name: KEANSBURG
    distance:
      value: 5.82
      units: km
- country: US
  region: NJ
  name: Kingston
  lat: '40.3838'
  long: "-74.6122"
  nearby_rate_centers:
  - name: PRINCETON
    distance:
      value: 5.67
      units: km
  - name: PLAINSBORO
    distance:
      value: 5.67
      units: km
  - name: MONMTH JCT
    distance:
      value: 5.87
      units: km
- country: US
  region: NJ
  name: Kingston Estates
  lat: '39.9188'
  long: "-74.9898"
  nearby_rate_centers:
  - name: HADDONFLD
    distance:
      value: 4.09
      units: km
  - name: MOORESTOWN
    distance:
      value: 6.37
      units: km
  - name: MERCHANTVL
    distance:
      value: 6.6
      units: km
- country: US
  region: NJ
  name: Kinnelon
  lat: '40.9847'
  long: "-74.3862"
  nearby_rate_centers:
  - name: BUTLER
    distance:
      value: 4.25
      units: km
  - name: POMPTONLKS
    distance:
      value: 8.53
      units: km
  - name: NEWFOUNDLD
    distance:
      value: 8.86
      units: km
- country: US
  region: NJ
  name: Lake Como
  lat: '40.1706'
  long: "-74.0262"
  nearby_rate_centers:
  - name: BELMAR
    distance:
      value: 0.72
      units: km
  - name: SPRINGLAKE
    distance:
      value: 2.01
      units: km
  - name: ASBURYPARK
    distance:
      value: 5.24
      units: km
- country: US
  region: NJ
  name: Lake Hiawatha
  lat: '40.8816'
  long: "-74.3826"
  nearby_rate_centers:
  - name: BOONTON
    distance:
      value: 3.4
      units: km
  - name: WHIPPANY
    distance:
      value: 6.95
      units: km
  - name: MT VIEW
    distance:
      value: 10.09
      units: km
- country: US
  region: NJ
  name: Lake Hopatcong
  lat: '40.9599'
  long: "-74.6094"
  nearby_rate_centers:
  - name: HOPATCONG
    distance:
      value: 3.94
      units: km
  - name: LAKEMOHAWK
    distance:
      value: 8.78
      units: km
  - name: DOVER
    distance:
      value: 9.6
      units: km
- country: US
  region: NJ
  name: Lake Mohawk
  lat: '41.0149'
  long: "-74.6640"
  nearby_rate_centers:
  - name: LAKEMOHAWK
    distance:
      value: 3.59
      units: km
  - name: ANDOVER
    distance:
      value: 7.49
      units: km
  - name: NEWTON
    distance:
      value: 9.08
      units: km
- country: US
  region: NJ
  name: Lake Telemark
  lat: '40.9610'
  long: "-74.4970"
  nearby_rate_centers:
  - name: ROCKAWAY
    distance:
      value: 6.8
      units: km
  - name: BOONTON
    distance:
      value: 9.71
      units: km
  - name: DOVER
    distance:
      value: 10.19
      units: km
- country: US
  region: NJ
  name: Lakehurst
  lat: '40.0133'
  long: "-74.3201"
  nearby_rate_centers:
  - name: LAKEHURST
    distance:
      value: 0.64
      units: km
  - name: TOMS RIVER
    distance:
      value: 12.32
      units: km
  - name: LAKEWOOD
    distance:
      value: 12.57
      units: km
- country: US
  region: NJ
  name: Lakeside-Beebe Run
  lat: '39.4522'
  long: "-75.2497"
  nearby_rate_centers:
  - name: BRIDGETON
    distance:
      value: 3.24
      units: km
  - name: CEDARVILLE
    distance:
      value: 13.83
      units: km
  - name: ELMER
    distance:
      value: 17.2
      units: km
- country: US
  region: NJ
  name: Lambertville
  lat: '40.3687'
  long: "-74.9430"
  nearby_rate_centers:
  - name: LAMBERTVL
    distance:
      value: 0.34
      units: km
  - name: PENNINGTON
    distance:
      value: 13.81
      units: km
  - name: HOPEWELL
    distance:
      value: 15.3
      units: km
- country: US
  region: NJ
  name: Lamington
  lat: '40.6633'
  long: "-74.7079"
  nearby_rate_centers:
  - name: OLDWICK
    distance:
      value: 3.79
      units: km
  - name: PEAPACK
    distance:
      value: 7.24
      units: km
  - name: WHITEHOUSE
    distance:
      value: 7.58
      units: km
- country: US
  region: NJ
  name: Landing
  lat: '40.9078'
  long: "-74.6593"
  nearby_rate_centers:
  - name: HOPATCONG
    distance:
      value: 3.24
      units: km
  - name: NETCONG
    distance:
      value: 4.36
      units: km
  - name: SUCCASUNNA
    distance:
      value: 4.96
      units: km
- country: US
  region: NJ
  name: Laurel Heights
  lat: '39.4570'
  long: "-75.2235"
  nearby_rate_centers:
  - name: BRIDGETON
    distance:
      value: 3.2
      units: km
  - name: CEDARVILLE
    distance:
      value: 13.84
      units: km
  - name: ELMER
    distance:
      value: 15.95
      units: km
- country: US
  region: NJ
  name: Laurel Lake
  lat: '39.3265'
  long: "-75.0305"
  nearby_rate_centers:
  - name: MILLVILLE
    distance:
      value: 7.75
      units: km
  - name: MAURICETN
    distance:
      value: 8.91
      units: km
  - name: PORTNORRIS
    distance:
      value: 8.91
      units: km
  - name: CEDARVILLE
    distance:
      value: 14.59
      units: km
- country: US
  region: NJ
  name: Laurel Springs
  lat: '39.8213'
  long: "-75.0053"
  nearby_rate_centers:
  - name: LAUREL SPG
    distance:
      value: 0.3
      units: km
  - name: BLACKWOOD
    distance:
      value: 5.67
      units: km
  - name: BERLIN
    distance:
      value: 6.97
      units: km
- country: US
  region: NJ
  name: Laurence Harbor
  lat: '40.4489'
  long: "-74.2494"
  nearby_rate_centers:
  - name: MATAWAN
    distance:
      value: 4.15
      units: km
  - name: KEYPORT
    distance:
      value: 4.27
      units: km
  - name: SOUTHAMBOY
    distance:
      value: 4.3
      units: km
- country: US
  region: NJ
  name: Lavallette
  lat: '39.9699'
  long: "-74.0723"
  nearby_rate_centers:
  - name: SEASIDE PK
    distance:
      value: 5.87
      units: km
  - name: TOMS RIVER
    distance:
      value: 10.98
      units: km
  - name: PTPLEASANT
    distance:
      value: 13.42
      units: km
- country: US
  region: NJ
  name: Lawnside
  lat: '39.8673'
  long: "-75.0289"
  nearby_rate_centers:
  - name: HADDON HTS
    distance:
      value: 3.25
      units: km
  - name: HADDONFLD
    distance:
      value: 3.57
      units: km
  - name: BEAVER BRK
    distance:
      value: 4.68
      units: km
- country: US
  region: NJ
  name: Lawrenceville
  lat: '40.3018'
  long: "-74.7378"
  nearby_rate_centers:
  - name: LAWRENCEVL
    distance:
      value: 0.97
      units: km
  - name: PENNINGTON
    distance:
      value: 5.16
      units: km
  - name: EWING
    distance:
      value: 5.65
      units: km
- country: US
  region: NJ
  name: Layton
  lat: '41.2192'
  long: "-74.8229"
  nearby_rate_centers:
  - name: BRANCHVL
    distance:
      value: 10.04
      units: km
  - name: MONTAGUE
    distance:
      value: 18.04
      units: km
  - name: SUSSEX
    distance:
      value: 18.22
      units: km
- country: US
  region: NJ
  name: Ledgewood
  lat: '40.8769'
  long: "-74.6724"
  nearby_rate_centers:
  - name: SUCCASUNNA
    distance:
      value: 3.38
      units: km
  - name: NETCONG
    distance:
      value: 3.91
      units: km
  - name: HOPATCONG
    distance:
      value: 6.7
      units: km
- country: US
  region: NJ
  name: Leeds Point
  lat: '39.4906'
  long: "-74.4433"
  nearby_rate_centers:
  - name: BRIGANTINE
    distance:
      value: 11.63
      units: km
  - name: PLEASANTVL
    distance:
      value: 13.32
      units: km
  - name: ATLNTIC CY
    distance:
      value: 14.59
      units: km
- country: US
  region: NJ
  name: Leesburg
  lat: '39.2593'
  long: "-74.9849"
  nearby_rate_centers:
  - name: PORTNORRIS
    distance:
      value: 4.43
      units: km
  - name: MAURICETN
    distance:
      value: 4.43
      units: km
  - name: MILLVILLE
    distance:
      value: 15.88
      units: km
  - name: DENNISVL
    distance:
      value: 15.99
      units: km
- country: US
  region: NJ
  name: Leisure Knoll
  lat: '40.0186'
  long: "-74.2909"
  nearby_rate_centers:
  - name: LAKEHURST
    distance:
      value: 2.05
      units: km
  - name: LAKEWOOD
    distance:
      value: 10.44
      units: km
  - name: TOMS RIVER
    distance:
      value: 10.73
      units: km
- country: US
  region: NJ
  name: Leisure Village
  lat: '40.0445'
  long: "-74.1852"
  nearby_rate_centers:
  - name: LAKEWOOD
    distance:
      value: 5.67
      units: km
  - name: TOMS RIVER
    distance:
      value: 10.3
      units: km
  - name: LAKEHURST
    distance:
      value: 11.49
      units: km
- country: US
  region: NJ
  name: Leisure Village East
  lat: '40.0384'
  long: "-74.1678"
  nearby_rate_centers:
  - name: LAKEWOOD
    distance:
      value: 6.98
      units: km
  - name: TOMS RIVER
    distance:
      value: 9.92
      units: km
  - name: PTPLEASANT
    distance:
      value: 11.53
      units: km
- country: US
  region: NJ
  name: Leisure Village West
  lat: '40.0104'
  long: "-74.2806"
  nearby_rate_centers:
  - name: LAKEHURST
    distance:
      value: 2.76
      units: km
  - name: TOMS RIVER
    distance:
      value: 9.46
      units: km
  - name: LAKEWOOD
    distance:
      value: 10.66
      units: km
- country: US
  region: NJ
  name: Leisuretowne
  lat: '39.8987'
  long: "-74.7059"
  nearby_rate_centers:
  - name: VINCENTOWN
    distance:
      value: 5.63
      units: km
  - name: PEMBERTON
    distance:
      value: 8.36
      units: km
  - name: MEDFORD
    distance:
      value: 10.16
      units: km
- country: US
  region: NJ
  name: Leonardo
  lat: '40.4190'
  long: "-74.0599"
  nearby_rate_centers:
  - name: ATLATCHLDS
    distance:
      value: 2.01
      units: km
  - name: MIDDLETOWN
    distance:
      value: 5.48
      units: km
  - name: KEANSBURG
    distance:
      value: 6.88
      units: km
- country: US
  region: NJ
  name: Leonia
  lat: '40.8638'
  long: "-73.9900"
  nearby_rate_centers:
  - name: LEONIA
    distance:
      value: 0.17
      units: km
  - name: TEANECK
    distance:
      value: 3.43
      units: km
  - name: ENGLEWOOD
    distance:
      value: 3.68
      units: km
- country: US
  region: NJ
  name: Liberty Corner
  lat: '40.6647'
  long: "-74.5807"
  nearby_rate_centers:
  - name: MILLINGTON
    distance:
      value: 4.99
      units: km
  - name: BERNARDSVL
    distance:
      value: 6.02
      units: km
  - name: PEAPACK
    distance:
      value: 9.0
      units: km
- country: US
  region: NJ
  name: Lincoln Park
  lat: '40.9239'
  long: "-74.3035"
  nearby_rate_centers:
  - name: MT VIEW
    distance:
      value: 2.97
      units: km
  - name: LITTLE FLS
    distance:
      value: 7.95
      units: km
  - name: BUTLER
    distance:
      value: 8.72
      units: km
- country: US
  region: NJ
  name: Lincroft
  lat: '40.3391'
  long: "-74.1282"
  nearby_rate_centers:
  - name: HOLMDEL
    distance:
      value: 5.1
      units: km
  - name: RED BANK
    distance:
      value: 5.51
      units: km
  - name: MIDDLETOWN
    distance:
      value: 6.23
      units: km
- country: US
  region: NJ
  name: Linden
  lat: '40.6251'
  long: "-74.2383"
  nearby_rate_centers:
  - name: LINDEN
    distance:
      value: 1.71
      units: km
  - name: RAHWAY
    distance:
      value: 4.14
      units: km
  - name: ROSELLE
    distance:
      value: 4.6
      units: km
- country: US
  region: NJ
  name: Lindenwold
  lat: '39.8173'
  long: "-74.9898"
  nearby_rate_centers:
  - name: LAUREL SPG
    distance:
      value: 1.11
      units: km
  - name: BERLIN
    distance:
      value: 5.58
      units: km
  - name: BLACKWOOD
    distance:
      value: 6.76
      units: km
- country: US
  region: NJ
  name: Little Ferry
  lat: '40.8464'
  long: "-74.0388"
  nearby_rate_centers:
  - name: HASBROKHTS
    distance:
      value: 3.87
      units: km
  - name: HACKENSACK
    distance:
      value: 4.5
      units: km
  - name: LEONIA
    distance:
      value: 4.65
      units: km
- country: US
  region: NJ
  name: Little Silver
  lat: '40.3357'
  long: "-74.0346"
  nearby_rate_centers:
  - name: RED BANK
    distance:
      value: 2.85
      units: km
  - name: EATONTOWN
    distance:
      value: 3.97
      units: km
  - name: LONGBRANCH
    distance:
      value: 5.32
      units: km
- country: US
  region: NJ
  name: Llewellyn Park
  lat: '40.7895'
  long: "-74.2415"
  nearby_rate_centers:
  - name: ORANGE
    distance:
      value: 2.14
      units: km
  - name: BLOOMFIELD
    distance:
      value: 3.19
      units: km
  - name: SO ORANGE
    distance:
      value: 4.93
      units: km
- country: US
  region: NJ
  name: Loch Arbour
  lat: '40.2323'
  long: "-74.0013"
  nearby_rate_centers:
  - name: DEAL
    distance:
      value: 0.32
      units: km
  - name: ASBURYPARK
    distance:
      value: 2.02
      units: km
  - name: BELMAR
    distance:
      value: 6.46
      units: km
- country: US
  region: NJ
  name: Lodi
  lat: '40.8784'
  long: "-74.0814"
  nearby_rate_centers:
  - name: HASBROKHTS
    distance:
      value: 1.7
      units: km
  - name: HACKENSACK
    distance:
      value: 3.59
      units: km
  - name: PASSAIC
    distance:
      value: 4.22
      units: km
- country: US
  region: NJ
  name: Long Branch
  lat: '40.2965'
  long: "-73.9915"
  nearby_rate_centers:
  - name: LONGBRANCH
    distance:
      value: 0.93
      units: km
  - name: EATONTOWN
    distance:
      value: 5.96
      units: km
  - name: DEAL
    distance:
      value: 7.02
      units: km
- country: US
  region: NJ
  name: Long Valley
  lat: '40.7826'
  long: "-74.7776"
  nearby_rate_centers:
  - name: LONGVALLEY
    distance:
      value: 0.03
      units: km
  - name: CHESTER
    distance:
      value: 6.51
      units: km
  - name: CALIFON
    distance:
      value: 8.64
      units: km
- country: US
  region: NJ
  name: Longport
  lat: '39.3136'
  long: "-74.5261"
  nearby_rate_centers:
  - name: SOMERS PT
    distance:
      value: 5.85
      units: km
  - name: OCEAN CITY
    distance:
      value: 5.93
      units: km
  - name: PLEASANTVL
    distance:
      value: 8.3
      units: km
- country: US
  region: NJ
  name: Lopatcong Overlook
  lat: '40.6971'
  long: "-75.1452"
  nearby_rate_centers:
  - name: PHILLIPSBG
    distance:
      value: 3.73
      units: km
  - name: BLOOMSBURY
    distance:
      value: 7.08
      units: km
  - name: MILFORD
    distance:
      value: 15.11
      units: km
- country: US
  region: NJ
  name: Lower Berkshire Valley
  lat: '40.9132'
  long: "-74.6104"
  nearby_rate_centers:
  - name: HOPATCONG
    distance:
      value: 2.64
      units: km
  - name: SUCCASUNNA
    distance:
      value: 5.47
      units: km
  - name: DOVER
    distance:
      value: 5.51
      units: km
- country: US
  region: NJ
  name: Lyons
  lat: '40.6811'
  long: "-74.5493"
  nearby_rate_centers:
  - name: MILLINGTON
    distance:
      value: 2.32
      units: km
  - name: BERNARDSVL
    distance:
      value: 4.5
      units: km
  - name: PEAPACK
    distance:
      value: 10.28
      units: km
- country: US
  region: NJ
  name: Macopin
  lat: '41.0336'
  long: "-74.3828"
  nearby_rate_centers:
  - name: BUTLER
    distance:
      value: 5.45
      units: km
  - name: NEWFOUNDLD
    distance:
      value: 5.52
      units: km
  - name: POMPTONLKS
    distance:
      value: 8.67
      units: km
- country: US
  region: NJ
  name: Madison
  lat: '40.7586'
  long: "-74.4169"
  nearby_rate_centers:
  - name: MADISON
    distance:
      value: 0.4
      units: km
  - name: CHATHAM
    distance:
      value: 3.51
      units: km
  - name: SUMMIT
    distance:
      value: 6.65
      units: km
- country: US
  region: NJ
  name: Madison Park
  lat: '40.4454'
  long: "-74.2966"
  nearby_rate_centers:
  - name: SOUTHAMBOY
    distance:
      value: 4.2
      units: km
  - name: MATAWAN
    distance:
      value: 6.51
      units: km
  - name: SOUTHRIVER
    distance:
      value: 7.03
      units: km
- country: US
  region: NJ
  name: Magnolia
  lat: '39.8562'
  long: "-75.0365"
  nearby_rate_centers:
  - name: HADDON HTS
    distance:
      value: 3.62
      units: km
  - name: BEAVER BRK
    distance:
      value: 4.2
      units: km
  - name: HADDONFLD
    distance:
      value: 4.82
      units: km
- country: US
  region: NJ
  name: Malaga
  lat: '39.5787'
  long: "-75.0589"
  nearby_rate_centers:
  - name: FRANKLINVL
    distance:
      value: 4.52
      units: km
  - name: ELMER
    distance:
      value: 9.95
      units: km
  - name: VINELAND
    distance:
      value: 10.82
      units: km
- country: US
  region: NJ
  name: Manahawkin
  lat: '39.6931'
  long: "-74.2495"
  nearby_rate_centers:
  - name: BARNEGAT
    distance:
      value: 6.8
      units: km
  - name: TUCKERTON
    distance:
      value: 12.83
      units: km
  - name: BEACHHAVEN
    distance:
      value: 14.03
      units: km
- country: US
