---
cities:
  us:
    NJ:
    - name: Absecon
      region: NJ
      lat: '39.4229'
      long: "-74.4944"
    - name: Absecon Highlands
      region: NJ
      lat: '39.4409'
      long: "-74.4735"
    - name: Allendale
      region: NJ
      lat: '41.0332'
      long: "-74.1333"
    - name: Allenhurst
      region: NJ
      lat: '40.2362'
      long: "-74.0017"
    - name: Allentown
      region: NJ
      lat: '40.1778'
      long: "-74.5873"
    - name: Allenwood
      region: NJ
      lat: '40.1384'
      long: "-74.1032"
    - name: Alpha
      region: NJ
      lat: '40.6598'
      long: "-75.1571"
    - name: Alpine
      region: NJ
      lat: '40.9616'
      long: "-73.9198"
    - name: Ampere North
      region: NJ
      lat: '40.7758'
      long: "-74.1918"
    - name: Anderson
      region: NJ
      lat: '40.7617'
      long: "-74.9301"
    - name: Annandale
      region: NJ
      lat: '40.6468'
      long: "-74.8881"
    - name: Arrowhead Lake
      region: NJ
      lat: '39.4757'
      long: "-75.3174"
    - name: Asbury
      region: NJ
      lat: '40.7003'
      long: "-75.0121"
    - name: Asbury Park
      region: NJ
      lat: '40.2226'
      long: "-74.0119"
    - name: Ashland
      region: NJ
      lat: '39.8782'
      long: "-75.0085"
    - name: Atco
      region: NJ
      lat: '39.7682'
      long: "-74.8618"
    - name: Atlantic City
      region: NJ
      lat: '39.3797'
      long: "-74.4527"
    - name: Atlantic Highlands
      region: NJ
      lat: '40.4112'
      long: "-74.0295"
    - name: Auburn
      region: NJ
      lat: '39.6969'
      long: "-75.3561"
    - name: Audubon
      region: NJ
      lat: '39.8906'
      long: "-75.0722"
    - name: Audubon Park
      region: NJ
      lat: '39.8969'
      long: "-75.0890"
    - name: Avalon
      region: NJ
      lat: '39.0906'
      long: "-74.7356"
    - name: Avenel
      region: NJ
      lat: '40.5842'
      long: "-74.2716"
    - name: Avon-by-the-Sea
      region: NJ
      lat: '40.1913'
      long: "-74.0166"
    - name: Barclay
      region: NJ
      lat: '39.9013'
      long: "-75.0009"
    - name: Bargaintown
      region: NJ
      lat: '39.3687'
      long: "-74.5924"
    - name: Barnegat Light
      region: NJ
      lat: '39.7530'
      long: "-74.1095"
    - name: Barrington
      region: NJ
      lat: '39.8689'
      long: "-75.0514"
    - name: Basking Ridge
      region: NJ
      lat: '40.7061'
      long: "-74.5568"
    - name: Bay Head
      region: NJ
      lat: '40.0701'
      long: "-74.0482"
    - name: Bayonne
      region: NJ
      lat: '40.6668'
      long: "-74.1158"
    - name: Beach Haven
      region: NJ
      lat: '39.5660'
      long: "-74.2492"
    - name: Beach Haven West
      region: NJ
      lat: '39.6703'
      long: "-74.2338"
    - name: Beachwood
      region: NJ
      lat: '39.9286'
      long: "-74.2022"
    - name: Beattystown
      region: NJ
      lat: '40.8222'
      long: "-74.8502"
    - name: Beckett
      region: NJ
      lat: '39.7559'
      long: "-75.3569"
    - name: Bedminster
      region: NJ
      lat: '40.6745'
      long: "-74.6592"
    - name: Beesleys Point
      region: NJ
      lat: '39.2777'
      long: "-74.6333"
    - name: Belford
      region: NJ
      lat: '40.4261'
      long: "-74.0802"
    - name: Belle Mead
      region: NJ
      lat: '40.4684'
      long: "-74.6559"
    - name: Belleplain
      region: NJ
      lat: '39.2662'
      long: "-74.8672"
    - name: Bellmawr
      region: NJ
      lat: '39.8666'
      long: "-75.0941"
    - name: Belmar
      region: NJ
      lat: '40.1798'
      long: "-74.0255"
    - name: Belvidere
      region: NJ
      lat: '40.8295'
      long: "-75.0728"
    - name: Bergenfield
      region: NJ
      lat: '40.9236'
      long: "-73.9982"
    - name: Berlin
      region: NJ
      lat: '39.7915'
      long: "-74.9374"
    - name: Bernardsville
      region: NJ
      lat: '40.7268'
      long: "-74.5918"
    - name: Beverly
      region: NJ
      lat: '40.0652'
      long: "-74.9221"
    - name: Blackwells Mills
      region: NJ
      lat: '40.4773'
      long: "-74.5976"
    - name: Blackwood
      region: NJ
      lat: '39.7982'
      long: "-75.0629"
    - name: Blawenburg
      region: NJ
      lat: '40.4056'
      long: "-74.6971"
    - name: Bloomingdale
      region: NJ
      lat: '41.0300'
      long: "-74.3319"
    - name: Bloomsbury
      region: NJ
      lat: '40.6537'
      long: "-75.0840"
    - name: Bogota
      region: NJ
      lat: '40.8751'
      long: "-74.0293"
    - name: Boonton
      region: NJ
      lat: '40.9047'
      long: "-74.4048"
    - name: Bound Brook
      region: NJ
      lat: '40.5676'
      long: "-74.5383"
    - name: Bradley Beach
      region: NJ
      lat: '40.2018'
      long: "-74.0128"
    - name: Bradley Gardens
      region: NJ
      lat: '40.5711'
      long: "-74.6678"
    - name: Brainards
      region: NJ
      lat: '40.7718'
      long: "-75.1699"
    - name: Branchville
      region: NJ
      lat: '41.1471'
      long: "-74.7494"
    - name: Brass Castle
      region: NJ
      lat: '40.7621'
      long: "-75.0140"
    - name: Bridgeport
      region: NJ
      lat: '39.8009'
      long: "-75.3468"
    - name: Bridgeville
      region: NJ
      lat: '40.8427'
      long: "-75.0303"
    - name: Bridgewater Center
      region: NJ
      lat: '40.6037'
      long: "-74.6445"
    - name: Brielle
      region: NJ
      lat: '40.1048'
      long: "-74.0637"
    - name: Brigantine
      region: NJ
      lat: '39.4138'
      long: "-74.3787"
    - name: Broadway
      region: NJ
      lat: '40.7356'
      long: "-75.0495"
    - name: Brookdale
      region: NJ
      lat: '40.8348'
      long: "-74.1798"
    - name: Brookfield
      region: NJ
      lat: '40.8163'
      long: "-75.0645"
    - name: Brooklawn
      region: NJ
      lat: '39.8788'
      long: "-75.1207"
    - name: Brookside
      region: NJ
      lat: '40.7944'
      long: "-74.5661"
    - name: Browns Mills
      region: NJ
      lat: '39.9737'
      long: "-74.5690"
    - name: Brownville
      region: NJ
      lat: '40.4014'
      long: "-74.2959"
    - name: Budd Lake
      region: NJ
      lat: '40.8733'
      long: "-74.7375"
    - name: Buena
      region: NJ
      lat: '39.5282'
      long: "-74.9448"
    - name: Burleigh
      region: NJ
      lat: '39.0490'
      long: "-74.8465"
    - name: Butler
      region: NJ
      lat: '40.9990'
      long: "-74.3472"
    - name: Buttzville
      region: NJ
      lat: '40.8293'
      long: "-75.0060"
    - name: Byram Center
      region: NJ
      lat: '40.9325'
      long: "-74.7179"
    - name: Caldwell
      region: NJ
      lat: '40.8389'
      long: "-74.2776"
    - name: Califon
      region: NJ
      lat: '40.7193'
      long: "-74.8371"
    - name: Camden
      region: NJ
      lat: '39.9361'
      long: "-75.1073"
    - name: Cape May
      region: NJ
      lat: '38.9409'
      long: "-74.9042"
    - name: Cape May Court House
      region: NJ
      lat: '39.0788'
      long: "-74.8205"
    - name: Cape May Point
      region: NJ
      lat: '38.9372'
      long: "-74.9651"
    - name: Carlls Corner
      region: NJ
      lat: '39.4659'
      long: "-75.2036"
    - name: Carlstadt
      region: NJ
      lat: '40.8247'
      long: "-74.0613"
    - name: Carteret
      region: NJ
      lat: '40.5849'
      long: "-74.2284"
    - name: Cedar Glen Lakes
      region: NJ
      lat: '39.9527'
      long: "-74.3995"
    - name: Cedar Glen West
      region: NJ
      lat: '40.0418'
      long: "-74.2851"
    - name: Cedar Knolls
      region: NJ
      lat: '40.8199'
      long: "-74.4551"
    - name: Cedarville
      region: NJ
      lat: '39.3382'
      long: "-75.2068"
    - name: Centre Grove
      region: NJ
      lat: '39.3628'
      long: "-75.1351"
    - name: Cherry Hill Mall
      region: NJ
      lat: '39.9384'
      long: "-75.0117"
    - name: Chesilhurst
      region: NJ
      lat: '39.7306'
      long: "-74.8785"
    - name: Clayton
      region: NJ
      lat: '39.6627'
      long: "-75.0782"
    - name: Clementon
      region: NJ
      lat: '39.8046'
      long: "-74.9850"
    - name: Cliffside Park
      region: NJ
      lat: '40.8222'
      long: "-73.9879"
    - name: Cliffwood Beach
      region: NJ
      lat: '40.4427'
      long: "-74.2179"
    - name: Clifton
      region: NJ
      lat: '40.8630'
      long: "-74.1575"
    - name: Closter
      region: NJ
      lat: '40.9733'
      long: "-73.9604"
    - name: Clyde
      region: NJ
      lat: '40.4874'
      long: "-74.5132"
    - name: Collings Lakes
      region: NJ
      lat: '39.5939'
      long: "-74.8821"
    - name: Cologne
      region: NJ
      lat: '39.4933'
      long: "-74.6091"
    - name: Colonia
      region: NJ
      lat: '40.5926'
      long: "-74.3148"
    - name: Columbia
      region: NJ
      lat: '40.9260'
      long: "-75.0945"
    - name: Concordia
      region: NJ
      lat: '40.3125'
      long: "-74.4461"
    - name: Connecticut Farms
      region: NJ
      lat: '40.6930'
      long: "-74.2716"
    - name: Cookstown
      region: NJ
      lat: '40.0446'
      long: "-74.5547"
    - name: Corbin City
      region: NJ
      lat: '39.3046'
      long: "-74.7199"
    - name: Country Lake Estates
      region: NJ
      lat: '39.9486'
      long: "-74.5409"
    - name: Crandon Lakes
      region: NJ
      lat: '41.1234'
      long: "-74.8403"
    - name: Cranford
      region: NJ
      lat: '40.6548'
      long: "-74.3053"
    - name: Cream Ridge
      region: NJ
      lat: '40.1326'
      long: "-74.5348"
    - name: Cresskill
      region: NJ
      lat: '40.9405'
      long: "-73.9596"
    - name: Crestwood Village
      region: NJ
      lat: '39.9568'
      long: "-74.3524"
    - name: Crosswicks
      region: NJ
      lat: '40.1439'
      long: "-74.6409"
    - name: Cumberland-Hesstown
      region: NJ
      lat: '39.3641'
      long: "-74.9284"
    - name: Dayton
      region: NJ
      lat: '40.3768'
      long: "-74.5112"
    - name: Deal
      region: NJ
      lat: '40.2497'
      long: "-73.9976"
    - name: Deans
      region: NJ
      lat: '40.4037'
      long: "-74.5130"
    - name: Deerfield Street
      region: NJ
      lat: '39.5212'
      long: "-75.2421"
    - name: Delaware Park
      region: NJ
      lat: '40.7051'
      long: "-75.1883"
    - name: Delmont
      region: NJ
      lat: '39.2152'
      long: "-74.9494"
    - name: Demarest
      region: NJ
      lat: '40.9550'
      long: "-73.9568"
    - name: Dennisville
      region: NJ
      lat: '39.2018'
      long: "-74.8217"
    - name: Diamond Beach
      region: NJ
      lat: '38.9595'
      long: "-74.8531"
    - name: Dividing Creek
      region: NJ
      lat: '39.2709'
      long: "-75.1007"
    - name: Dorchester
      region: NJ
      lat: '39.2711'
      long: "-74.9729"
    - name: Dorothy
      region: NJ
      lat: '39.4054'
      long: "-74.8333"
    - name: Dover
      region: NJ
      lat: '40.8859'
      long: "-74.5597"
    - name: Dover Beaches North
      region: NJ
      lat: '39.9921'
      long: "-74.0715"
    - name: Dover Beaches South
      region: NJ
      lat: '39.9539'
      long: "-74.0806"
    - name: Dumont
      region: NJ
      lat: '40.9452'
      long: "-73.9923"
    - name: Dunellen
      region: NJ
      lat: '40.5903'
      long: "-74.4656"
    - name: Dutch Neck
      region: NJ
      lat: '39.4017'
      long: "-75.2787"
    - name: East Franklin
      region: NJ
      lat: '40.4933'
      long: "-74.4710"
    - name: East Freehold
      region: NJ
      lat: '40.2718'
      long: "-74.2425"
    - name: East Millstone
      region: NJ
      lat: '40.5011'
      long: "-74.5661"
    - name: East Newark
      region: NJ
      lat: '40.7510'
      long: "-74.1623"
    - name: East Orange
      region: NJ
      lat: '40.7651'
      long: "-74.2117"
    - name: East Rocky Hill
      region: NJ
      lat: '40.4079'
      long: "-74.6128"
    - name: East Rutherford
      region: NJ
      lat: '40.8179'
      long: "-74.0854"
    - name: East Vineland
      region: NJ
      lat: '39.4805'
      long: "-74.9158"
    - name: Eatontown
      region: NJ
      lat: '40.2913'
      long: "-74.0558"
    - name: Echelon
      region: NJ
      lat: '39.8482'
      long: "-74.9957"
    - name: Edgewater
      region: NJ
      lat: '40.8237'
      long: "-73.9740"
    - name: Elizabeth
      region: NJ
      lat: '40.6658'
      long: "-74.1913"
    - name: Ellisburg
      region: NJ
      lat: '39.9199'
      long: "-75.0093"
    - name: Elmer
      region: NJ
      lat: '39.5919'
      long: "-75.1740"
    - name: Elmwood Park
      region: NJ
      lat: '40.9049'
      long: "-74.1201"
    - name: Elwood
      region: NJ
      lat: '39.5731'
      long: "-74.7148"
    - name: Emerson
      region: NJ
      lat: '40.9748'
      long: "-74.0240"
    - name: Encore at Monroe
      region: NJ
      lat: '40.3197'
      long: "-74.4663"
    - name: Englewood
      region: NJ
      lat: '40.8917'
      long: "-73.9736"
    - name: Englewood Cliffs
      region: NJ
      lat: '40.8823'
      long: "-73.9467"
    - name: English Creek
      region: NJ
      lat: '39.3795'
      long: "-74.6481"
    - name: Englishtown
      region: NJ
      lat: '40.2971'
      long: "-74.3607"
    - name: Erma
      region: NJ
      lat: '38.9953'
      long: "-74.8932"
    - name: Essex Fells
      region: NJ
      lat: '40.8271'
      long: "-74.2798"
    - name: Estell Manor
      region: NJ
      lat: '39.3587'
      long: "-74.7752"
    - name: Fair Haven
      region: NJ
      lat: '40.3618'
      long: "-74.0392"
    - name: Fair Lawn
      region: NJ
      lat: '40.9359'
      long: "-74.1177"
    - name: Fairton
      region: NJ
      lat: '39.3758'
      long: "-75.2130"
    - name: Fairview
      region: NJ
      lat: '40.8182'
      long: "-74.0022"
    - name: Fanwood
      region: NJ
      lat: '40.6417'
      long: "-74.3857"
    - name: Far Hills
      region: NJ
      lat: '40.6906'
      long: "-74.6257"
    - name: Farmingdale
      region: NJ
      lat: '40.1985'
      long: "-74.1702"
    - name: Fieldsboro
      region: NJ
      lat: '40.1364'
      long: "-74.7315"
    - name: Finderne
      region: NJ
      lat: '40.5626'
      long: "-74.5743"
    - name: Finesville
      region: NJ
      lat: '40.6110'
      long: "-75.1738"
    - name: Flagtown
      region: NJ
      lat: '40.5232'
      long: "-74.6909"
    - name: Flanders
      region: NJ
      lat: '40.8412'
      long: "-74.7102"
    - name: Flemington
      region: NJ
      lat: '40.5087'
      long: "-74.8599"
    - name: Florham Park
      region: NJ
      lat: '40.7773'
      long: "-74.3953"
    - name: Folsom
      region: NJ
      lat: '39.5929'
      long: "-74.8424"
    - name: Fords
      region: NJ
      lat: '40.5359'
      long: "-74.3126"
    - name: Forked River
      region: NJ
      lat: '39.8257'
      long: "-74.1819"
    - name: Forsgate
      region: NJ
      lat: '40.3487'
      long: "-74.4637"
    - name: Fort Dix
      region: NJ
      lat: '40.0060'
      long: "-74.6089"
    - name: Fort Lee
      region: NJ
      lat: '40.8509'
      long: "-73.9713"
    - name: Fortescue
      region: NJ
      lat: '39.2359'
      long: "-75.1701"
    - name: Franklin
      region: NJ
      lat: '41.1101'
      long: "-74.5886"
    - name: Franklin Center
      region: NJ
      lat: '40.5321'
      long: "-74.5415"
    - name: Franklin Lakes
      region: NJ
      lat: '41.0086'
      long: "-74.2083"
    - name: Franklin Park
      region: NJ
      lat: '40.4439'
      long: "-74.5431"
    - name: Franklinville
      region: NJ
      lat: '39.6194'
      long: "-75.0738"
    - name: Frenchtown
      region: NJ
      lat: '40.5272'
      long: "-75.0571"
    - name: Gandys Beach
      region: NJ
      lat: '39.2715'
      long: "-75.2316"
    - name: Garfield
      region: NJ
      lat: '40.8791'
      long: "-74.1085"
    - name: Garwood
      region: NJ
      lat: '40.6513'
      long: "-74.3231"
    - name: Germania
      region: NJ
      lat: '39.5088'
      long: "-74.5922"
    - name: Gibbsboro
      region: NJ
      lat: '39.8333'
      long: "-74.9657"
    - name: Gibbstown
      region: NJ
      lat: '39.8233'
      long: "-75.2782"
    - name: Gillette
      region: NJ
      lat: '40.6921'
      long: "-74.4629"
    - name: Glassboro
      region: NJ
      lat: '39.7014'
      long: "-75.1113"
    - name: Glen Gardner
      region: NJ
      lat: '40.7004'
      long: "-74.9395"
    - name: Glen Ridge
      region: NJ
      lat: '40.8041'
      long: "-74.2043"
    - name: Glen Rock
      region: NJ
      lat: '40.9601'
      long: "-74.1250"
    - name: Glendora
      region: NJ
      lat: '39.8405'
      long: "-75.0677"
    - name: Gloucester City
      region: NJ
      lat: '39.8924'
      long: "-75.1172"
    - name: Golden Triangle
      region: NJ
      lat: '39.9288'
      long: "-75.0398"
    - name: Goshen
      region: NJ
      lat: '39.1465'
      long: "-74.8524"
    - name: Gouldtown
      region: NJ
      lat: '39.4152'
      long: "-75.1912"
    - name: Great Meadows
      region: NJ
      lat: '40.8770'
      long: "-74.9034"
    - name: Great Notch
      region: NJ
      lat: '40.8705'
      long: "-74.2084"
    - name: Green Knoll
      region: NJ
      lat: '40.6047'
      long: "-74.6147"
    - name: Green Village
      region: NJ
      lat: '40.7386'
      long: "-74.4460"
    - name: Greentree
      region: NJ
      lat: '39.8989'
      long: "-74.9613"
    - name: Greenwich
      region: NJ
      lat: '39.3910'
      long: "-75.3432"
    - name: Grenloch
      region: NJ
      lat: '39.7825'
      long: "-75.0562"
    - name: Griggstown
      region: NJ
      lat: '40.4400'
      long: "-74.5989"
    - name: Groveville
      region: NJ
      lat: '40.1679'
      long: "-74.6523"
    - name: Guttenberg
      region: NJ
      lat: '40.7928'
      long: "-74.0049"
    - name: Hackensack
      region: NJ
      lat: '40.8891'
      long: "-74.0462"
    - name: Hackettstown
      region: NJ
      lat: '40.8540'
      long: "-74.8257"
    - name: Haddon Heights
      region: NJ
      lat: '39.8792'
      long: "-75.0645"
    - name: Hainesburg
      region: NJ
      lat: '40.9577'
      long: "-75.0503"
    - name: Haledon
      region: NJ
      lat: '40.9363'
      long: "-74.1887"
    - name: Hamburg
      region: NJ
      lat: '41.1485'
      long: "-74.5736"
    - name: Hamilton Square
      region: NJ
      lat: '40.2248'
      long: "-74.6526"
    - name: Hammonton
      region: NJ
      lat: '39.6572'
      long: "-74.7678"
    - name: Hancocks Bridge
      region: NJ
      lat: '39.5051'
      long: "-75.4605"
    - name: Harlingen
      region: NJ
      lat: '40.4502'
      long: "-74.6581"
    - name: Harrington Park
      region: NJ
      lat: '40.9899'
      long: "-73.9804"
    - name: Harrison
      region: NJ
      lat: '40.7431'
      long: "-74.1531"
    - name: Harrisonville
      region: NJ
      lat: '39.6881'
      long: "-75.2701"
    - name: Harvey Cedars
      region: NJ
      lat: '39.6995'
      long: "-74.1426"
    - name: Hasbrouck Heights
      region: NJ
      lat: '40.8618'
      long: "-74.0741"
    - name: Haworth
      region: NJ
      lat: '40.9622'
      long: "-73.9976"
    - name: Hawthorne
      region: NJ
      lat: '40.9579'
      long: "-74.1582"
    - name: Heathcote
      region: NJ
      lat: '40.3878'
      long: "-74.5780"
    - name: Heislerville
      region: NJ
      lat: '39.2236'
      long: "-74.9915"
    - name: Helmetta
      region: NJ
      lat: '40.3777'
      long: "-74.4238"
    - name: Hewitt
      region: NJ
      lat: '41.1601'
      long: "-74.3311"
    - name: Hi-Nella
      region: NJ
      lat: '39.8367'
      long: "-75.0220"
    - name: Hibernia
      region: NJ
      lat: '40.9423'
      long: "-74.5011"
    - name: High Bridge
      region: NJ
      lat: '40.6684'
      long: "-74.8940"
    - name: Highland Lakes
      region: NJ
      lat: '41.1716'
      long: "-74.4643"
    - name: Highland Park
      region: NJ
      lat: '40.5006'
      long: "-74.4283"
    - name: Highlands
      region: NJ
      lat: '40.4036'
      long: "-73.9898"
    - name: Hightstown
      region: NJ
      lat: '40.2686'
      long: "-74.5253"
    - name: Hillsborough
      region: NJ
      lat: '40.5069'
      long: "-74.6523"
    - name: Hillsdale
      region: NJ
      lat: '41.0074'
      long: "-74.0440"
    - name: Ho-Ho-Kus
      region: NJ
      lat: '41.0001'
      long: "-74.0972"
    - name: Hoboken
      region: NJ
      lat: '40.7452'
      long: "-74.0281"
    - name: Holiday City South
      region: NJ
      lat: '39.9533'
      long: "-74.2367"
    - name: Holiday City-Berkeley
      region: NJ
      lat: '39.9639'
      long: "-74.2787"
    - name: Holiday Heights
      region: NJ
      lat: '39.9396'
      long: "-74.2572"
    - name: Hopatcong
      region: NJ
      lat: '40.9541'
      long: "-74.6593"
    - name: Hopelawn
      region: NJ
      lat: '40.5286'
      long: "-74.2936"
    - name: Hopewell
      region: NJ
      lat: '40.3893'
      long: "-74.7638"
    - name: Hutchinson
      region: NJ
      lat: '40.7800'
      long: "-75.1204"
    - name: Interlaken
      region: NJ
      lat: '40.2350'
      long: "-74.0166"
    - name: Iselin
      region: NJ
      lat: '40.5697'
      long: "-74.3172"
    - name: Island Heights
      region: NJ
      lat: '39.9424'
      long: "-74.1454"
    - name: Jamesburg
      region: NJ
      lat: '40.3493'
      long: "-74.4399"
    - name: Jersey City
      region: NJ
      lat: '40.7184'
      long: "-74.0686"
    - name: Jobstown
      region: NJ
      lat: '40.0334'
      long: "-74.6945"
    - name: Johnsonburg
      region: NJ
      lat: '40.9623'
      long: "-74.8765"
    - name: Juliustown
      region: NJ
      lat: '40.0121'
      long: "-74.6715"
    - name: Kean University
      region: NJ
      lat: '40.6791'
      long: "-74.2314"
    - name: Keansburg
      region: NJ
      lat: '40.4469'
      long: "-74.1315"
    - name: Kearny
      region: NJ
      lat: '40.7528'
      long: "-74.1202"
    - name: Keasbey
      region: NJ
      lat: '40.5143'
      long: "-74.3078"
    - name: Kendall Park
      region: NJ
      lat: '40.4135'
      long: "-74.5631"
    - name: Kenilworth
      region: NJ
      lat: '40.6781'
      long: "-74.2890"
    - name: Kenvil
      region: NJ
      lat: '40.8816'
      long: "-74.6220"
    - name: Keyport
      region: NJ
      lat: '40.4328'
      long: "-74.2011"
    - name: Kingston
      region: NJ
      lat: '40.3838'
      long: "-74.6122"
    - name: Kingston Estates
      region: NJ
      lat: '39.9188'
      long: "-74.9898"
    - name: Kinnelon
      region: NJ
      lat: '40.9847'
      long: "-74.3862"
    - name: Lake Como
      region: NJ
      lat: '40.1706'
      long: "-74.0262"
    - name: Lake Hiawatha
      region: NJ
      lat: '40.8816'
      long: "-74.3826"
    - name: Lake Hopatcong
      region: NJ
      lat: '40.9599'
      long: "-74.6094"
    - name: Lake Mohawk
      region: NJ
      lat: '41.0149'
      long: "-74.6640"
    - name: Lake Telemark
      region: NJ
      lat: '40.9610'
      long: "-74.4970"
    - name: Lakehurst
      region: NJ
      lat: '40.0133'
      long: "-74.3201"
    - name: Lakeside-Beebe Run
      region: NJ
      lat: '39.4522'
      long: "-75.2497"
    - name: Lambertville
      region: NJ
      lat: '40.3687'
      long: "-74.9430"
    - name: Lamington
      region: NJ
      lat: '40.6633'
      long: "-74.7079"
    - name: Landing
      region: NJ
      lat: '40.9078'
      long: "-74.6593"
    - name: Laurel Heights
      region: NJ
      lat: '39.4570'
      long: "-75.2235"
    - name: Laurel Lake
      region: NJ
      lat: '39.3265'
      long: "-75.0305"
    - name: Laurel Springs
      region: NJ
      lat: '39.8213'
      long: "-75.0053"
    - name: Laurence Harbor
      region: NJ
      lat: '40.4489'
      long: "-74.2494"
    - name: Lavallette
      region: NJ
      lat: '39.9699'
      long: "-74.0723"
    - name: Lawnside
      region: NJ
      lat: '39.8673'
      long: "-75.0289"
    - name: Lawrenceville
      region: NJ
      lat: '40.3018'
      long: "-74.7378"
    - name: Layton
      region: NJ
      lat: '41.2192'
      long: "-74.8229"
    - name: Ledgewood
      region: NJ
      lat: '40.8769'
      long: "-74.6724"
    - name: Leeds Point
      region: NJ
      lat: '39.4906'
      long: "-74.4433"
    - name: Leesburg
      region: NJ
      lat: '39.2593'
      long: "-74.9849"
    - name: Leisure Knoll
      region: NJ
      lat: '40.0186'
      long: "-74.2909"
    - name: Leisure Village
      region: NJ
      lat: '40.0445'
      long: "-74.1852"
    - name: Leisure Village East
      region: NJ
      lat: '40.0384'
      long: "-74.1678"
    - name: Leisure Village West
      region: NJ
      lat: '40.0104'
      long: "-74.2806"
    - name: Leisuretowne
      region: NJ
      lat: '39.8987'
      long: "-74.7059"
    - name: Leonardo
      region: NJ
      lat: '40.4190'
      long: "-74.0599"
    - name: Leonia
      region: NJ
      lat: '40.8638'
      long: "-73.9900"
    - name: Liberty Corner
      region: NJ
      lat: '40.6647'
      long: "-74.5807"
    - name: Lincoln Park
      region: NJ
      lat: '40.9239'
      long: "-74.3035"
    - name: Lincroft
      region: NJ
      lat: '40.3391'
      long: "-74.1282"
    - name: Linden
      region: NJ
      lat: '40.6251'
      long: "-74.2383"
    - name: Lindenwold
      region: NJ
      lat: '39.8173'
      long: "-74.9898"
    - name: Little Ferry
      region: NJ
      lat: '40.8464'
      long: "-74.0388"
    - name: Little Silver
      region: NJ
      lat: '40.3357'
      long: "-74.0346"
    - name: Llewellyn Park
      region: NJ
      lat: '40.7895'
      long: "-74.2415"
    - name: Loch Arbour
      region: NJ
      lat: '40.2323'
      long: "-74.0013"
    - name: Lodi
      region: NJ
      lat: '40.8784'
      long: "-74.0814"
    - name: Long Branch
      region: NJ
      lat: '40.2965'
      long: "-73.9915"
    - name: Long Valley
      region: NJ
      lat: '40.7826'
      long: "-74.7776"
    - name: Longport
      region: NJ
      lat: '39.3136'
      long: "-74.5261"
    - name: Lopatcong Overlook
      region: NJ
      lat: '40.6971'
      long: "-75.1452"
    - name: Lower Berkshire Valley
      region: NJ
      lat: '40.9132'
      long: "-74.6104"
    - name: Lyons
      region: NJ
      lat: '40.6811'
      long: "-74.5493"
    - name: Macopin
      region: NJ
      lat: '41.0336'
      long: "-74.3828"
    - name: Madison
      region: NJ
      lat: '40.7586'
      long: "-74.4169"
    - name: Madison Park
      region: NJ
      lat: '40.4454'
      long: "-74.2966"
    - name: Magnolia
      region: NJ
      lat: '39.8562'
      long: "-75.0365"
    - name: Malaga
      region: NJ
      lat: '39.5787'
      long: "-75.0589"
    - name: Manahawkin
      region: NJ
      lat: '39.6931'
      long: "-74.2495"
    - name: Manasquan
      region: NJ
      lat: '40.1186'
      long: "-74.0450"
    - name: Mantoloking
      region: NJ
      lat: '40.0435'
      long: "-74.0514"
    - name: Manville
      region: NJ
      lat: '40.5420'
      long: "-74.5892"
    - name: Margate City
      region: NJ
      lat: '39.3307'
      long: "-74.5070"
    - name: Marksboro
      region: NJ
      lat: '40.9811'
      long: "-74.9082"
    - name: Marlboro
      region: NJ
      lat: '39.4860'
      long: "-75.3215"
    - name: Marlton
      region: NJ
      lat: '39.9014'
      long: "-74.9294"
    - name: Marmora
      region: NJ
      lat: '39.2594'
      long: "-74.6570"
    - name: Marshallville
      region: NJ
      lat: '39.2929'
      long: "-74.7751"
    - name: Martinsville
      region: NJ
      lat: '40.6030'
      long: "-74.5751"
    - name: Matawan
      region: NJ
      lat: '40.4127'
      long: "-74.2365"
    - name: Mauricetown
      region: NJ
      lat: '39.2920'
      long: "-75.0097"
    - name: Mays Landing
      region: NJ
      lat: '39.4506'
      long: "-74.7098"
    - name: Maywood
      region: NJ
      lat: '40.9025'
      long: "-74.0634"
    - name: McGuire AFB
      region: NJ
      lat: '40.0285'
      long: "-74.5883"
    - name: McKee City
      region: NJ
      lat: '39.4465'
      long: "-74.6445"
    - name: Medford Lakes
      region: NJ
      lat: '39.8581'
      long: "-74.8053"
    - name: Menlo Park Terrace
      region: NJ
      lat: '40.5534'
      long: "-74.3243"
    - name: Mercerville
      region: NJ
      lat: '40.2360'
      long: "-74.6917"
    - name: Merchantville
      region: NJ
      lat: '39.9502'
      long: "-75.0504"
    - name: Metuchen
      region: NJ
      lat: '40.5424'
      long: "-74.3628"
    - name: Mickleton
      region: NJ
      lat: '39.7921'
      long: "-75.2437"
    - name: Middlebush
      region: NJ
      lat: '40.5015'
      long: "-74.5349"
    - name: Middlesex
      region: NJ
      lat: '40.5744'
      long: "-74.5011"
    - name: Midland Park
      region: NJ
      lat: '40.9952'
      long: "-74.1410"
    - name: Milford
      region: NJ
      lat: '40.5694'
      long: "-75.0916"
    - name: Millington
      region: NJ
      lat: '40.6763'
      long: "-74.5159"
    - name: Milltown
      region: NJ
      lat: '40.4504'
      long: "-74.4351"
    - name: Millville
      region: NJ
      lat: '39.3903'
      long: "-75.0561"
    - name: Milmay
      region: NJ
      lat: '39.4433'
      long: "-74.8668"
    - name: Mizpah
      region: NJ
      lat: '39.4814'
      long: "-74.8385"
    - name: Money Island
      region: NJ
      lat: '39.2855'
      long: "-75.2352"
    - name: Monmouth Beach
      region: NJ
      lat: '40.3364'
      long: "-73.9863"
    - name: Monmouth Junction
      region: NJ
      lat: '40.3754'
      long: "-74.5582"
    - name: Monroe Manor
      region: NJ
      lat: '40.2591'
      long: "-74.4743"
    - name: Montclair State University
      region: NJ
      lat: '40.8660'
      long: "-74.1984"
    - name: Montvale
      region: NJ
      lat: '41.0529'
      long: "-74.0499"
    - name: Moonachie
      region: NJ
      lat: '40.8408'
      long: "-74.0590"
    - name: Moorestown-Lenola
      region: NJ
      lat: '39.9659'
      long: "-74.9643"
    - name: Morganville
      region: NJ
      lat: '40.3756'
      long: "-74.2444"
    - name: Morris Plains
      region: NJ
      lat: '40.8356'
      long: "-74.4786"
    - name: Morristown
      region: NJ
      lat: '40.7967'
      long: "-74.4772"
    - name: Mount Arlington
      region: NJ
      lat: '40.9190'
      long: "-74.6390"
    - name: Mount Ephraim
      region: NJ
      lat: '39.8805'
      long: "-75.0918"
    - name: Mount Hermon
      region: NJ
      lat: '40.9227'
      long: "-74.9961"
    - name: Mount Hope
      region: NJ
      lat: '40.9182'
      long: "-74.5508"
    - name: Mount Royal
      region: NJ
      lat: '39.8099'
      long: "-75.2137"
    - name: Mount Tabor
      region: NJ
      lat: '40.8717'
      long: "-74.4759"
    - name: Mountain Lake
      region: NJ
      lat: '40.8614'
      long: "-74.9858"
    - name: Mountain Lakes
      region: NJ
      lat: '40.8907'
      long: "-74.4406"
    - name: Mountainside
      region: NJ
      lat: '40.6811'
      long: "-74.3601"
    - name: Mullica Hill
      region: NJ
      lat: '39.7270'
      long: "-75.2194"
    - name: Mystic Island
      region: NJ
      lat: '39.5659'
      long: "-74.3831"
    - name: National Park
      region: NJ
      lat: '39.8676'
      long: "-75.1852"
    - name: Navesink
      region: NJ
      lat: '40.4020'
      long: "-74.0387"
    - name: Neptune City
      region: NJ
      lat: '40.2005'
      long: "-74.0333"
    - name: Nesco
      region: NJ
      lat: '39.6380'
      long: "-74.6954"
    - name: Neshanic
      region: NJ
      lat: '40.5043'
      long: "-74.7175"
    - name: Neshanic Station
      region: NJ
      lat: '40.5291'
      long: "-74.7358"
    - name: Netcong
      region: NJ
      lat: '40.8985'
      long: "-74.7019"
    - name: New Brunswick
      region: NJ
      lat: '40.4870'
      long: "-74.4450"
    - name: New Egypt
      region: NJ
      lat: '40.0645'
      long: "-74.5284"
    - name: New Gretna
      region: NJ
      lat: '39.5909'
      long: "-74.4550"
    - name: New Milford
      region: NJ
      lat: '40.9337'
      long: "-74.0196"
    - name: New Providence
      region: NJ
      lat: '40.6996'
      long: "-74.4035"
    - name: New Vernon
      region: NJ
      lat: '40.7343'
      long: "-74.4877"
    - name: New Village
      region: NJ
      lat: '40.7184'
      long: "-75.0773"
    - name: Newark
      region: NJ
      lat: '40.7245'
      long: "-74.1725"
    - name: Newfield
      region: NJ
      lat: '39.5484'
      long: "-75.0167"
    - name: Newfoundland
      region: NJ
      lat: '41.0594'
      long: "-74.4308"
    - name: Newport
      region: NJ
      lat: '39.2937'
      long: "-75.1707"
    - name: Newton
      region: NJ
      lat: '41.0534'
      long: "-74.7527"
    - name: Newtonville
      region: NJ
      lat: '39.5633'
      long: "-74.8559"
    - name: North Arlington
      region: NJ
      lat: '40.7874'
      long: "-74.1273"
    - name: North Beach Haven
      region: NJ
      lat: '39.6008'
      long: "-74.2123"
    - name: North Caldwell
      region: NJ
      lat: '40.8629'
      long: "-74.2576"
    - name: North Cape May
      region: NJ
      lat: '38.9804'
      long: "-74.9509"
    - name: North Haledon
      region: NJ
      lat: '40.9628'
      long: "-74.1844"
    - name: North Middletown
      region: NJ
      lat: '40.4395'
      long: "-74.1179"
    - name: North Plainfield
      region: NJ
      lat: '40.6209'
      long: "-74.4386"
    - name: North Wildwood
      region: NJ
      lat: '39.0033'
      long: "-74.8006"
    - name: Northfield
      region: NJ
      lat: '39.3718'
      long: "-74.5543"
    - name: Northvale
      region: NJ
      lat: '41.0101'
      long: "-73.9505"
    - name: Norwood
      region: NJ
      lat: '40.9933'
      long: "-73.9510"
    - name: Oak Ridge
      region: NJ
      lat: '41.0323'
      long: "-74.4971"
    - name: Oak Valley
      region: NJ
      lat: '39.8055'
      long: "-75.1589"
    - name: Oakhurst
      region: NJ
      lat: '40.2607'
      long: "-74.0263"
    - name: Oakland
      region: NJ
      lat: '41.0313'
      long: "-74.2408"
    - name: Oaklyn
      region: NJ
      lat: '39.9023'
      long: "-75.0813"
    - name: Ocean Acres
      region: NJ
      lat: '39.7430'
      long: "-74.2805"
    - name: Ocean City
      region: NJ
      lat: '39.2681'
      long: "-74.6020"
    - name: Ocean Gate
      region: NJ
      lat: '39.9269'
      long: "-74.1348"
    - name: Ocean Grove
      region: NJ
      lat: '40.2119'
      long: "-74.0083"
    - name: Ocean View
      region: NJ
      lat: '39.1932'
      long: "-74.7373"
    - name: Oceanport
      region: NJ
      lat: '40.3160'
      long: "-74.0205"
    - name: Oceanville
      region: NJ
      lat: '39.4774'
      long: "-74.4569"
    - name: Ogdensburg
      region: NJ
      lat: '41.0769'
      long: "-74.5973"
    - name: Old Tappan
      region: NJ
      lat: '41.0163'
      long: "-73.9855"
    - name: Oldwick
      region: NJ
      lat: '40.6700'
      long: "-74.7443"
    - name: Olivet
      region: NJ
      lat: '39.5402'
      long: "-75.1727"
    - name: Oradell
      region: NJ
      lat: '40.9562'
      long: "-74.0314"
    - name: Othello
      region: NJ
      lat: '39.4114'
      long: "-75.3426"
    - name: Packanack Lake
      region: NJ
      lat: '40.9382'
      long: "-74.2564"
    - name: Palermo
      region: NJ
      lat: '39.2333'
      long: "-74.6859"
    - name: Palisades Park
      region: NJ
      lat: '40.8472'
      long: "-73.9966"
    - name: Palmyra
      region: NJ
      lat: '40.0025'
      long: "-75.0360"
    - name: Panther Valley
      region: NJ
      lat: '40.9078'
      long: "-74.8412"
    - name: Paramus
      region: NJ
      lat: '40.9455'
      long: "-74.0712"
    - name: Park Ridge
      region: NJ
      lat: '41.0352'
      long: "-74.0423"
    - name: Parsippany
      region: NJ
      lat: '40.8645'
      long: "-74.4135"
    - name: Passaic
      region: NJ
      lat: '40.8574'
      long: "-74.1282"
    - name: Paterson
      region: NJ
      lat: '40.9147'
      long: "-74.1624"
    - name: Paulsboro
      region: NJ
      lat: '39.8400'
      long: "-75.2397"
    - name: Pedricktown
      region: NJ
      lat: '39.7658'
      long: "-75.4085"
    - name: Pemberton Heights
      region: NJ
      lat: '39.9563'
      long: "-74.6768"
    - name: Pennington
      region: NJ
      lat: '40.3262'
      long: "-74.7908"
    - name: Penns Grove
      region: NJ
      lat: '39.7275'
      long: "-75.4691"
    - name: Perth Amboy
      region: NJ
      lat: '40.5202'
      long: "-74.2724"
    - name: Phillipsburg
      region: NJ
      lat: '40.6894'
      long: "-75.1821"
    - name: Pine Beach
      region: NJ
      lat: '39.9359'
      long: "-74.1700"
    - name: Pine Brook
      region: NJ
      lat: '40.8676'
      long: "-74.3438"
    - name: Pine Hill
      region: NJ
      lat: '39.7879'
      long: "-74.9857"
    - name: Pine Lake Park
      region: NJ
      lat: '40.0017'
      long: "-74.2595"
    - name: Pine Ridge at Crestwood
      region: NJ
      lat: '39.9586'
      long: "-74.3169"
    - name: Pines Lake
      region: NJ
      lat: '40.9983'
      long: "-74.2643"
    - name: Pitman
      region: NJ
      lat: '39.7335'
      long: "-75.1306"
    - name: Plainfield
      region: NJ
      lat: '40.6154'
      long: "-74.4157"
    - name: Plainsboro Center
      region: NJ
      lat: '40.3311'
      long: "-74.5925"
    - name: Pleasant Plains
      region: NJ
      lat: '40.4523'
      long: "-74.5696"
    - name: Pleasantdale
      region: NJ
      lat: '40.8061'
      long: "-74.2713"
    - name: Pleasantville
      region: NJ
      lat: '39.3900'
      long: "-74.5169"
    - name: Pluckemin
      region: NJ
      lat: '40.6454'
      long: "-74.6355"
    - name: Point Pleasant
      region: NJ
      lat: '40.0772'
      long: "-74.0702"
    - name: Point Pleasant Beach
      region: NJ
      lat: '40.0928'
      long: "-74.0459"
    - name: Pomona
      region: NJ
      lat: '39.4688'
      long: "-74.5502"
    - name: Pompton Lakes
      region: NJ
      lat: '41.0024'
      long: "-74.2859"
    - name: Pompton Plains
      region: NJ
      lat: '40.9679'
      long: "-74.3075"
    - name: Port Colden
      region: NJ
      lat: '40.7661'
      long: "-74.9548"
    - name: Port Elizabeth
      region: NJ
      lat: '39.3079'
      long: "-74.9757"
    - name: Port Monmouth
      region: NJ
      lat: '40.4338'
      long: "-74.1009"
    - name: Port Morris
      region: NJ
      lat: '40.9061'
      long: "-74.6845"
    - name: Port Murray
      region: NJ
      lat: '40.7915'
      long: "-74.9240"
    - name: Port Norris
      region: NJ
      lat: '39.2521'
      long: "-75.0412"
    - name: Port Reading
      region: NJ
      lat: '40.5685'
      long: "-74.2469"
    - name: Port Republic
      region: NJ
      lat: '39.5328'
      long: "-74.4852"
    - name: Pottersville
      region: NJ
      lat: '40.7133'
      long: "-74.7253"
    - name: Preakness
      region: NJ
      lat: '40.9382'
      long: "-74.2242"
    - name: Presidential Lakes Estates
      region: NJ
      lat: '39.9151'
      long: "-74.5654"
    - name: Princeton
      region: NJ
      lat: '40.3562'
      long: "-74.6693"
    - name: Princeton Junction
      region: NJ
      lat: '40.3206'
      long: "-74.6237"
    - name: Princeton Meadows
      region: NJ
      lat: '40.3347'
      long: "-74.5651"
    - name: Prospect Park
      region: NJ
      lat: '40.9380'
      long: "-74.1736"
    - name: Rahway
      region: NJ
      lat: '40.6077'
      long: "-74.2807"
    - name: Rainbow Lakes
      region: NJ
      lat: '40.8750'
      long: "-74.4535"
    - name: Ramapo College of New Jersey
      region: NJ
      lat: '41.0814'
      long: "-74.1750"
    - name: Ramblewood
      region: NJ
      lat: '39.9322'
      long: "-74.9527"
    - name: Ramsey
      region: NJ
      lat: '41.0595'
      long: "-74.1454"
    - name: Ramtown
      region: NJ
      lat: '40.1145'
      long: "-74.1492"
    - name: Red Bank
      region: NJ
      lat: '40.3480'
      long: "-74.0672"
    - name: Regency at Monroe
      region: NJ
      lat: '40.3208'
      long: "-74.3862"
    - name: Renaissance at Monroe
      region: NJ
      lat: '40.2634'
      long: "-74.4807"
    - name: Richland
      region: NJ
      lat: '39.4927'
      long: "-74.8765"
    - name: Richwood
      region: NJ
      lat: '39.7139'
      long: "-75.1731"
    - name: Ridgefield
      region: NJ
      lat: '40.8313'
      long: "-74.0147"
    - name: Ridgefield Park
      region: NJ
      lat: '40.8543'
      long: "-74.0201"
    - name: Ridgewood
      region: NJ
      lat: '40.9821'
      long: "-74.1127"
    - name: Ringoes
      region: NJ
      lat: '40.4327'
      long: "-74.8722"
    - name: Ringwood
      region: NJ
      lat: '41.1065'
      long: "-74.2749"
    - name: Rio Grande
      region: NJ
      lat: '39.0193'
      long: "-74.8787"
    - name: River Edge
      region: NJ
      lat: '40.9269'
      long: "-74.0387"
    - name: Riverdale
      region: NJ
      lat: '40.9921'
      long: "-74.3125"
    - name: Riverton
      region: NJ
      lat: '40.0115'
      long: "-75.0148"
    - name: Roadstown
      region: NJ
      lat: '39.4431'
      long: "-75.3169"
    - name: Robertsville
      region: NJ
      lat: '40.3395'
      long: "-74.2939"
    - name: Rockleigh
      region: NJ
      lat: '41.0026'
      long: "-73.9327"
    - name: Rocky Hill
      region: NJ
      lat: '40.4001'
      long: "-74.6405"
    - name: Roebling
      region: NJ
      lat: '40.1167'
      long: "-74.7775"
    - name: Roosevelt
      region: NJ
      lat: '40.2212'
      long: "-74.4730"
    - name: Roseland
      region: NJ
      lat: '40.8208'
      long: "-74.3086"
    - name: Roselle
      region: NJ
      lat: '40.6527'
      long: "-74.2599"
    - name: Roselle Park
      region: NJ
      lat: '40.6653'
      long: "-74.2666"
    - name: Rosenhayn
      region: NJ
      lat: '39.4787'
      long: "-75.1380"
    - name: Ross Corner
      region: NJ
      lat: '41.1243'
      long: "-74.7190"
    - name: Rossmoor
      region: NJ
      lat: '40.3349'
      long: "-74.4708"
    - name: Rumson
      region: NJ
      lat: '40.3626'
      long: "-74.0046"
    - name: Runnemede
      region: NJ
      lat: '39.8522'
      long: "-75.0740"
    - name: Rutgers University-Busch Campus
      region: NJ
      lat: '40.5214'
      long: "-74.4654"
    - name: Rutgers University-Livingston Campus
      region: NJ
      lat: '40.5198'
      long: "-74.4403"
    - name: Rutherford
      region: NJ
      lat: '40.8203'
      long: "-74.1057"
    - name: Saddle River
      region: NJ
      lat: '41.0273'
      long: "-74.0956"
    - name: Salem
      region: NJ
      lat: '39.5681'
      long: "-75.4724"
    - name: Sayreville
      region: NJ
      lat: '40.4656'
      long: "-74.3237"
    - name: Sea Bright
      region: NJ
      lat: '40.3653'
      long: "-73.9770"
    - name: Sea Girt
      region: NJ
      lat: '40.1308'
      long: "-74.0358"
    - name: Sea Isle City
      region: NJ
      lat: '39.1523'
      long: "-74.6976"
    - name: Seabrook Farms
      region: NJ
      lat: '39.5015'
      long: "-75.2190"
    - name: Seaside Heights
      region: NJ
      lat: '39.9452'
      long: "-74.0790"
    - name: Seaside Park
      region: NJ
      lat: '39.9264'
      long: "-74.0785"
    - name: Seaville
      region: NJ
      lat: '39.2093'
      long: "-74.7136"
    - name: Secaucus
      region: NJ
      lat: '40.7810'
      long: "-74.0659"
    - name: Seeley
      region: NJ
      lat: '39.4852'
      long: "-75.2455"
    - name: Sewaren
      region: NJ
      lat: '40.5519'
      long: "-74.2581"
    - name: Sewell
      region: NJ
      lat: '39.7696'
      long: "-75.1443"
    - name: Shark River Hills
      region: NJ
      lat: '40.1923'
      long: "-74.0463"
    - name: Sheppards Mill
      region: NJ
      lat: '39.4124'
      long: "-75.3136"
    - name: Shiloh
      region: NJ
      lat: '39.4595'
      long: "-75.2970"
    - name: Ship Bottom
      region: NJ
      lat: '39.6459'
      long: "-74.1835"
    - name: Short Hills
      region: NJ
      lat: '40.7389'
      long: "-74.3278"
    - name: Shrewsbury
      region: NJ
      lat: '40.3249'
      long: "-74.0600"
    - name: Sicklerville
      region: NJ
      lat: '39.7452'
      long: "-74.9934"
    - name: Silver Lake
      region: NJ
      lat: '40.7804'
      long: "-74.1829"
    - name: Silver Lake
      region: NJ
      lat: '39.4675'
      long: "-75.2408"
    - name: Silver Ridge
      region: NJ
      lat: '39.9621'
      long: "-74.2358"
    - name: Singac
      region: NJ
      lat: '40.8849'
      long: "-74.2431"
    - name: Six Mile Run
      region: NJ
      lat: '40.4730'
      long: "-74.5334"
    - name: Skillman
      region: NJ
      lat: '40.4247'
      long: "-74.7140"
    - name: Smithville
      region: NJ
      lat: '39.4929'
      long: "-74.4801"
    - name: Somerdale
      region: NJ
      lat: '39.8455'
      long: "-75.0218"
    - name: Somers Point
      region: NJ
      lat: '39.3167'
      long: "-74.6066"
    - name: Somerset
      region: NJ
      lat: '40.5083'
      long: "-74.5010"
    - name: Somerville
      region: NJ
      lat: '40.5696'
      long: "-74.6092"
    - name: South Amboy
      region: NJ
      lat: '40.4852'
      long: "-74.2831"
    - name: South Bound Brook
      region: NJ
      lat: '40.5535'
      long: "-74.5277"
    - name: South Dennis
      region: NJ
      lat: '39.1684'
      long: "-74.8000"
    - name: South Plainfield
      region: NJ
      lat: '40.5748'
      long: "-74.4152"
    - name: South River
      region: NJ
      lat: '40.4455'
      long: "-74.3783"
    - name: South Seaville
      region: NJ
      lat: '39.1825'
      long: "-74.7575"
    - name: South Toms River
      region: NJ
      lat: '39.9418'
      long: "-74.2087"
    - name: Spotswood
      region: NJ
      lat: '40.3949'
      long: "-74.3920"
    - name: Spring Lake
      region: NJ
      lat: '40.1539'
      long: "-74.0273"
    - name: Spring Lake Heights
      region: NJ
      lat: '40.1521'
      long: "-74.0430"
    - name: Springdale
      region: NJ
      lat: '39.8769'
      long: "-74.9724"
    - name: Springfield
      region: NJ
      lat: '40.7060'
      long: "-74.3130"
    - name: Stanhope
      region: NJ
      lat: '40.9141'
      long: "-74.7027"
    - name: Stewartsville
      region: NJ
      lat: '40.6889'
      long: "-75.1022"
    - name: Stirling
      region: NJ
      lat: '40.6782'
      long: "-74.4936"
    - name: Stockton
      region: NJ
      lat: '40.4061'
      long: "-74.9758"
    - name: Stockton University
      region: NJ
      lat: '39.4889'
      long: "-74.5417"
    - name: Stone Harbor
      region: NJ
      lat: '39.0483'
      long: "-74.7653"
    - name: Stonebridge
      region: NJ
      lat: '40.2947'
      long: "-74.4653"
    - name: Stratford
      region: NJ
      lat: '39.8290'
      long: "-75.0156"
    - name: Strathmere
      region: NJ
      lat: '39.1944'
      long: "-74.6618"
    - name: Strathmore
      region: NJ
      lat: '40.4018'
      long: "-74.2194"
    - name: Succasunna
      region: NJ
      lat: '40.8530'
      long: "-74.6568"
    - name: Summit
      region: NJ
      lat: '40.7154'
      long: "-74.3647"
    - name: Sunset Lake
      region: NJ
      lat: '39.4520'
      long: "-75.2337"
    - name: Surf City
      region: NJ
      lat: '39.6646'
      long: "-74.1711"
    - name: Sussex
      region: NJ
      lat: '41.2096'
      long: "-74.6079"
    - name: Swedesboro
      region: NJ
      lat: '39.7459'
      long: "-75.3117"
    - name: Sweetwater
      region: NJ
      lat: '39.6170'
      long: "-74.6415"
    - name: Tavistock
      region: NJ
      lat: '39.8758'
      long: "-75.0273"
    - name: Ten Mile Run
      region: NJ
      lat: '40.4218'
      long: "-74.5890"
    - name: Tenafly
      region: NJ
      lat: '40.9176'
      long: "-73.9532"
    - name: Teterboro
      region: NJ
      lat: '40.8580'
      long: "-74.0594"
    - name: The College of New Jersey
      region: NJ
      lat: '40.2689'
      long: "-74.7764"
    - name: The Hills
      region: NJ
      lat: '40.6561'
      long: "-74.6215"
    - name: Thorofare
      region: NJ
      lat: '39.8515'
      long: "-75.1988"
    - name: Three Bridges
      region: NJ
      lat: '40.5205'
      long: "-74.8002"
    - name: Tinton Falls
      region: NJ
      lat: '40.2708'
      long: "-74.0949"
    - name: Titusville
      region: NJ
      lat: '40.3087'
      long: "-74.8767"
    - name: Totowa
      region: NJ
      lat: '40.9039'
      long: "-74.2214"
    - name: Towaco
      region: NJ
      lat: '40.9263'
      long: "-74.3451"
    - name: Trenton
      region: NJ
      lat: '40.2237'
      long: "-74.7641"
    - name: Troy Hills
      region: NJ
      lat: '40.8483'
      long: "-74.3993"
    - name: Tuckahoe
      region: NJ
      lat: '39.2892'
      long: "-74.7497"
    - name: Tuckerton
      region: NJ
      lat: '39.5973'
      long: "-74.3306"
    - name: Turnersville
      region: NJ
      lat: '39.7666'
      long: "-75.0613"
    - name: Twin Rivers
      region: NJ
      lat: '40.2631'
      long: "-74.4917"
    - name: Union
      region: NJ
      lat: '40.6966'
      long: "-74.2693"
    - name: Union Beach
      region: NJ
      lat: '40.4454'
      long: "-74.1699"
    - name: Union City
      region: NJ
      lat: '40.7675'
      long: "-74.0323"
    - name: Upper Greenwood Lake
      region: NJ
      lat: '41.1856'
      long: "-74.3787"
    - name: Upper Montclair
      region: NJ
      lat: '40.8433'
      long: "-74.2006"
    - name: Upper Pohatcong
      region: NJ
      lat: '40.6774'
      long: "-75.1558"
    - name: Upper Saddle River
      region: NJ
      lat: '41.0634'
      long: "-74.0985"
    - name: Upper Stewartsville
      region: NJ
      lat: '40.7048'
      long: "-75.1205"
    - name: Vauxhall
      region: NJ
      lat: '40.7174'
      long: "-74.2838"
    - name: Ventnor City
      region: NJ
      lat: '39.3457'
      long: "-74.4860"
    - name: Vernon Center
      region: NJ
      lat: '41.1874'
      long: "-74.5015"
    - name: Vernon Valley
      region: NJ
      lat: '41.2396'
      long: "-74.4833"
    - name: Victory Gardens
      region: NJ
      lat: '40.8762'
      long: "-74.5435"
    - name: Victory Lakes
      region: NJ
      lat: '39.6305'
      long: "-74.9663"
    - name: Vienna
      region: NJ
      lat: '40.8698'
      long: "-74.8810"
    - name: Villas
      region: NJ
      lat: '39.0157'
      long: "-74.9350"
    - name: Vincentown
      region: NJ
      lat: '39.9367'
      long: "-74.7519"
    - name: Vineland
      region: NJ
      lat: '39.4653'
      long: "-74.9981"
    - name: Vista Center
      region: NJ
      lat: '40.1585'
      long: "-74.3227"
    - name: Waldwick
      region: NJ
      lat: '41.0133'
      long: "-74.1259"
    - name: Wallington
      region: NJ
      lat: '40.8536'
      long: "-74.1069"
    - name: Wanamassa
      region: NJ
      lat: '40.2366'
      long: "-74.0294"
    - name: Wanaque
      region: NJ
      lat: '41.0440'
      long: "-74.2900"
    - name: Waretown
      region: NJ
      lat: '39.7896'
      long: "-74.1926"
    - name: Washington
      region: NJ
      lat: '40.7587'
      long: "-74.9825"
    - name: Washington Crossing
      region: NJ
      lat: '40.2960'
      long: "-74.8615"
    - name: Watchung
      region: NJ
      lat: '40.6431'
      long: "-74.4391"
    - name: Watsessing
      region: NJ
      lat: '40.7866'
      long: "-74.2007"
    - name: Wenonah
      region: NJ
      lat: '39.7913'
      long: "-75.1486"
    - name: West Belmar
      region: NJ
      lat: '40.1707'
      long: "-74.0376"
    - name: West Berlin
      region: NJ
      lat: '39.8104'
      long: "-74.9407"
    - name: West Cape May
      region: NJ
      lat: '38.9423'
      long: "-74.9378"
    - name: West Freehold
      region: NJ
      lat: '40.2324'
      long: "-74.2943"
    - name: West Long Branch
      region: NJ
      lat: '40.2883'
      long: "-74.0185"
    - name: West New York
      region: NJ
      lat: '40.7857'
      long: "-74.0094"
    - name: West Park
      region: NJ
      lat: '39.4400'
      long: "-75.2624"
    - name: West Wildwood
      region: NJ
      lat: '39.0006'
      long: "-74.8233"
    - name: Westfield
      region: NJ
      lat: '40.6516'
      long: "-74.3432"
    - name: Westmont
      region: NJ
      lat: '39.9082'
      long: "-75.0551"
    - name: Weston
      region: NJ
      lat: '40.5224'
      long: "-74.5765"
    - name: Westville
      region: NJ
      lat: '39.8704'
      long: "-75.1302"
    - name: Westwood
      region: NJ
      lat: '40.9878'
      long: "-74.0308"
    - name: Wharton
      region: NJ
      lat: '40.8998'
      long: "-74.5808"
    - name: Whippany
      region: NJ
      lat: '40.8233'
      long: "-74.4184"
    - name: White Horse
      region: NJ
      lat: '40.1919'
      long: "-74.7023"
    - name: White House Station
      region: NJ
      lat: '40.6216'
      long: "-74.7737"
    - name: White Meadow Lake
      region: NJ
      lat: '40.9241'
      long: "-74.5107"
    - name: Whitesboro
      region: NJ
      lat: '39.0419'
      long: "-74.8677"
    - name: Whittingham
      region: NJ
      lat: '40.3268'
      long: "-74.4458"
    - name: Wildwood
      region: NJ
      lat: '38.9881'
      long: "-74.8195"
    - name: Wildwood Crest
      region: NJ
      lat: '38.9718'
      long: "-74.8377"
    - name: William Paterson University of New Jersey
      region: NJ
      lat: '40.9478'
      long: "-74.1989"
    - name: Williamstown
      region: NJ
      lat: '39.6874'
      long: "-74.9786"
    - name: Windsor
      region: NJ
      lat: '40.2465'
      long: "-74.5814"
    - name: Wood-Ridge
      region: NJ
      lat: '40.8508'
      long: "-74.0878"
    - name: Woodbine
      region: NJ
      lat: '39.2283'
      long: "-74.8096"
    - name: Woodbury
      region: NJ
      lat: '39.8379'
      long: "-75.1524"
    - name: Woodbury Heights
      region: NJ
      lat: '39.8160'
      long: "-75.1511"
    - name: Woodcliff Lake
      region: NJ
      lat: '41.0253'
      long: "-74.0604"
    - name: Woodlynne
      region: NJ
      lat: '39.9167'
      long: "-75.0957"
    - name: Woodstown
      region: NJ
      lat: '39.6503'
      long: "-75.3251"
    - name: Wrightstown
      region: NJ
      lat: '40.0258'
      long: "-74.6318"
    - name: Yardville
      region: NJ
      lat: '40.1849'
      long: "-74.6604"
    - name: Yorketown
      region: NJ
      lat: '40.3064'
      long: "-74.3385"
    - name: Zarephath
      region: NJ
      lat: '40.5362'
      long: "-74.5744"
