---
cities:
- country: US
  region: OR
  name: Adair Village
  lat: '44.6706'
  long: "-123.2160"
  closest_rate_centers:
  - name: Albany
    distance:
      value: 10.13
      units: km
  - name: Corvallis
    distance:
      value: 12.0
      units: km
  - name: Jefferson
    distance:
      value: 17.85
      units: km
- country: US
  region: OR
  name: Adams
  lat: '45.7662'
  long: "-118.5643"
  closest_rate_centers:
  - name: Athena
    distance:
      value: 7.58
      units: km
  - name: Helix
    distance:
      value: 12.07
      units: km
  - name: Pendleton
    distance:
      value: 20.43
      units: km
- country: US
  region: OR
  name: Adrian
  lat: '43.7408'
  long: "-117.0709"
  closest_rate_centers:
  - name: Adrian
    distance:
      value: 0.91
      units: km
  - name: Ridgeview
    distance:
      value: 12.01
      units: km
  - name: Nyssa
    distance:
      value: 16.36
      units: km
- country: US
  region: OR
  name: Albany
  lat: '44.6272'
  long: "-123.0965"
  closest_rate_centers:
  - name: Albany
    distance:
      value: 0.66
      units: km
  - name: Jefferson
    distance:
      value: 12.67
      units: km
  - name: Corvallis
    distance:
      value: 14.97
      units: km
- country: US
  region: OR
  name: Aloha
  lat: '45.4920'
  long: "-122.8725"
  closest_rate_centers:
  - name: Beaverton
    distance:
      value: 4.84
      units: km
  - name: Hillsboro
    distance:
      value: 9.19
      units: km
  - name: Tigard
    distance:
      value: 9.87
      units: km
- country: US
  region: OR
  name: Alpine
  lat: '44.3303'
  long: "-123.3628"
  closest_rate_centers:
  - name: Bellfountain
    distance:
      value: 4.39
      units: km
  - name: Monroe
    distance:
      value: 5.36
      units: km
  - name: Harrisburg
    distance:
      value: 16.93
      units: km
- country: US
  region: OR
  name: Alsea
  lat: '44.3815'
  long: "-123.5958"
  closest_rate_centers:
  - name: Alsea
    distance:
      value: 0.16
      units: km
  - name: Lobster Valley
    distance:
      value: 10.65
      units: km
  - name: Harlan
    distance:
      value: 18.21
      units: km
- country: US
  region: OR
  name: Altamont
  lat: '42.1980'
  long: "-121.7248"
  closest_rate_centers:
  - name: Klamath Falls
    distance:
      value: 4.7
      units: km
  - name: Merrill
    distance:
      value: 21.93
      units: km
  - name: Bonanza
    distance:
      value: 25.98
      units: km
- country: US
  region: OR
  name: Amity
  lat: '45.1153'
  long: "-123.2033"
  closest_rate_centers:
  - name: Amity
    distance:
      value: 0.21
      units: km
  - name: McMinnville
    distance:
      value: 10.58
      units: km
  - name: Grand Island
    distance:
      value: 11.8
      units: km
- country: US
  region: OR
  name: Annex
  lat: '44.2346'
  long: "-116.9922"
  closest_rate_centers:
  - name: Oregon Slope
    distance:
      value: 9.81
      units: km
  - name: Ontario
    distance:
      value: 24.39
      units: km
  - name: Huntington
    distance:
      value: 24.89
      units: km
- country: US
  region: OR
  name: Antelope
  lat: '44.9113'
  long: "-120.7236"
  closest_rate_centers:
  - name: Antelope
    distance:
      value: 0.6
      units: km
  - name: Maupin
    distance:
      value: 40.65
      units: km
  - name: Fossil
    distance:
      value: 41.69
      units: km
- country: US
  region: OR
  name: Arlington
  lat: '45.7207'
  long: "-120.1887"
  closest_rate_centers:
  - name: Arlington
    distance:
      value: 0.99
      units: km
  - name: Ione
    distance:
      value: 37.38
      units: km
  - name: Boardman
    distance:
      value: 38.95
      units: km
- country: US
  region: OR
  name: Ashland
  lat: '42.1905'
  long: "-122.6992"
  closest_rate_centers:
  - name: Ashland
    distance:
      value: 1.95
      units: km
  - name: Phoenix
    distance:
      value: 10.66
      units: km
  - name: Medford
    distance:
      value: 21.58
      units: km
- country: US
  region: OR
  name: Astoria
  lat: '46.1856'
  long: "-123.8053"
  closest_rate_centers:
  - name: Astoria
    distance:
      value: 2.65
      units: km
  - name: Warrenton
    distance:
      value: 9.65
      units: km
  - name: Knappa
    distance:
      value: 17.22
      units: km
- country: US
  region: OR
  name: Athena
  lat: '45.8133'
  long: "-118.4926"
  closest_rate_centers:
  - name: Athena
    distance:
      value: 0.57
      units: km
  - name: Helix
    distance:
      value: 13.64
      units: km
  - name: Milton-Freewater
    distance:
      value: 15.44
      units: km
- country: US
  region: OR
  name: Aumsville
  lat: '44.8462'
  long: "-122.8700"
  closest_rate_centers:
  - name: Aumsville-Turner
    distance:
      value: 0.57
      units: km
  - name: Stayton
    distance:
      value: 8.19
      units: km
  - name: Scio
    distance:
      value: 16.26
      units: km
- country: US
  region: OR
  name: Aurora
  lat: '45.2284'
  long: "-122.7573"
  closest_rate_centers:
  - name: Aurora
    distance:
      value: 0.48
      units: km
  - name: Canby-Needy
    distance:
      value: 5.61
      units: km
  - name: Charbonneau
    distance:
      value: 6.61
      units: km
- country: US
  region: OR
  name: Baker City
  lat: '44.7749'
  long: "-117.8320"
  closest_rate_centers:
  - name: Baker
    distance:
      value: 1.2
      units: km
  - name: Haines
    distance:
      value: 17.62
      units: km
  - name: North Powder
    distance:
      value: 28.83
      units: km
- country: US
  region: OR
  name: Bandon
  lat: '43.1141'
  long: "-124.4158"
  closest_rate_centers:
  - name: Bandon
    distance:
      value: 0.6
      units: km
  - name: Coquille
    distance:
      value: 20.25
      units: km
  - name: Langlois
    distance:
      value: 22.23
      units: km
- country: US
  region: OR
  name: Banks
  lat: '45.6150'
  long: "-123.1071"
  closest_rate_centers:
  - name: North Plains
    distance:
      value: 9.29
      units: km
  - name: Forest Grove
    distance:
      value: 11.13
      units: km
  - name: Hillsboro
    distance:
      value: 14.44
      units: km
- country: US
  region: OR
  name: Barlow
  lat: '45.2523'
  long: "-122.7223"
  closest_rate_centers:
  - name: Canby-Needy
    distance:
      value: 1.98
      units: km
  - name: Aurora
    distance:
      value: 3.61
      units: km
  - name: Charbonneau
    distance:
      value: 5.22
      units: km
- country: US
  region: OR
  name: Barnesdale
  lat: '45.6487'
  long: "-123.8545"
  closest_rate_centers:
  - name: Rockaway
    distance:
      value: 7.98
      units: km
  - name: Nehalem
    distance:
      value: 8.17
      units: km
  - name: Garibaldi
    distance:
      value: 11.24
      units: km
- country: US
  region: OR
  name: Barview
  lat: '43.3470'
  long: "-124.3073"
  closest_rate_centers:
  - name: Coos Bay
    distance:
      value: 7.57
      units: km
  - name: Coquille
    distance:
      value: 21.67
      units: km
  - name: Lakeside
    distance:
      value: 27.72
      units: km
- country: US
  region: OR
  name: Bay City
  lat: '45.5216'
  long: "-123.8858"
  closest_rate_centers:
  - name: Bay City
    distance:
      value: 0.48
      units: km
  - name: Garibaldi
    distance:
      value: 4.73
      units: km
  - name: Tillamook
    distance:
      value: 8.66
      units: km
- country: US
  region: OR
  name: Bayshore
  lat: '44.4419'
  long: "-124.0754"
  closest_rate_centers:
  - name: Waldport
    distance:
      value: 1.93
      units: km
  - name: Yachats
    distance:
      value: 14.81
      units: km
  - name: Tidewater
    distance:
      value: 14.93
      units: km
- country: US
  region: OR
  name: Bayside Gardens
  lat: '45.7143'
  long: "-123.9165"
  closest_rate_centers:
  - name: Nehalem
    distance:
      value: 1.44
      units: km
  - name: Rockaway
    distance:
      value: 11.89
      units: km
  - name: Garibaldi
    distance:
      value: 17.4
      units: km
- country: US
  region: OR
  name: Beatty
  lat: '42.4419'
  long: "-121.2716"
  closest_rate_centers:
  - name: Sprague River
    distance:
      value: 18.74
      units: km
  - name: Bly
    distance:
      value: 19.6
      units: km
  - name: Bonanza
    distance:
      value: 29.07
      units: km
- country: US
  region: OR
  name: Beaver
  lat: '45.2781'
  long: "-123.8222"
  closest_rate_centers:
  - name: Beaver
    distance:
      value: 0.18
      units: km
  - name: Cloverdale
    distance:
      value: 10.09
      units: km
  - name: Pacific City
    distance:
      value: 13.13
      units: km
- country: US
  region: OR
  name: Beaver Marsh
  lat: '43.1364'
  long: "-121.8042"
  closest_rate_centers:
  - name: Chemult
    distance:
      value: 9.31
      units: km
  - name: Diamond Lake
    distance:
      value: 26.17
      units: km
  - name: Crater Lake
    distance:
      value: 38.11
      units: km
- country: US
  region: OR
  name: Beavercreek
  lat: '45.2756'
  long: "-122.5136"
  closest_rate_centers:
  - name: Beaver Creek
    distance:
      value: 1.68
      units: km
  - name: Redland
    distance:
      value: 7.12
      units: km
  - name: Oregon City
    distance:
      value: 11.29
      units: km
- country: US
  region: OR
  name: Beaverton
  lat: '45.4779'
  long: "-122.8168"
  closest_rate_centers:
  - name: Beaverton
    distance:
      value: 0.95
      units: km
  - name: Tigard
    distance:
      value: 5.81
      units: km
  - name: Scholls
    distance:
      value: 12.35
      units: km
- country: US
  region: OR
  name: Bellfountain
  lat: '44.3654'
  long: "-123.3559"
  closest_rate_centers:
  - name: Bellfountain
    distance:
      value: 0.55
      units: km
  - name: Monroe
    distance:
      value: 7.13
      units: km
  - name: Harrisburg
    distance:
      value: 18.4
      units: km
- country: US
  region: OR
  name: Bend
  lat: '44.0563'
  long: "-121.3095"
  closest_rate_centers:
  - name: Bend
    distance:
      value: 1.23
      units: km
  - name: Redmond
    distance:
      value: 25.84
      units: km
  - name: Sisters
    distance:
      value: 32.16
      units: km
- country: US
  region: OR
  name: Bethany
  lat: '45.5614'
  long: "-122.8370"
  closest_rate_centers:
  - name: Portland
    distance:
      value: 7.0
      units: km
  - name: Beaverton
    distance:
      value: 8.68
      units: km
  - name: Burlington
    distance:
      value: 9.89
      units: km
- country: US
  region: OR
  name: Biggs Junction
  lat: '45.6640'
  long: "-120.8390"
  closest_rate_centers:
  - name: Rufus
    distance:
      value: 8.95
      units: km
  - name: Wasco
    distance:
      value: 13.64
      units: km
  - name: Moro
    distance:
      value: 21.76
      units: km
- country: US
  region: OR
  name: Black Butte Ranch
  lat: '44.3578'
  long: "-121.6588"
  closest_rate_centers:
  - name: Camp Sherman
    distance:
      value: 2.13
      units: km
  - name: Black Butte
    distance:
      value: 2.13
      units: km
  - name: Sisters
    distance:
      value: 11.78
      units: km
  - name: Three Rivers
    distance:
      value: 33.08
      units: km
- country: US
  region: OR
  name: Blodgett
  lat: '44.5969'
  long: "-123.5211"
  closest_rate_centers:
  - name: Blodgett
    distance:
      value: 0.55
      units: km
  - name: Summit
    distance:
      value: 6.07
      units: km
  - name: Philomath
    distance:
      value: 14.11
      units: km
- country: US
  region: OR
  name: Bly
  lat: '42.3916'
  long: "-121.0435"
  closest_rate_centers:
  - name: Bly
    distance:
      value: 1.17
      units: km
  - name: Bonanza
    distance:
      value: 36.8
      units: km
  - name: Sprague River
    distance:
      value: 38.12
      units: km
- country: US
  region: OR
  name: Boardman
  lat: '45.8378'
  long: "-119.6937"
  closest_rate_centers:
  - name: Boardman
    distance:
      value: 1.61
      units: km
  - name: Umatilla
    distance:
      value: 27.93
      units: km
  - name: Hermiston
    distance:
      value: 32.36
      units: km
- country: US
  region: OR
  name: Bonanza
  lat: '42.2003'
  long: "-121.4066"
  closest_rate_centers:
  - name: Bonanza
    distance:
      value: 0.25
      units: km
  - name: Malin
    distance:
      value: 21.24
      units: km
  - name: Merrill
    distance:
      value: 25.38
      units: km
- country: US
  region: OR
  name: Boring
  lat: '45.4304'
  long: "-122.3716"
  closest_rate_centers:
  - name: Sunnyside
    distance:
      value: 8.83
      units: km
  - name: Gresham
    distance:
      value: 9.33
      units: km
  - name: Redland
    distance:
      value: 13.57
      units: km
- country: US
  region: OR
  name: Brogan
  lat: '44.2475'
  long: "-117.5187"
  closest_rate_centers:
  - name: Huntington
    distance:
      value: 22.49
      units: km
  - name: Vale
    distance:
      value: 36.8
      units: km
  - name: Durkee
    distance:
      value: 37.48
      units: km
- country: US
  region: OR
  name: Brookings
  lat: '42.0697'
  long: "-124.3002"
  closest_rate_centers:
  - name: Brookings
    distance:
      value: 2.9
      units: km
  - name: Gold Beach
    distance:
      value: 38.67
      units: km
  - name: O'Brien
    distance:
      value: 49.44
      units: km
- country: US
  region: OR
  name: Brooks
  lat: '45.0508'
  long: "-122.9575"
  closest_rate_centers:
  - name: Gervais
    distance:
      value: 8.31
      units: km
  - name: Salem
    distance:
      value: 12.0
      units: km
  - name: Grand Island
    distance:
      value: 12.11
      units: km
- country: US
  region: OR
  name: Brownsville
  lat: '44.3922'
  long: "-122.9834"
  closest_rate_centers:
  - name: Brownsville
    distance:
      value: 0.24
      units: km
  - name: Halsey
    distance:
      value: 9.75
      units: km
  - name: Shedd
    distance:
      value: 12.64
      units: km
- country: US
  region: OR
  name: Bull Mountain
  lat: '45.4125'
  long: "-122.8320"
  closest_rate_centers:
  - name: Tigard
    distance:
      value: 4.88
      units: km
  - name: Sherwood
    distance:
      value: 5.92
      units: km
  - name: Scholls
    distance:
      value: 7.83
      units: km
- country: US
  region: OR
  name: Bunker Hill
  lat: '43.3502'
  long: "-124.2082"
  closest_rate_centers:
  - name: Coos Bay
    distance:
      value: 1.05
      units: km
  - name: Coquille
    distance:
      value: 19.57
      units: km
  - name: Lakeside
    distance:
      value: 25.1
      units: km
- country: US
  region: OR
  name: Burns
  lat: '43.5883'
  long: "-119.0612"
  closest_rate_centers:
  - name: Burns
    distance:
      value: 1.07
      units: km
  - name: North Harney
    distance:
      value: 36.31
      units: km
  - name: Seneca
    distance:
      value: 61.16
      units: km
- country: US
  region: OR
  name: Butte Falls
  lat: '42.5414'
  long: "-122.5691"
  closest_rate_centers:
  - name: Butte Falls
    distance:
      value: 0.65
      units: km
  - name: Shady Cove
    distance:
      value: 21.25
      units: km
  - name: Prospect
    distance:
      value: 24.24
      units: km
- country: US
  region: OR
  name: Butteville
  lat: '45.2562'
  long: "-122.8357"
  closest_rate_centers:
  - name: Charbonneau
    distance:
      value: 6.45
      units: km
  - name: Aurora
    distance:
      value: 6.56
      units: km
  - name: Canby-Needy
    distance:
      value: 10.8
      units: km
- country: US
  region: OR
  name: Camp Sherman
  lat: '44.4493'
  long: "-121.6496"
  closest_rate_centers:
  - name: Camp Sherman
    distance:
      value: 8.59
      units: km
  - name: Black Butte
    distance:
      value: 8.59
      units: km
  - name: Sisters
    distance:
      value: 19.41
      units: km
  - name: Three Rivers
    distance:
      value: 27.98
      units: km
- country: US
  region: OR
  name: Canby
  lat: '45.2652'
  long: "-122.6867"
  closest_rate_centers:
  - name: Canby-Needy
    distance:
      value: 1.3
      units: km
  - name: Charbonneau
    distance:
      value: 6.7
      units: km
  - name: Aurora
    distance:
      value: 6.72
      units: km
- country: US
  region: OR
  name: Cannon Beach
  lat: '45.8884'
  long: "-123.9603"
  closest_rate_centers:
  - name: Cannon Beach
    distance:
      value: 0.39
      units: km
  - name: Seaside
    distance:
      value: 11.94
      units: km
  - name: Nehalem
    distance:
      value: 19.81
      units: km
- country: US
  region: OR
  name: Canyon City
  lat: '44.3931'
  long: "-118.9494"
  closest_rate_centers:
  - name: John Day
    distance:
      value: 2.68
      units: km
  - name: Mount Vernon
    distance:
      value: 12.91
      units: km
  - name: Prairie City
    distance:
      value: 20.17
      units: km
- country: US
  region: OR
  name: Canyonville
  lat: '42.9273'
  long: "-123.2789"
  closest_rate_centers:
  - name: Canyonville
    distance:
      value: 0.88
      units: km
  - name: Riddle
    distance:
      value: 7.16
      units: km
  - name: Myrtle Creek
    distance:
      value: 10.78
      units: km
- country: US
  region: OR
  name: Cape Meares
  lat: '45.5153'
  long: "-123.9536"
  closest_rate_centers:
  - name: Garibaldi
    distance:
      value: 5.49
      units: km
  - name: Bay City
    distance:
      value: 5.73
      units: km
  - name: Rockaway
    distance:
      value: 10.43
      units: km
- country: US
  region: OR
  name: Carlton
  lat: '45.2945'
  long: "-123.1753"
  closest_rate_centers:
  - name: Carlton
    distance:
      value: 0.72
      units: km
  - name: Yamhill
    distance:
      value: 5.28
      units: km
  - name: McMinnville
    distance:
      value: 9.47
      units: km
- country: US
  region: OR
  name: Cascade Locks
  lat: '45.6763'
  long: "-121.8719"
  closest_rate_centers:
  - name: Cascade Locks
    distance:
      value: 2.07
      units: km
  - name: Odell
    distance:
      value: 25.73
      units: km
  - name: Hood River
    distance:
      value: 27.17
      units: km
- country: US
  region: OR
  name: Cascadia
  lat: '44.3930'
  long: "-122.5027"
  closest_rate_centers:
  - name: Sweet Home
    distance:
      value: 18.23
      units: km
  - name: Blue River
    distance:
      value: 29.9
      units: km
  - name: Leaburg
    distance:
      value: 34.39
      units: km
- country: US
  region: OR
  name: Cave Junction
  lat: '42.1672'
  long: "-123.6473"
  closest_rate_centers:
  - name: Cave Junction
    distance:
      value: 0.57
      units: km
  - name: Selma
    distance:
      value: 12.32
      units: km
  - name: O'Brien
    distance:
      value: 14.02
      units: km
- country: US
  region: OR
  name: Cayuse
  lat: '45.6765'
  long: "-118.5736"
  closest_rate_centers:
  - name: Athena
    distance:
      value: 16.16
      units: km
  - name: Pendleton
    distance:
      value: 16.42
      units: km
  - name: Helix
    distance:
      value: 20.62
      units: km
- country: US
  region: OR
  name: Cedar Hills
  lat: '45.5047'
  long: "-122.8053"
  closest_rate_centers:
  - name: Beaverton
    distance:
      value: 2.19
      units: km
  - name: Tigard
    distance:
      value: 8.2
      units: km
  - name: Portland
    distance:
      value: 9.96
      units: km
- country: US
  region: OR
  name: Cedar Mill
  lat: '45.5355'
  long: "-122.8006"
  closest_rate_centers:
  - name: Beaverton
    distance:
      value: 5.63
      units: km
  - name: Portland
    distance:
      value: 6.74
      units: km
  - name: Tigard
    distance:
      value: 11.47
      units: km
- country: US
  region: OR
  name: Central Point
  lat: '42.3764'
  long: "-122.9111"
  closest_rate_centers:
  - name: Central Point
    distance:
      value: 0.46
      units: km
  - name: Medford
    distance:
      value: 5.6
      units: km
  - name: White City
    distance:
      value: 8.36
      units: km
- country: US
  region: OR
  name: Chemult
  lat: '43.2150'
  long: "-121.7850"
  closest_rate_centers:
  - name: Chemult
    distance:
      value: 0.47
      units: km
  - name: Diamond Lake
    distance:
      value: 29.2
      units: km
  - name: Gilchrist
    distance:
      value: 30.18
      units: km
- country: US
  region: OR
  name: Chenoweth
  lat: '45.6206'
  long: "-121.2363"
  closest_rate_centers:
  - name: The Dalles
    distance:
      value: 4.61
      units: km
  - name: Mosier
    distance:
      value: 13.86
      units: km
  - name: Dufur
    distance:
      value: 19.65
      units: km
- country: US
  region: OR
  name: Cherry Grove
  lat: '45.4508'
  long: "-123.2482"
  closest_rate_centers:
  - name: Forest Grove
    distance:
      value: 12.54
      units: km
  - name: Yamhill
    distance:
      value: 13.12
      units: km
  - name: Carlton
    distance:
      value: 18.43
      units: km
- country: US
  region: OR
  name: Cheshire
  lat: '44.1901'
  long: "-123.2834"
  closest_rate_centers:
  - name: Junction City
    distance:
      value: 7.26
      units: km
  - name: Harrisburg
    distance:
      value: 12.63
      units: km
  - name: Monroe
    distance:
      value: 14.07
      units: km
- country: US
  region: OR
  name: Chiloquin
  lat: '42.5764'
  long: "-121.8677"
  closest_rate_centers:
  - name: Chiloquin
    distance:
      value: 0.81
      units: km
  - name: Fort Klamath
    distance:
      value: 17.03
      units: km
  - name: Rocky Point
    distance:
      value: 23.5
      units: km
- country: US
  region: OR
  name: Clatskanie
  lat: '46.1047'
  long: "-123.2045"
  closest_rate_centers:
  - name: Clatskanie
    distance:
      value: 0.66
      units: km
  - name: Westport
    distance:
      value: 13.42
      units: km
  - name: Rainier
    distance:
      value: 20.89
      units: km
- country: US
  region: OR
  name: Cloverdale
  lat: '45.2006'
  long: "-123.8842"
  closest_rate_centers:
  - name: Cloverdale
    distance:
      value: 0.31
      units: km
  - name: Pacific City
    distance:
      value: 6.02
      units: km
  - name: Beaver
    distance:
      value: 9.72
      units: km
- country: US
  region: OR
  name: Coburg
  lat: '44.1394'
  long: "-123.0588"
  closest_rate_centers:
  - name: Eugene
    distance:
      value: 10.1
      units: km
  - name: Junction City
    distance:
      value: 14.05
      units: km
  - name: Marcola
    distance:
      value: 16.2
      units: km
- country: US
  region: OR
  name: Columbia City
  lat: '45.8950'
  long: "-122.8116"
  closest_rate_centers:
  - name: St Helens
    distance:
      value: 3.16
      units: km
  - name: Scappoose
    distance:
      value: 16.12
      units: km
  - name: Rainier
    distance:
      value: 22.97
      units: km
- country: US
  region: OR
  name: Condon
  lat: '45.2366'
  long: "-120.1860"
  closest_rate_centers:
  - name: Condon
    distance:
      value: 0.44
      units: km
  - name: Fossil
    distance:
      value: 26.39
      units: km
  - name: Ione
    distance:
      value: 40.7
      units: km
- country: US
  region: OR
  name: Coos Bay
  lat: '43.3789'
  long: "-124.2330"
  closest_rate_centers:
  - name: Coos Bay
    distance:
      value: 2.71
      units: km
  - name: Lakeside
    distance:
      value: 22.35
      units: km
  - name: Coquille
    distance:
      value: 23.03
      units: km
- country: US
  region: OR
  name: Coquille
  lat: '43.1802'
  long: "-124.1841"
  closest_rate_centers:
  - name: Coquille
    distance:
      value: 0.61
      units: km
  - name: Myrtle Point
    distance:
      value: 13.82
      units: km
  - name: Coos Bay
    distance:
      value: 19.96
      units: km
- country: US
  region: OR
  name: Cornelius
  lat: '45.5188'
  long: "-123.0510"
  closest_rate_centers:
  - name: Forest Grove
    distance:
      value: 5.08
      units: km
  - name: Hillsboro
    distance:
      value: 5.16
      units: km
  - name: North Plains
    distance:
      value: 10.16
      units: km
- country: US
  region: OR
  name: Corvallis
  lat: '44.5698'
  long: "-123.2779"
  closest_rate_centers:
  - name: Corvallis
    distance:
      value: 0.87
      units: km
  - name: Philomath
    distance:
      value: 8.16
      units: km
  - name: Albany
    distance:
      value: 15.77
      units: km
- country: US
  region: OR
  name: Cottage Grove
  lat: '43.7960'
  long: "-123.0573"
  closest_rate_centers:
  - name: Cottage Grove
    distance:
      value: 0.71
      units: km
  - name: Creswell
    distance:
      value: 14.05
      units: km
  - name: Lowell
    distance:
      value: 25.62
      units: km
- country: US
  region: OR
  name: Cove
  lat: '45.2964'
  long: "-117.8102"
  closest_rate_centers:
  - name: Cove
    distance:
      value: 0.66
      units: km
  - name: Union
    distance:
      value: 10.8
      units: km
  - name: Imbler
    distance:
      value: 21.56
      units: km
- country: US
  region: OR
  name: Crabtree
  lat: '44.6376'
  long: "-122.9059"
  closest_rate_centers:
  - name: Scio
    distance:
      value: 8.43
      units: km
  - name: Jefferson
    distance:
      value: 11.68
      units: km
  - name: Lebanon
    distance:
      value: 11.79
      units: km
- country: US
  region: OR
  name: Crane
  lat: '43.4179'
  long: "-118.5875"
  closest_rate_centers:
  - name: North Harney
    distance:
      value: 6.44
      units: km
  - name: Burns
    distance:
      value: 41.64
      units: km
  - name: Juntura
    distance:
      value: 54.58
      units: km
- country: US
  region: OR
  name: Crawfordsville
  lat: '44.3561'
  long: "-122.8649"
  closest_rate_centers:
  - name: Brownsville
    distance:
      value: 10.1
      units: km
  - name: Sweet Home
    distance:
      value: 11.2
      units: km
  - name: Halsey
    distance:
      value: 19.36
      units: km
- country: US
  region: OR
  name: Crescent
  lat: '43.4550'
  long: "-121.7013"
  closest_rate_centers:
  - name: Gilchrist
    distance:
      value: 2.72
      units: km
  - name: Chemult
    distance:
      value: 27.09
      units: km
  - name: Lapine
    distance:
      value: 28.06
      units: km
- country: US
  region: OR
  name: Crescent Lake
  lat: '43.5097'
  long: "-121.9354"
  closest_rate_centers:
  - name: Gilchrist
    distance:
      value: 20.51
      units: km
  - name: Chemult
    distance:
      value: 34.68
      units: km
  - name: Lapine
    distance:
      value: 38.48
      units: km
- country: US
  region: OR
  name: Creswell
  lat: '43.9212'
  long: "-123.0160"
  closest_rate_centers:
  - name: Creswell
    distance:
      value: 0.33
      units: km
  - name: Cottage Grove
    distance:
      value: 15.02
      units: km
  - name: Eugene
    distance:
      value: 15.27
      units: km
- country: US
  region: OR
  name: Crooked River Ranch
  lat: '44.4242'
  long: "-121.2757"
  closest_rate_centers:
  - name: Three Rivers
    distance:
      value: 11.4
      units: km
  - name: Culver
    distance:
      value: 12.42
      units: km
  - name: Redmond
    distance:
      value: 19.31
      units: km
- country: US
  region: OR
  name: Culver
  lat: '44.5234'
  long: "-121.2110"
  closest_rate_centers:
  - name: Culver
    distance:
      value: 0.26
      units: km
  - name: Three Rivers
    distance:
      value: 8.05
      units: km
  - name: Madras
    distance:
      value: 14.05
      units: km
- country: US
  region: OR
  name: Dallas
  lat: '44.9221'
  long: "-123.3130"
  closest_rate_centers:
  - name: Dallas
    distance:
      value: 6.36
      units: km
  - name: Falls City
    distance:
      value: 11.13
      units: km
  - name: Sheridan
    distance:
      value: 20.63
      units: km
- country: US
  region: OR
  name: Damascus
  lat: '45.4233'
  long: "-122.4436"
  closest_rate_centers:
  - name: Sunnyside
    distance:
      value: 3.17
      units: km
  - name: Gresham
    distance:
      value: 8.66
      units: km
  - name: Redland
    distance:
      value: 10.21
      units: km
- country: US
  region: OR
  name: Days Creek
  lat: '42.9705'
  long: "-123.1658"
  closest_rate_centers:
  - name: Days Creek
    distance:
      value: 1.0
      units: km
  - name: Canyonville
    distance:
      value: 9.88
      units: km
  - name: Myrtle Creek
    distance:
      value: 10.0
      units: km
- country: US
  region: OR
  name: Dayton
  lat: '45.2198'
  long: "-123.0781"
  closest_rate_centers:
  - name: Dayton
    distance:
      value: 0.45
      units: km
  - name: St Paul
    distance:
      value: 8.06
      units: km
  - name: McMinnville
    distance:
      value: 8.94
      units: km
- country: US
  region: OR
  name: Dayville
  lat: '44.4667'
  long: "-119.5322"
  closest_rate_centers:
  - name: Dayville
    distance:
      value: 0.19
      units: km
  - name: Mount Vernon
    distance:
      value: 34.09
      units: km
  - name: Monument
    distance:
      value: 40.88
      units: km
- country: US
  region: OR
  name: Deer Island
  lat: '45.9330'
  long: "-122.8498"
  closest_rate_centers:
  - name: St Helens
    distance:
      value: 8.12
      units: km
  - name: Rainier
    distance:
      value: 17.92
      units: km
  - name: Scappoose
    distance:
      value: 19.67
      units: km
- country: US
  region: OR
  name: Depoe Bay
  lat: '44.8091'
  long: "-124.0599"
  closest_rate_centers:
  - name: Depoe Bay
    distance:
      value: 0.68
      units: km
  - name: Siletz
    distance:
      value: 15.08
      units: km
  - name: Lincoln City
    distance:
      value: 16.99
      units: km
- country: US
  region: OR
  name: Deschutes River Woods
  lat: '43.9887'
  long: "-121.3608"
  closest_rate_centers:
  - name: Bend
    distance:
      value: 9.79
      units: km
  - name: Redmond
    distance:
      value: 34.39
      units: km
  - name: Sisters
    distance:
      value: 36.76
      units: km
- country: US
  region: OR
  name: Detroit
  lat: '44.7338'
  long: "-122.1513"
  closest_rate_centers:
  - name: Detroit
    distance:
      value: 1.22
      units: km
  - name: Mill City
    distance:
      value: 26.52
      units: km
  - name: Lyons
    distance:
      value: 37.24
      units: km
- country: US
  region: OR
  name: Dexter
  lat: '43.9188'
  long: "-122.8220"
  closest_rate_centers:
  - name: Lowell
    distance:
      value: 3.1
      units: km
  - name: Creswell
    distance:
      value: 15.79
      units: km
  - name: Cottage Grove
    distance:
      value: 23.77
      units: km
- country: US
  region: OR
  name: Dillard
  lat: '43.1082'
  long: "-123.4262"
  closest_rate_centers:
  - name: Roseburg
    distance:
      value: 12.14
      units: km
  - name: Myrtle Creek
    distance:
      value: 16.12
      units: km
  - name: Riddle
    distance:
      value: 18.21
      units: km
- country: US
  region: OR
  name: Dilley
  lat: '45.4917'
  long: "-123.1222"
  closest_rate_centers:
  - name: Forest Grove
    distance:
      value: 2.64
      units: km
  - name: Hillsboro
    distance:
      value: 11.08
      units: km
  - name: North Plains
    distance:
      value: 15.81
      units: km
- country: US
  region: OR
  name: Donald
  lat: '45.2227'
  long: "-122.8389"
  closest_rate_centers:
  - name: Aurora
    distance:
      value: 6.36
      units: km
  - name: Woodburn
    distance:
      value: 9.05
      units: km
  - name: Charbonneau
    distance:
      value: 9.18
      units: km
- country: US
  region: OR
  name: Drain
  lat: '43.6623'
  long: "-123.3143"
  closest_rate_centers:
  - name: Drain
    distance:
      value: 0.6
      units: km
  - name: Yoncalla
    distance:
      value: 8.16
      units: km
  - name: Elkton
    distance:
      value: 20.74
      units: km
- country: US
  region: OR
  name: Dufur
  lat: '45.4531'
  long: "-121.1288"
  closest_rate_centers:
  - name: Dufur
    distance:
      value: 0.8
      units: km
  - name: The Dalles
    distance:
      value: 16.98
      units: km
  - name: Tygh Valley
    distance:
      value: 23.03
      units: km
- country: US
  region: OR
  name: Dundee
  lat: '45.2759'
  long: "-123.0070"
  closest_rate_centers:
  - name: Newberg
    distance:
      value: 3.62
      units: km
  - name: St Paul
    distance:
      value: 7.92
      units: km
  - name: Dayton
    distance:
      value: 8.31
      units: km
- country: US
  region: OR
  name: Dunes City
  lat: '43.9079'
  long: "-124.0985"
  closest_rate_centers:
  - name: Florence
    distance:
      value: 6.37
      units: km
  - name: Reedsport
    distance:
      value: 22.86
      units: km
  - name: Mapleton
    distance:
      value: 24.03
      units: km
- country: US
  region: OR
  name: Dunthorpe
  lat: '45.4417'
  long: "-122.6594"
  closest_rate_centers:
  - name: Lake Oswego
    distance:
      value: 2.66
      units: km
  - name: Clackamas
    distance:
      value: 5.56
      units: km
  - name: Tigard
    distance:
      value: 9.24
      units: km
- country: US
  region: OR
  name: Durham
  lat: '45.3941'
  long: "-122.7580"
  closest_rate_centers:
  - name: Tigard
    distance:
      value: 4.64
      units: km
  - name: Stafford-Sandy
    distance:
      value: 6.54
      units: km
  - name: Lake Oswego
    distance:
      value: 7.56
      units: km
- country: US
  region: OR
  name: Eagle Crest
  lat: '44.2614'
  long: "-121.2995"
  closest_rate_centers:
  - name: Redmond
    distance:
      value: 10.11
      units: km
  - name: Sisters
    distance:
      value: 19.62
      units: km
  - name: Bend
    distance:
      value: 21.72
      units: km
- country: US
  region: OR
  name: Eagle Point
  lat: '42.4677'
  long: "-122.8016"
  closest_rate_centers:
  - name: White City
    distance:
      value: 5.22
      units: km
  - name: Central Point
    distance:
      value: 13.92
      units: km
  - name: Medford
    distance:
      value: 16.3
      units: km
- country: US
  region: OR
  name: Echo
  lat: '45.7431'
  long: "-119.1917"
  closest_rate_centers:
  - name: Echo
    distance:
      value: 0.2
      units: km
  - name: Stanfield
    distance:
      value: 3.83
      units: km
  - name: Hermiston
    distance:
      value: 13.13
      units: km
- country: US
  region: OR
  name: Elgin
  lat: '45.5646'
  long: "-117.9213"
  closest_rate_centers:
  - name: Elgin
    distance:
      value: 0.46
      units: km
  - name: Imbler
    distance:
      value: 12.46
      units: km
  - name: La Grande
    distance:
      value: 28.77
      units: km
- country: US
  region: OR
  name: Elkton
  lat: '43.6378'
  long: "-123.5687"
  closest_rate_centers:
  - name: Elkton
    distance:
      value: 0.29
      units: km
  - name: Scottsburg
    distance:
      value: 18.56
      units: km
  - name: Drain
    distance:
      value: 20.18
      units: km
- country: US
  region: OR
  name: Elmira
  lat: '44.0700'
  long: "-123.3588"
  closest_rate_centers:
  - name: Veneta
    distance:
      value: 2.24
      units: km
  - name: Horton
    distance:
      value: 19.92
      units: km
  - name: Junction City
    distance:
      value: 20.58
      units: km
- country: US
  region: OR
  name: Enterprise
  lat: '45.4258'
  long: "-117.2789"
  closest_rate_centers:
  - name: Enterprise
    distance:
      value: 0.45
      units: km
  - name: Joseph
    distance:
      value: 8.44
      units: km
  - name: Lostine
    distance:
      value: 13.13
      units: km
- country: US
  region: OR
  name: Eola
  lat: '44.9312'
  long: "-123.1202"
  closest_rate_centers:
  - name: Salem
    distance:
      value: 8.53
      units: km
  - name: Dallas
    distance:
      value: 12.01
      units: km
  - name: Amity
    distance:
      value: 21.41
      units: km
- country: US
  region: OR
  name: Estacada
  lat: '45.2986'
  long: "-122.3337"
  closest_rate_centers:
  - name: Estacada
    distance:
      value: 1.92
      units: km
  - name: Redland
    distance:
      value: 12.18
      units: km
  - name: Beaver Creek
    distance:
      value: 15.58
      units: km
- country: US
  region: OR
  name: Eugene
  lat: '44.0564'
  long: "-123.1174"
  closest_rate_centers:
  - name: Eugene
    distance:
      value: 2.91
      units: km
  - name: Creswell
    distance:
      value: 17.15
      units: km
  - name: Veneta
    distance:
      value: 18.62
      units: km
- country: US
  region: OR
  name: Fair Oaks
  lat: '43.4109'
  long: "-123.2194"
  closest_rate_centers:
  - name: Oakland
    distance:
      value: 6.53
      units: km
  - name: Glide
    distance:
      value: 16.09
      units: km
  - name: Yoncalla
    distance:
      value: 20.84
      units: km
- country: US
  region: OR
  name: Fairview
  lat: '45.4583'
  long: "-123.7927"
  closest_rate_centers:
  - name: Tillamook
    distance:
      value: 3.93
      units: km
  - name: Bay City
    distance:
      value: 10.08
      units: km
  - name: Garibaldi
    distance:
      value: 14.74
      units: km
- country: US
  region: OR
  name: Fairview
  lat: '45.5469'
  long: "-122.4390"
  closest_rate_centers:
  - name: Gresham
    distance:
      value: 5.1
      units: km
  - name: Corbett
    distance:
      value: 12.84
      units: km
  - name: Sunnyside
    distance:
      value: 14.34
      units: km
- country: US
  region: OR
  name: Falcon Heights
  lat: '42.1314'
  long: "-121.7566"
  closest_rate_centers:
  - name: Klamath Falls
    distance:
      value: 10.67
      units: km
  - name: Merrill
    distance:
      value: 17.58
      units: km
  - name: Bonanza
    distance:
      value: 29.65
      units: km
- country: US
  region: OR
  name: Falls City
  lat: '44.8648'
  long: "-123.4372"
  closest_rate_centers:
  - name: Falls City
    distance:
      value: 0.55
      units: km
  - name: Dallas
    distance:
      value: 14.42
      units: km
  - name: Willamina
    distance:
      value: 23.64
      units: km
- country: US
  region: OR
  name: Florence
  lat: '43.9916'
  long: "-124.1063"
  closest_rate_centers:
  - name: Florence
    distance:
      value: 3.0
      units: km
  - name: Mapleton
    distance:
      value: 20.59
      units: km
  - name: Deadwood
    distance:
      value: 29.88
      units: km
- country: US
  region: OR
  name: Foots Creek
  lat: '42.3845'
  long: "-123.1408"
  closest_rate_centers:
  - name: Rogue River
    distance:
      value: 5.6
      units: km
  - name: Gold Hill
    distance:
      value: 9.83
      units: km
  - name: Provolt-Murphy
    distance:
      value: 13.07
      units: km
- country: US
  region: OR
  name: Forest Grove
  lat: '45.5243'
  long: "-123.1097"
  closest_rate_centers:
  - name: Forest Grove
    distance:
      value: 1.14
      units: km
  - name: Hillsboro
    distance:
      value: 9.76
      units: km
  - name: North Plains
    distance:
      value: 12.53
      units: km
- country: US
  region: OR
  name: Fort Hill
  lat: '45.0670'
  long: "-123.5605"
  closest_rate_centers:
  - name: Grand Ronde
    distance:
      value: 3.92
      units: km
  - name: Willamina
    distance:
      value: 6.08
      units: km
  - name: Sheridan
    distance:
      value: 13.26
      units: km
- country: US
  region: OR
  name: Fort Klamath
  lat: '42.7048'
  long: "-121.9943"
  closest_rate_centers:
  - name: Fort Klamath
    distance:
      value: 0.65
      units: km
  - name: Chiloquin
    distance:
      value: 18.17
      units: km
  - name: Crater Lake
    distance:
      value: 23.51
      units: km
- country: US
  region: OR
  name: Fossil
  lat: '44.9981'
  long: "-120.2146"
  closest_rate_centers:
  - name: Fossil
    distance:
      value: 0.5
      units: km
  - name: Condon
    distance:
      value: 27.06
      units: km
  - name: Spray
    distance:
      value: 38.37
      units: km
- country: US
  region: OR
  name: Four Corners
  lat: '44.9290'
  long: "-122.9732"
  closest_rate_centers:
  - name: Salem
    distance:
      value: 4.13
      units: km
  - name: Aumsville-Turner
    distance:
      value: 12.85
      units: km
  - name: Silverton
    distance:
      value: 17.29
      units: km
- country: US
  region: OR
  name: Garden Home-Whitford
  lat: '45.4642'
  long: "-122.7588"
  closest_rate_centers:
  - name: Tigard
    distance:
      value: 3.69
      units: km
  - name: Beaverton
    distance:
      value: 4.72
      units: km
  - name: Lake Oswego
    distance:
      value: 8.74
      units: km
- country: US
  region: OR
  name: Gardiner
  lat: '43.7327'
  long: "-124.1068"
  closest_rate_centers:
  - name: Reedsport
    distance:
      value: 3.4
      units: km
  - name: Lakeside
    distance:
      value: 18.28
      units: km
  - name: Florence
    distance:
      value: 25.86
      units: km
- country: US
  region: OR
  name: Garibaldi
  lat: '45.5607'
  long: "-123.9112"
  closest_rate_centers:
  - name: Garibaldi
    distance:
      value: 0.6
      units: km
  - name: Bay City
    distance:
      value: 4.66
      units: km
  - name: Rockaway
    distance:
      value: 5.77
      units: km
- country: US
  region: OR
  name: Gaston
  lat: '45.4348'
  long: "-123.1449"
  closest_rate_centers:
  - name: Forest Grove
    distance:
      value: 9.21
      units: km
  - name: Yamhill
    distance:
      value: 10.84
      units: km
  - name: Hillsboro
    distance:
      value: 15.5
      units: km
- country: US
  region: OR
  name: Gates
  lat: '44.7561'
  long: "-122.4201"
  closest_rate_centers:
  - name: Mill City
    distance:
      value: 5.31
      units: km
  - name: Lyons
    distance:
      value: 15.87
      units: km
  - name: Detroit
    distance:
      value: 20.89
      units: km
- country: US
  region: OR
  name: Gearhart
  lat: '46.0289'
  long: "-123.9173"
  closest_rate_centers:
  - name: Seaside
    distance:
      value: 4.03
      units: km
  - name: Warrenton
    distance:
      value: 15.23
      units: km
  - name: Cannon Beach
    distance:
      value: 15.69
      units: km
- country: US
  region: OR
  name: Gervais
  lat: '45.1081'
  long: "-122.8964"
  closest_rate_centers:
  - name: Gervais
    distance:
      value: 0.57
      units: km
  - name: Woodburn
    distance:
      value: 4.8
      units: km
  - name: Mount Angel
    distance:
      value: 8.7
      units: km
- country: US
  region: OR
  name: Gilchrist
  lat: '43.4770'
  long: "-121.6900"
  closest_rate_centers:
  - name: Gilchrist
    distance:
      value: 0.38
      units: km
  - name: Lapine
    distance:
      value: 25.52
      units: km
  - name: Chemult
    distance:
      value: 29.68
      units: km
- country: US
  region: OR
  name: Gladstone
  lat: '45.3864'
  long: "-122.5934"
  closest_rate_centers:
  - name: Clackamas
    distance:
      value: 3.55
      units: km
  - name: Oregon City
    distance:
      value: 4.06
      units: km
  - name: Lake Oswego
    distance:
      value: 6.81
      units: km
- country: US
  region: OR
  name: Glasgow
  lat: '43.4371'
  long: "-124.1961"
  closest_rate_centers:
  - name: Coos Bay
    distance:
      value: 8.89
      units: km
  - name: Lakeside
    distance:
      value: 15.4
      units: km
  - name: Coquille
    distance:
      value: 29.14
      units: km
- country: US
  region: OR
  name: Glendale
  lat: '42.7381'
  long: "-123.4294"
  closest_rate_centers:
  - name: Glendale
    distance:
      value: 1.4
      units: km
  - name: Wolf Creek
    distance:
      value: 6.1
      units: km
  - name: Azalea
    distance:
      value: 15.65
      units: km
- country: US
  region: OR
  name: Glide
  lat: '43.3029'
  long: "-123.0666"
  closest_rate_centers:
  - name: Glide
    distance:
      value: 1.99
      units: km
  - name: Oakland
    distance:
      value: 22.7
      units: km
  - name: Roseburg
    distance:
      value: 25.4
      units: km
- country: US
  region: OR
  name: Gold Beach
  lat: '42.3974'
  long: "-124.4171"
  closest_rate_centers:
  - name: Gold Beach
    distance:
      value: 1.0
      units: km
  - name: Port Orford
    distance:
      value: 38.72
      units: km
  - name: Brookings
    distance:
      value: 40.29
      units: km
- country: US
  region: OR
  name: Gold Hill
  lat: '42.4358'
  long: "-123.0527"
  closest_rate_centers:
  - name: Gold Hill
    distance:
      value: 1.01
      units: km
  - name: Rogue River
    distance:
      value: 9.27
      units: km
  - name: Central Point
    distance:
      value: 13.02
      units: km
- country: US
  region: OR
  name: Gopher Flats
  lat: '45.6658'
  long: "-118.7225"
  closest_rate_centers:
  - name: Pendleton
    distance:
      value: 4.81
      units: km
  - name: Helix
    distance:
      value: 21.27
      units: km
  - name: Pilot Rock
    distance:
      value: 22.63
      units: km
- country: US
  region: OR
  name: Government Camp
  lat: '45.3022'
  long: "-121.7527"
  closest_rate_centers:
  - name: Government Camp
    distance:
      value: 0.19
      units: km
  - name: Hood Land
    distance:
      value: 16.75
      units: km
  - name: Parkdale
    distance:
      value: 27.19
      units: km
- country: US
  region: OR
  name: Grand Ronde
  lat: '45.0739'
  long: "-123.6211"
  closest_rate_centers:
  - name: Grand Ronde
    distance:
      value: 1.99
      units: km
  - name: Willamina
    distance:
      value: 10.77
      units: km
  - name: Sheridan
    distance:
      value: 17.77
      units: km
- country: US
  region: OR
  name: Granite
  lat: '44.8100'
  long: "-118.4187"
  closest_rate_centers:
  - name: Sumpter
    distance:
      value: 18.65
      units: km
  - name: Granite
    distance:
      value: 18.65
      units: km
  - name: Bates
    distance:
      value: 26.17
      units: km
  - name: Haines
    distance:
      value: 39.84
      units: km
- country: US
  region: OR
  name: Grants Pass
  lat: '42.4333'
  long: "-123.3317"
  closest_rate_centers:
  - name: Grants Pass
    distance:
      value: 1.63
      units: km
  - name: Rogue River
    distance:
      value: 13.64
      units: km
  - name: Provolt-Murphy
    distance:
      value: 18.7
      units: km
- country: US
  region: OR
  name: Grass Valley
  lat: '45.3591'
  long: "-120.7844"
  closest_rate_centers:
  - name: Grass Valley
    distance:
      value: 1.19
      units: km
  - name: Moro
    distance:
      value: 14.28
      units: km
  - name: Wasco
    distance:
      value: 26.49
      units: km
- country: US
  region: OR
  name: Green
  lat: '43.1509'
  long: "-123.3854"
  closest_rate_centers:
  - name: Roseburg
    distance:
      value: 6.37
      units: km
  - name: Myrtle Creek
    distance:
      value: 17.2
      units: km
  - name: Riddle
    distance:
      value: 22.24
      units: km
- country: US
  region: OR
  name: Green Meadows
  lat: '45.6131'
  long: "-118.8000"
  closest_rate_centers:
  - name: Pendleton
    distance:
      value: 5.96
      units: km
  - name: Pilot Rock
    distance:
      value: 15.34
      units: km
  - name: Helix
    distance:
      value: 28.71
      units: km
- country: US
  region: OR
  name: Greenhorn
  lat: '44.7087'
  long: "-118.4968"
  closest_rate_centers:
  - name: Bates
    distance:
      value: 13.93
      units: km
  - name: Granite
    distance:
      value: 23.6
      units: km
  - name: Sumpter
    distance:
      value: 23.6
      units: km
  - name: Prairie City
    distance:
      value: 33.25
      units: km
- country: US
  region: OR
  name: Gresham
  lat: '45.5021'
  long: "-122.4413"
  closest_rate_centers:
  - name: Gresham
    distance:
      value: 0.41
      units: km
  - name: Sunnyside
    distance:
      value: 9.52
      units: km
  - name: Corbett
    distance:
      value: 13.36
      units: km
- country: US
  region: OR
  name: Haines
  lat: '44.9123'
  long: "-117.9396"
  closest_rate_centers:
  - name: Haines
    distance:
      value: 0.46
      units: km
  - name: North Powder
    distance:
      value: 12.58
      units: km
  - name: Baker
    distance:
      value: 16.36
      units: km
- country: US
  region: OR
  name: Halfway
  lat: '44.8781'
  long: "-117.1097"
  closest_rate_centers:
  - name: Halfway
    distance:
      value: 0.57
      units: km
  - name: Richland
    distance:
      value: 13.04
      units: km
  - name: Oxbow
    distance:
      value: 22.54
      units: km
- country: US
  region: OR
  name: Halsey
  lat: '44.3827'
  long: "-123.1110"
  closest_rate_centers:
  - name: Halsey
    distance:
      value: 0.44
      units: km
  - name: Shedd
    distance:
      value: 8.67
      units: km
  - name: Brownsville
    distance:
      value: 10.23
      units: km
- country: US
  region: OR
  name: Happy Valley
  lat: '45.4358'
  long: "-122.5081"
  closest_rate_centers:
  - name: Sunnyside
    distance:
      value: 2.43
      units: km
  - name: Gresham
    distance:
      value: 9.17
      units: km
  - name: Clackamas
    distance:
      value: 11.11
      units: km
- country: US
  region: OR
  name: Harbor
  lat: '42.0385'
  long: "-124.2516"
  closest_rate_centers:
  - name: Brookings
    distance:
      value: 2.45
      units: km
  - name: Gold Beach
    distance:
      value: 43.14
      units: km
  - name: O'Brien
    distance:
      value: 45.39
      units: km
- country: US
  region: OR
  name: Harper
  lat: '43.8570'
  long: "-117.6265"
  closest_rate_centers:
  - name: Harper
    distance:
      value: 2.08
      units: km
  - name: Vale
    distance:
      value: 33.75
      units: km
  - name: Juntura
    distance:
      value: 38.72
      units: km
- country: US
  region: OR
  name: Harrisburg
  lat: '44.2719'
  long: "-123.1656"
  closest_rate_centers:
  - name: Harrisburg
    distance:
      value: 0.45
      units: km
  - name: Junction City
    distance:
      value: 6.83
      units: km
  - name: Monroe
    distance:
      value: 11.66
      units: km
- country: US
  region: OR
  name: Hayesville
  lat: '44.9793'
  long: "-122.9738"
  closest_rate_centers:
  - name: Salem
    distance:
      value: 4.55
      units: km
  - name: Silverton
    distance:
      value: 15.33
      units: km
  - name: Gervais
    distance:
      value: 15.76
      units: km
- country: US
  region: OR
  name: Hebo
  lat: '45.2260'
  long: "-123.8586"
  closest_rate_centers:
  - name: Cloverdale
    distance:
      value: 3.64
      units: km
  - name: Beaver
    distance:
      value: 6.29
      units: km
  - name: Pacific City
    distance:
      value: 8.11
      units: km
- country: US
  region: OR
  name: Heceta Beach
  lat: '44.0248'
  long: "-124.1208"
  closest_rate_centers:
  - name: Florence
    distance:
      value: 6.86
      units: km
  - name: Mapleton
    distance:
      value: 21.19
      units: km
  - name: Deadwood
    distance:
      value: 29.92
      units: km
- country: US
  region: OR
  name: Helix
  lat: '45.8507'
  long: "-118.6591"
  closest_rate_centers:
  - name: Helix
    distance:
      value: 0.15
      units: km
  - name: Athena
    distance:
      value: 14.01
      units: km
  - name: Milton-Freewater
    distance:
      value: 22.55
      units: km
- country: US
  region: OR
  name: Heppner
  lat: '45.3547'
  long: "-119.5560"
  closest_rate_centers:
  - name: Heppner
    distance:
      value: 0.62
      units: km
  - name: Lexington
    distance:
      value: 14.0
      units: km
  - name: Ione
    distance:
      value: 26.56
      units: km
- country: US
  region: OR
  name: Hermiston
  lat: '45.8326'
  long: "-119.2854"
  closest_rate_centers:
  - name: Hermiston
    distance:
      value: 1.6
      units: km
  - name: Stanfield
    distance:
      value: 8.72
      units: km
  - name: Umatilla
    distance:
      value: 10.55
      units: km
- country: US
  region: OR
  name: Hillsboro
  lat: '45.5273'
  long: "-122.9360"
  closest_rate_centers:
  - name: Hillsboro
    distance:
      value: 3.96
      units: km
  - name: North Plains
    distance:
      value: 9.05
      units: km
  - name: Beaverton
    distance:
      value: 10.78
      units: km
- country: US
  region: OR
  name: Hines
  lat: '43.5569'
  long: "-119.0803"
  closest_rate_centers:
  - name: Burns
    distance:
      value: 3.56
      units: km
  - name: North Harney
    distance:
      value: 36.23
      units: km
  - name: Seneca
    distance:
      value: 64.83
      units: km
- country: US
  region: OR
  name: Holley
  lat: '44.3490'
  long: "-122.7855"
  closest_rate_centers:
  - name: Sweet Home
    distance:
      value: 6.2
      units: km
  - name: Brownsville
    distance:
      value: 16.33
      units: km
  - name: Marcola
    distance:
      value: 21.28
      units: km
- country: US
  region: OR
  name: Hood River
  lat: '45.7092'
  long: "-121.5260"
  closest_rate_centers:
  - name: Hood River
    distance:
      value: 0.09
      units: km
  - name: Odell
    distance:
      value: 9.55
      units: km
  - name: Mosier
    distance:
      value: 10.91
      units: km
- country: US
  region: OR
  name: Hubbard
  lat: '45.1819'
  long: "-122.8072"
  closest_rate_centers:
  - name: Woodburn
    distance:
      value: 5.99
      units: km
  - name: Aurora
    distance:
      value: 6.78
      units: km
  - name: Monitor
    distance:
      value: 10.26
      units: km
- country: US
  region: OR
  name: Huntington
  lat: '44.3501'
  long: "-117.2668"
  closest_rate_centers:
  - name: Huntington
    distance:
      value: 1.07
      units: km
  - name: Conner Creek
    distance:
      value: 26.18
      units: km
  - name: Durkee
    distance:
      value: 29.97
      units: km
- country: US
  region: OR
  name: Idanha
  lat: '44.7029'
  long: "-122.0843"
  closest_rate_centers:
  - name: Detroit
    distance:
      value: 6.4
      units: km
  - name: Mill City
    distance:
      value: 32.18
      units: km
  - name: Lyons
    distance:
      value: 43.01
      units: km
- country: US
  region: OR
  name: Idaville
  lat: '45.5098'
  long: "-123.8633"
  closest_rate_centers:
  - name: Bay City
    distance:
      value: 2.14
      units: km
  - name: Garibaldi
    distance:
      value: 6.81
      units: km
  - name: Tillamook
    distance:
      value: 6.85
      units: km
- country: US
  region: OR
  name: Imbler
  lat: '45.4621'
  long: "-117.9632"
  closest_rate_centers:
  - name: Imbler
    distance:
      value: 0.6
      units: km
  - name: Elgin
    distance:
      value: 12.16
      units: km
  - name: La Grande
    distance:
      value: 17.33
      units: km
- country: US
  region: OR
  name: Independence
  lat: '44.8547'
  long: "-123.1952"
  closest_rate_centers:
  - name: Dallas
    distance:
      value: 5.64
      units: km
  - name: Salem
    distance:
      value: 17.74
      units: km
  - name: Falls City
    distance:
      value: 18.72
      units: km
- country: US
  region: OR
  name: Ione
  lat: '45.5029'
  long: "-119.8220"
  closest_rate_centers:
  - name: Ione
    distance:
      value: 0.35
      units: km
  - name: Lexington
    distance:
      value: 12.68
      units: km
  - name: Heppner
    distance:
      value: 25.98
      units: km
- country: US
  region: OR
  name: Irrigon
  lat: '45.8958'
  long: "-119.4883"
  closest_rate_centers:
  - name: Umatilla
    distance:
      value: 10.87
      units: km
  - name: Hermiston
    distance:
      value: 17.35
      units: km
  - name: Boardman
    distance:
      value: 18.73
      units: km
- country: US
  region: OR
  name: Island City
  lat: '45.3358'
  long: "-118.0492"
  closest_rate_centers:
  - name: La Grande
    distance:
      value: 3.41
      units: km
  - name: Imbler
    distance:
      value: 14.98
      units: km
  - name: Cove
    distance:
      value: 18.58
      units: km
- country: US
  region: OR
  name: Jacksonville
  lat: '42.3127'
  long: "-122.9692"
  closest_rate_centers:
  - name: Jacksonville
    distance:
      value: 0.28
      units: km
  - name: Medford
    distance:
      value: 7.81
      units: km
  - name: Central Point
    distance:
      value: 8.23
      units: km
- country: US
  region: OR
  name: Jasper
  lat: '43.9892'
  long: "-122.9100"
  closest_rate_centers:
  - name: Creswell
    distance:
      value: 11.69
      units: km
  - name: Lowell
    distance:
      value: 13.05
      units: km
  - name: Eugene
    distance:
      value: 15.33
      units: km
- country: US
  region: OR
  name: Jeffers Gardens
  lat: '46.1518'
  long: "-123.8520"
  closest_rate_centers:
  - name: Astoria
    distance:
      value: 3.76
      units: km
  - name: Warrenton
    distance:
      value: 6.0
      units: km
  - name: Seaside
    distance:
      value: 18.56
      units: km
- country: US
  region: OR
  name: Jefferson
  lat: '44.7171'
  long: "-123.0068"
  closest_rate_centers:
  - name: Jefferson
    distance:
      value: 0.53
      units: km
  - name: Albany
    distance:
      value: 11.9
      units: km
  - name: Scio
    distance:
      value: 12.75
      units: km
- country: US
  region: OR
  name: Jennings Lodge
  lat: '45.3927'
  long: "-122.6152"
  closest_rate_centers:
  - name: Clackamas
    distance:
      value: 1.75
      units: km
  - name: Oregon City
    distance:
      value: 4.59
      units: km
  - name: Lake Oswego
    distance:
      value: 5.0
      units: km
- country: US
  region: OR
  name: John Day
  lat: '44.4181'
  long: "-118.9563"
  closest_rate_centers:
  - name: John Day
    distance:
      value: 0.75
      units: km
  - name: Mount Vernon
    distance:
      value: 12.07
      units: km
  - name: Prairie City
    distance:
      value: 20.0
      units: km
- country: US
  region: OR
  name: Johnson City
  lat: '45.4046'
  long: "-122.5794"
  closest_rate_centers:
  - name: Clackamas
    distance:
      value: 4.68
      units: km
  - name: Oregon City
    distance:
      value: 6.34
      units: km
  - name: Lake Oswego
    distance:
      value: 7.06
      units: km
- country: US
  region: OR
  name: Jordan Valley
  lat: '42.9793'
  long: "-117.0574"
  closest_rate_centers:
  - name: Jordan Valley
    distance:
      value: 1.53
      units: km
  - name: Ridgeview
    distance:
      value: 72.77
      units: km
  - name: Adrian
    distance:
      value: 83.79
      units: km
- country: US
  region: OR
  name: Joseph
  lat: '45.3525'
  long: "-117.2304"
  closest_rate_centers:
  - name: Joseph
    distance:
      value: 0.55
      units: km
  - name: Enterprise
    distance:
      value: 8.75
      units: km
  - name: Lostine
    distance:
      value: 21.05
      units: km
- country: US
  region: OR
  name: Junction City
  lat: '44.2068'
  long: "-123.2102"
  closest_rate_centers:
  - name: Junction City
    distance:
      value: 1.29
      units: km
  - name: Harrisburg
    distance:
      value: 7.61
      units: km
  - name: Monroe
    distance:
      value: 14.04
      units: km
- country: US
  region: OR
  name: Juniper Canyon
  lat: '44.2027'
  long: "-120.7550"
  closest_rate_centers:
  - name: Prineville
    distance:
      value: 12.91
      units: km
  - name: Redmond
    distance:
      value: 34.05
      units: km
  - name: Bend
    distance:
      value: 46.25
      units: km
- country: US
  region: OR
  name: Juntura
  lat: '43.7487'
  long: "-118.0789"
  closest_rate_centers:
  - name: Juntura
    distance:
      value: 0.48
      units: km
  - name: Harper
    distance:
      value: 40.22
      units: km
  - name: North Harney
    distance:
      value: 58.63
      units: km
- country: US
  region: OR
  name: Keizer
  lat: '45.0028'
  long: "-123.0243"
  closest_rate_centers:
  - name: Salem
    distance:
      value: 5.8
      units: km
  - name: Grand Island
    distance:
      value: 14.89
      units: km
  - name: Gervais
    distance:
      value: 15.78
      units: km
- country: US
  region: OR
  name: Keno
  lat: '42.1309'
  long: "-121.9280"
  closest_rate_centers:
  - name: Klamath Falls
    distance:
      value: 17.09
      units: km
  - name: Merrill
    distance:
      value: 29.52
      units: km
  - name: Fish Lake
    distance:
      value: 36.02
      units: km
- country: US
  region: OR
  name: Kerby
  lat: '42.2045'
  long: "-123.6490"
  closest_rate_centers:
  - name: Cave Junction
    distance:
      value: 4.21
      units: km
  - name: Selma
    distance:
      value: 8.41
      units: km
  - name: O'Brien
    distance:
      value: 17.96
      units: km
- country: US
  region: OR
  name: King City
  lat: '45.4012'
  long: "-122.8069"
  closest_rate_centers:
  - name: Tigard
    distance:
      value: 4.28
      units: km
  - name: Sherwood
    distance:
      value: 5.41
      units: km
  - name: Beaverton
    distance:
      value: 9.37
      units: km
- country: US
  region: OR
  name: Kings Valley
  lat: '44.6985'
  long: "-123.4269"
  closest_rate_centers:
  - name: Blodgett
    distance:
      value: 13.02
      units: km
  - name: Summit
    distance:
      value: 13.81
      units: km
  - name: Falls City
    distance:
      value: 18.85
      units: km
- country: US
  region: OR
  name: Kirkpatrick
  lat: '45.6796'
  long: "-118.6499"
  closest_rate_centers:
  - name: Pendleton
    distance:
      value: 10.57
      units: km
  - name: Athena
    distance:
      value: 19.09
      units: km
  - name: Helix
    distance:
      value: 19.19
      units: km
- country: US
  region: OR
  name: Klamath Falls
  lat: '42.2195'
  long: "-121.7754"
  closest_rate_centers:
  - name: Klamath Falls
    distance:
      value: 1.14
      units: km
  - name: Merrill
    distance:
      value: 26.12
      units: km
  - name: Bonanza
    distance:
      value: 30.21
      units: km
- country: US
  region: OR
  name: Knappa
  lat: '46.1694'
  long: "-123.5822"
  closest_rate_centers:
  - name: Knappa
    distance:
      value: 1.42
      units: km
  - name: Westport
    distance:
      value: 16.56
      units: km
  - name: Astoria
    distance:
      value: 19.9
      units: km
- country: US
  region: OR
  name: La Grande
  lat: '45.3242'
  long: "-118.0865"
  closest_rate_centers:
  - name: La Grande
    distance:
      value: 1.36
      units: km
  - name: Imbler
    distance:
      value: 17.53
      units: km
  - name: Cove
    distance:
      value: 21.24
      units: km
- country: US
  region: OR
  name: La Pine
  lat: '43.6869'
  long: "-121.4853"
  closest_rate_centers:
  - name: Lapine
    distance:
      value: 3.06
      units: km
  - name: Gilchrist
    distance:
      value: 28.4
      units: km
  - name: Bend
    distance:
      value: 44.64
      units: km
- country: US
  region: OR
  name: Labish Village
  lat: '45.0191'
  long: "-122.9736"
  closest_rate_centers:
  - name: Salem
    distance:
      value: 8.26
      units: km
  - name: Gervais
    distance:
      value: 11.89
      units: km
  - name: Grand Island
    distance:
      value: 14.39
      units: km
- country: US
  region: OR
  name: Lacomb
  lat: '44.5844'
  long: "-122.7417"
  closest_rate_centers:
  - name: Lebanon
    distance:
      value: 14.57
      units: km
  - name: Scio
    distance:
      value: 15.41
      units: km
  - name: Sweet Home
    distance:
      value: 21.66
      units: km
- country: US
  region: OR
  name: Lafayette
  lat: '45.2463'
  long: "-123.1115"
  closest_rate_centers:
  - name: Dayton
    distance:
      value: 4.37
      units: km
  - name: McMinnville
    distance:
      value: 7.44
      units: km
  - name: Carlton
    distance:
      value: 7.54
      units: km
- country: US
  region: OR
  name: Lake Oswego
  lat: '45.4129'
  long: "-122.7004"
  closest_rate_centers:
  - name: Lake Oswego
    distance:
      value: 2.63
      units: km
  - name: Clackamas
    distance:
      value: 5.34
      units: km
  - name: Tigard
    distance:
      value: 6.43
      units: km
- country: US
  region: OR
  name: Lakeside
  lat: '43.5795'
  long: "-124.1733"
  closest_rate_centers:
  - name: Lakeside
    distance:
      value: 0.97
      units: km
  - name: Reedsport
    distance:
      value: 14.8
      units: km
  - name: Coos Bay
    distance:
      value: 24.82
      units: km
- country: US
  region: OR
  name: Lakeview
  lat: '42.1919'
  long: "-120.3527"
  closest_rate_centers:
  - name: Lakeview
    distance:
      value: 0.92
      units: km
  - name: Paisley
    distance:
      value: 57.67
      units: km
  - name: Bly
    distance:
      value: 61.08
      units: km
- country: US
  region: OR
  name: Langlois
  lat: '42.9259'
  long: "-124.4532"
  closest_rate_centers:
  - name: Langlois
    distance:
      value: 1.21
      units: km
  - name: Bandon
    distance:
      value: 20.57
      units: km
  - name: Port Orford
    distance:
      value: 20.85
      units: km
- country: US
  region: OR
  name: Lebanon
  lat: '44.5317'
  long: "-122.9071"
  closest_rate_centers:
  - name: Lebanon
    distance:
      value: 0.23
      units: km
  - name: Brownsville
    distance:
      value: 16.85
      units: km
  - name: Shedd
    distance:
      value: 17.96
      units: km
- country: US
  region: OR
  name: Lexington
  lat: '45.4462'
  long: "-119.6879"
  closest_rate_centers:
  - name: Lexington
    distance:
      value: 0.48
      units: km
  - name: Ione
    distance:
      value: 12.31
      units: km
  - name: Heppner
    distance:
      value: 13.92
      units: km
- country: US
  region: OR
  name: Lincoln Beach
  lat: '44.8746'
  long: "-124.0310"
  closest_rate_centers:
  - name: Depoe Bay
    distance:
      value: 7.75
      units: km
  - name: Lincoln City
    distance:
      value: 9.46
      units: km
  - name: Siletz
    distance:
      value: 19.5
      units: km
- country: US
  region: OR
  name: Lincoln City
  lat: '44.9751'
  long: "-124.0072"
  closest_rate_centers:
  - name: Lincoln City
    distance:
      value: 2.02
      units: km
  - name: Depoe Bay
    distance:
      value: 19.07
      units: km
  - name: Pacific City
    distance:
      value: 26.44
      units: km
- country: US
  region: OR
  name: Lonerock
  lat: '45.0887'
  long: "-119.8841"
  closest_rate_centers:
  - name: Fossil
    distance:
      value: 27.35
      units: km
  - name: Condon
    distance:
      value: 29.07
      units: km
  - name: Spray
    distance:
      value: 30.21
      units: km
- country: US
  region: OR
  name: Long Creek
  lat: '44.7142'
  long: "-119.1042"
  closest_rate_centers:
  - name: Long Creek
    distance:
      value: 1.01
      units: km
  - name: Monument
    distance:
      value: 28.05
      units: km
  - name: Mount Vernon
    distance:
      value: 32.96
      units: km
- country: US
  region: OR
  name: Lookingglass
  lat: '43.1848'
  long: "-123.4999"
  closest_rate_centers:
  - name: Roseburg
    distance:
      value: 12.51
      units: km
  - name: Camas Valley
    distance:
      value: 21.72
      units: km
  - name: Myrtle Creek
    distance:
      value: 26.17
      units: km
- country: US
  region: OR
  name: Lostine
  lat: '45.4868'
  long: "-117.4296"
  closest_rate_centers:
  - name: Lostine
    distance:
      value: 0.55
      units: km
  - name: Wallowa
    distance:
      value: 11.37
      units: km
  - name: Enterprise
    distance:
      value: 13.99
      units: km
- country: US
  region: OR
  name: Lowell
  lat: '43.9208'
  long: "-122.7819"
  closest_rate_centers:
  - name: Lowell
    distance:
      value: 0.66
      units: km
  - name: Creswell
    distance:
      value: 19.0
      units: km
  - name: Leaburg
    distance:
      value: 22.64
      units: km
- country: US
  region: OR
  name: Lyons
  lat: '44.7777'
  long: "-122.6098"
  closest_rate_centers:
  - name: Lyons
    distance:
      value: 0.84
      units: km
  - name: Mill City
    distance:
      value: 10.26
      units: km
  - name: Stayton
    distance:
      value: 14.53
      units: km
- country: US
  region: OR
  name: Madras
  lat: '44.6483'
  long: "-121.1390"
  closest_rate_centers:
  - name: Madras
    distance:
      value: 2.07
      units: km
  - name: Culver
    distance:
      value: 14.77
      units: km
  - name: Three Rivers
    distance:
      value: 19.54
      units: km
- country: US
  region: OR
  name: Malin
  lat: '42.0133'
  long: "-121.4096"
  closest_rate_centers:
  - name: Malin
    distance:
      value: 0.45
      units: km
  - name: Merrill
    distance:
      value: 15.85
      units: km
  - name: Bonanza
    distance:
      value: 20.89
      units: km
- country: US
  region: OR
  name: Manzanita
  lat: '45.7165'
  long: "-123.9352"
  closest_rate_centers:
  - name: Nehalem
    distance:
      value: 2.89
      units: km
  - name: Rockaway
    distance:
      value: 12.0
      units: km
  - name: Garibaldi
    distance:
      value: 17.7
      units: km
- country: US
  region: OR
  name: Mapleton
  lat: '44.0325'
  long: "-123.8609"
  closest_rate_centers:
  - name: Mapleton
    distance:
      value: 0.5
      units: km
  - name: Deadwood
    distance:
      value: 10.23
      units: km
  - name: Florence
    distance:
      value: 20.42
      units: km
- country: US
  region: OR
  name: Marcola
  lat: '44.1751'
  long: "-122.8582"
  closest_rate_centers:
  - name: Marcola
    distance:
      value: 1.13
      units: km
  - name: Leaburg
    distance:
      value: 16.51
      units: km
  - name: Eugene
    distance:
      value: 22.64
      units: km
- country: US
  region: OR
  name: Marion
  lat: '44.7513'
  long: "-122.9277"
  closest_rate_centers:
  - name: Jefferson
    distance:
      value: 6.81
      units: km
  - name: Scio
    distance:
      value: 8.48
      units: km
  - name: Aumsville-Turner
    distance:
      value: 11.33
      units: km
- country: US
  region: OR
  name: Marlene Village
  lat: '45.5173'
  long: "-122.8199"
  closest_rate_centers:
  - name: Beaverton
    distance:
      value: 3.61
      units: km
  - name: Portland
    distance:
      value: 9.26
      units: km
  - name: Tigard
    distance:
      value: 9.88
      units: km
- country: US
  region: OR
  name: Maupin
  lat: '45.1732'
  long: "-121.0881"
  closest_rate_centers:
  - name: Maupin
    distance:
      value: 0.37
      units: km
  - name: Tygh Valley
    distance:
      value: 10.97
      units: km
  - name: Wamic
    distance:
      value: 15.02
      units: km
- country: US
  region: OR
  name: Maywood Park
  lat: '45.5524'
  long: "-122.5617"
  closest_rate_centers:
  - name: Gresham
    distance:
      value: 11.32
      units: km
  - name: Portland
    distance:
      value: 15.52
      units: km
  - name: Sunnyside
    distance:
      value: 15.72
      units: km
- country: US
  region: OR
  name: McKay
  lat: '45.4923'
  long: "-118.6842"
  closest_rate_centers:
  - name: Pilot Rock
    distance:
      value: 11.5
      units: km
  - name: Meacham
    distance:
      value: 20.75
      units: km
  - name: Pendleton
    distance:
      value: 20.79
      units: km
- country: US
  region: OR
  name: McMinnville
  lat: '45.2110'
  long: "-123.1918"
  closest_rate_centers:
  - name: McMinnville
    distance:
      value: 0.11
      units: km
  - name: Carlton
    distance:
      value: 8.97
      units: km
  - name: Dayton
    distance:
      value: 9.31
      units: km
- country: US
  region: OR
  name: Meacham
  lat: '45.5231'
  long: "-118.4396"
  closest_rate_centers:
  - name: Meacham
    distance:
      value: 3.12
      units: km
  - name: Pilot Rock
    distance:
      value: 30.86
      units: km
  - name: Pendleton
    distance:
      value: 31.16
      units: km
- country: US
  region: OR
  name: Medford
  lat: '42.3372'
  long: "-122.8540"
  closest_rate_centers:
  - name: Medford
    distance:
      value: 2.04
      units: km
  - name: Central Point
    distance:
      value: 6.7
      units: km
  - name: Jacksonville
    distance:
      value: 9.79
      units: km
- country: US
  region: OR
  name: Mehama
  lat: '44.7914'
  long: "-122.6308"
  closest_rate_centers:
  - name: Lyons
    distance:
      value: 2.08
      units: km
  - name: Mill City
    distance:
      value: 12.35
      units: km
  - name: Stayton
    distance:
      value: 12.71
      units: km
- country: US
  region: OR
  name: Melrose
  lat: '43.2529'
  long: "-123.4574"
  closest_rate_centers:
  - name: Roseburg
    distance:
      value: 10.63
      units: km
  - name: Oakland
    distance:
      value: 22.21
      units: km
  - name: Camas Valley
    distance:
      value: 29.86
      units: km
- country: US
  region: OR
  name: Merlin
  lat: '42.5204'
  long: "-123.4252"
  closest_rate_centers:
  - name: Grants Pass
    distance:
      value: 12.78
      units: km
  - name: Wolf Creek
    distance:
      value: 19.02
      units: km
  - name: Rogue River
    distance:
      value: 23.48
      units: km
- country: US
  region: OR
  name: Merrill
  lat: '42.0260'
  long: "-121.6008"
  closest_rate_centers:
  - name: Merrill
    distance:
      value: 0.29
      units: km
  - name: Malin
    distance:
      value: 15.8
      units: km
  - name: Bonanza
    distance:
      value: 25.07
      units: km
- country: US
  region: OR
  name: Metolius
  lat: '44.5875'
  long: "-121.1760"
  closest_rate_centers:
  - name: Madras
    distance:
      value: 6.58
      units: km
  - name: Culver
    distance:
      value: 7.4
      units: km
  - name: Three Rivers
    distance:
      value: 12.96
      units: km
- country: US
  region: OR
  name: Metzger
  lat: '45.4493'
  long: "-122.7621"
  closest_rate_centers:
  - name: Tigard
    distance:
      value: 2.11
      units: km
  - name: Beaverton
    distance:
      value: 5.55
      units: km
  - name: Lake Oswego
    distance:
      value: 8.13
      units: km
- country: US
  region: OR
  name: Mill City
  lat: '44.7520'
  long: "-122.4777"
  closest_rate_centers:
  - name: Mill City
    distance:
      value: 0.79
      units: km
  - name: Lyons
    distance:
      value: 11.47
      units: km
  - name: Stayton
    distance:
      value: 25.3
      units: km
- country: US
  region: OR
  name: Millersburg
  lat: '44.6779'
  long: "-123.0691"
  closest_rate_centers:
  - name: Albany
    distance:
      value: 5.56
      units: km
  - name: Jefferson
    distance:
      value: 7.05
      units: km
  - name: Scio
    distance:
      value: 17.73
      units: km
- country: US
  region: OR
  name: Milton-Freewater
  lat: '45.9340'
  long: "-118.3909"
  closest_rate_centers:
  - name: Milton-Freewater
    distance:
      value: 0.19
      units: km
  - name: Stateline
    distance:
      value: 6.44
      units: km
  - name: Athena
    distance:
      value: 15.81
      units: km
- country: US
  region: OR
  name: Milwaukie
  lat: '45.4445'
  long: "-122.6219"
  closest_rate_centers:
  - name: Lake Oswego
    distance:
      value: 4.59
      units: km
  - name: Clackamas
    distance:
      value: 5.73
      units: km
  - name: Oregon City
    distance:
      value: 10.37
      units: km
- country: US
  region: OR
  name: Mission
  lat: '45.6586'
  long: "-118.6655"
  closest_rate_centers:
  - name: Pendleton
    distance:
      value: 9.27
      units: km
  - name: Helix
    distance:
      value: 21.51
      units: km
  - name: Athena
    distance:
      value: 21.66
      units: km
- country: US
  region: OR
  name: Mitchell
  lat: '44.5703'
  long: "-120.1537"
  closest_rate_centers:
  - name: Mitchell
    distance:
      value: 0.63
      units: km
  - name: Spray
    distance:
      value: 40.15
      units: km
  - name: Fossil
    distance:
      value: 47.96
      units: km
- country: US
  region: OR
  name: Molalla
  lat: '45.1502'
  long: "-122.5845"
  closest_rate_centers:
  - name: Molalla
    distance:
      value: 0.96
      units: km
  - name: Colton
    distance:
      value: 12.02
      units: km
  - name: Monitor
    distance:
      value: 13.9
      units: km
- country: US
  region: OR
  name: Monmouth
  lat: '44.8505'
  long: "-123.2284"
  closest_rate_centers:
  - name: Dallas
    distance:
      value: 4.09
      units: km
  - name: Falls City
    distance:
      value: 16.16
      units: km
  - name: Salem
    distance:
      value: 20.15
      units: km
- country: US
  region: OR
  name: Monroe
  lat: '44.3168'
  long: "-123.2989"
  closest_rate_centers:
  - name: Monroe
    distance:
      value: 0.08
      units: km
  - name: Bellfountain
    distance:
      value: 7.12
      units: km
  - name: Harrisburg
    distance:
      value: 11.69
      units: km
- country: US
  region: OR
  name: Monument
  lat: '44.8208'
  long: "-119.4209"
  closest_rate_centers:
  - name: Monument
    distance:
      value: 0.59
      units: km
  - name: Long Creek
    distance:
      value: 28.48
      units: km
  - name: Spray
    distance:
      value: 29.37
      units: km
- country: US
  region: OR
  name: Moro
  lat: '45.4837'
  long: "-120.7333"
  closest_rate_centers:
  - name: Moro
    distance:
      value: 0.13
      units: km
  - name: Wasco
    distance:
      value: 12.09
      units: km
  - name: Grass Valley
    distance:
      value: 15.58
      units: km
- country: US
  region: OR
  name: Mosier
  lat: '45.6850'
  long: "-121.3951"
  closest_rate_centers:
  - name: Mosier
    distance:
      value: 0.41
      units: km
  - name: Hood River
    distance:
      value: 10.5
      units: km
  - name: Odell
    distance:
      value: 13.72
      units: km
- country: US
  region: OR
  name: Mount Angel
  lat: '45.0695'
  long: "-122.7972"
  closest_rate_centers:
  - name: Mount Angel
    distance:
      value: 0.51
      units: km
  - name: Monitor
    distance:
      value: 5.21
      units: km
  - name: Silverton
    distance:
      value: 7.09
      units: km
- country: US
  region: OR
  name: Mount Hood
  lat: '45.5339'
  long: "-121.5662"
  closest_rate_centers:
  - name: Parkdale
    distance:
      value: 2.49
      units: km
  - name: Odell
    distance:
      value: 10.2
      units: km
  - name: Hood River
    distance:
      value: 19.83
      units: km
- country: US
  region: OR
  name: Mount Vernon
  lat: '44.4169'
  long: "-119.1132"
  closest_rate_centers:
  - name: Mount Vernon
    distance:
      value: 0.41
      units: km
  - name: John Day
    distance:
      value: 13.21
      units: km
  - name: Long Creek
    distance:
      value: 32.18
      units: km
- country: US
  region: OR
  name: Mulino
  lat: '45.2234'
  long: "-122.5617"
  closest_rate_centers:
  - name: Beaver Creek
    distance:
      value: 7.09
      units: km
  - name: Molalla
    distance:
      value: 8.27
      units: km
  - name: Canby-Needy
    distance:
      value: 11.27
      units: km
- country: US
  region: OR
  name: Myrtle Creek
  lat: '43.0227'
  long: "-123.2812"
  closest_rate_centers:
  - name: Myrtle Creek
    distance:
      value: 1.32
      units: km
  - name: Riddle
    distance:
      value: 10.19
      units: km
  - name: Canyonville
    distance:
      value: 11.03
      units: km
- country: US
  region: OR
  name: Myrtle Point
  lat: '43.0617'
  long: "-124.1327"
  closest_rate_centers:
  - name: Myrtle Point
    distance:
      value: 0.68
      units: km
  - name: Coquille
    distance:
      value: 13.22
      units: km
  - name: Powers
    distance:
      value: 20.76
      units: km
- country: US
  region: OR
  name: Neahkahnie
  lat: '45.7324'
  long: "-123.9399"
  closest_rate_centers:
  - name: Nehalem
    distance:
      value: 3.75
      units: km
  - name: Rockaway
    distance:
      value: 13.76
      units: km
  - name: Cannon Beach
    distance:
      value: 17.61
      units: km
- country: US
  region: OR
  name: Nehalem
  lat: '45.7196'
  long: "-123.8941"
  closest_rate_centers:
  - name: Nehalem
    distance:
      value: 0.54
      units: km
  - name: Rockaway
    distance:
      value: 12.84
      units: km
  - name: Garibaldi
    distance:
      value: 18.09
      units: km
- country: US
  region: OR
  name: Neotsu
  lat: '44.9944'
  long: "-123.9783"
  closest_rate_centers:
  - name: Lincoln City
    distance:
      value: 5.09
      units: km
  - name: Depoe Bay
    distance:
      value: 21.68
      units: km
  - name: Cloverdale
    distance:
      value: 23.85
      units: km
- country: US
  region: OR
  name: Nesika Beach
  lat: '42.5045'
  long: "-124.4065"
  closest_rate_centers:
  - name: Gold Beach
    distance:
      value: 10.95
      units: km
  - name: Port Orford
    distance:
      value: 27.26
      units: km
  - name: Langlois
    distance:
      value: 45.84
      units: km
- country: US
  region: OR
  name: Neskowin
  lat: '45.1208'
  long: "-123.9766"
  closest_rate_centers:
  - name: Pacific City
    distance:
      value: 10.06
      units: km
  - name: Cloverdale
    distance:
      value: 11.31
      units: km
  - name: Lincoln City
    distance:
      value: 18.28
      units: km
- country: US
  region: OR
  name: Netarts
  lat: '45.4356'
  long: "-123.9344"
  closest_rate_centers:
  - name: Tillamook
    distance:
      value: 7.41
      units: km
  - name: Bay City
    distance:
      value: 10.71
      units: km
  - name: Garibaldi
    distance:
      value: 13.65
      units: km
- country: US
  region: OR
  name: New Hope
  lat: '42.3693'
  long: "-123.3590"
  closest_rate_centers:
  - name: Grants Pass
    distance:
      value: 8.68
      units: km
  - name: Provolt-Murphy
    distance:
      value: 14.48
      units: km
  - name: Rogue River
    distance:
      value: 17.32
      units: km
- country: US
  region: OR
  name: New Pine Creek
  lat: '42.0014'
  long: "-120.3043"
  closest_rate_centers:
  - name: Lakeview
    distance:
      value: 21.18
      units: km
  - name: Bly
    distance:
      value: 75.13
      units: km
  - name: Paisley
    distance:
      value: 79.17
      units: km
- country: US
  region: OR
  name: Newberg
  lat: '45.3075'
  long: "-122.9601"
  closest_rate_centers:
  - name: Newberg
    distance:
      value: 1.46
      units: km
  - name: Scholls
    distance:
      value: 10.64
      units: km
  - name: Sherwood
    distance:
      value: 10.81
      units: km
- country: US
  region: OR
  name: Newport
  lat: '44.6242'
  long: "-124.0513"
  closest_rate_centers:
  - name: Newport
    distance:
      value: 1.35
      units: km
  - name: South Beach
    distance:
      value: 2.61
      units: km
  - name: Toledo
    distance:
      value: 9.43
      units: km
- country: US
  region: OR
  name: North Bend
  lat: '43.4075'
  long: "-124.2364"
  closest_rate_centers:
  - name: Coos Bay
    distance:
      value: 5.74
      units: km
  - name: Lakeside
    distance:
      value: 19.37
      units: km
  - name: Coquille
    distance:
      value: 26.21
      units: km
- country: US
  region: OR
  name: North Plains
  lat: '45.5974'
  long: "-122.9948"
  closest_rate_centers:
  - name: North Plains
    distance:
      value: 0.45
      units: km
  - name: Hillsboro
    distance:
      value: 8.93
      units: km
  - name: Forest Grove
    distance:
      value: 13.15
      units: km
- country: US
  region: OR
  name: North Powder
  lat: '45.0300'
  long: "-117.9205"
  closest_rate_centers:
  - name: North Powder
    distance:
      value: 0.8
      units: km
  - name: Haines
    distance:
      value: 12.8
      units: km
  - name: Union
    distance:
      value: 20.23
      units: km
- country: US
  region: OR
  name: Nyssa
  lat: '43.8779'
  long: "-116.9956"
  closest_rate_centers:
  - name: Nyssa
    distance:
      value: 0.14
      units: km
  - name: Ontario
    distance:
      value: 15.69
      units: km
  - name: Adrian
    distance:
      value: 17.17
      units: km
- country: US
  region: OR
  name: O'Brien
  lat: '42.0702'
  long: "-123.7077"
  closest_rate_centers:
  - name: O'Brien
    distance:
      value: 2.53
      units: km
  - name: Cave Junction
    distance:
      value: 12.13
      units: km
  - name: Selma
    distance:
      value: 24.09
      units: km
- country: US
  region: OR
  name: Oak Grove
  lat: '45.4156'
  long: "-122.6349"
  closest_rate_centers:
  - name: Clackamas
    distance:
      value: 2.4
      units: km
  - name: Lake Oswego
    distance:
      value: 2.58
      units: km
  - name: Oregon City
    distance:
      value: 7.39
      units: km
- country: US
  region: OR
  name: Oak Hills
  lat: '45.5405'
  long: "-122.8413"
  closest_rate_centers:
  - name: Beaverton
    distance:
      value: 6.56
      units: km
  - name: Portland
    distance:
      value: 8.48
      units: km
  - name: Hillsboro
    distance:
      value: 11.47
      units: km
- country: US
  region: OR
  name: Oakland
  lat: '43.4233'
  long: "-123.2969"
  closest_rate_centers:
  - name: Oakland
    distance:
      value: 0.79
      units: km
  - name: Yoncalla
    distance:
      value: 18.89
      units: km
  - name: Glide
    distance:
      value: 21.54
      units: km
- country: US
  region: OR
  name: Oakridge
  lat: '43.7451'
  long: "-122.4638"
  closest_rate_centers:
  - name: Oakridge
    distance:
      value: 1.07
      units: km
  - name: Lowell
    distance:
      value: 31.87
      units: km
  - name: Leaburg
    distance:
      value: 43.77
      units: km
- country: US
  region: OR
  name: Oatfield
  lat: '45.4125'
  long: "-122.5940"
  closest_rate_centers:
  - name: Clackamas
    distance:
      value: 3.96
      units: km
  - name: Lake Oswego
    distance:
      value: 5.79
      units: km
  - name: Oregon City
    distance:
      value: 6.88
      units: km
- country: US
  region: OR
  name: Oceanside
  lat: '45.4549'
  long: "-123.9610"
  closest_rate_centers:
  - name: Tillamook
    distance:
      value: 9.32
      units: km
  - name: Bay City
    distance:
      value: 9.92
      units: km
  - name: Garibaldi
    distance:
      value: 11.93
      units: km
- country: US
  region: OR
  name: Ochoco West
  lat: '44.4033'
  long: "-120.9207"
  closest_rate_centers:
  - name: Prineville
    distance:
      value: 13.07
      units: km
  - name: Redmond
    distance:
      value: 25.14
      units: km
  - name: Culver
    distance:
      value: 26.59
      units: km
- country: US
  region: OR
  name: Odell
  lat: '45.6354'
  long: "-121.5522"
  closest_rate_centers:
  - name: Odell
    distance:
      value: 1.2
      units: km
  - name: Hood River
    distance:
      value: 8.54
      units: km
  - name: Parkdale
    distance:
      value: 13.37
      units: km
- country: US
  region: OR
  name: Ontario
  lat: '44.0259'
  long: "-116.9760"
  closest_rate_centers:
  - name: Ontario
    distance:
      value: 1.7
      units: km
  - name: Oregon Slope
    distance:
      value: 14.41
      units: km
  - name: Nyssa
    distance:
      value: 16.61
      units: km
- country: US
  region: OR
  name: Oregon City
  lat: '45.3418'
  long: "-122.5924"
  closest_rate_centers:
  - name: Oregon City
    distance:
      value: 1.72
      units: km
  - name: Clackamas
    distance:
      value: 6.8
      units: km
  - name: Beaver Creek
    distance:
      value: 8.02
      units: km
- country: US
  region: OR
  name: Oregon Shores
  lat: '42.5376'
  long: "-121.9216"
  closest_rate_centers:
  - name: Chiloquin
    distance:
      value: 6.73
      units: km
  - name: Rocky Point
    distance:
      value: 17.41
      units: km
  - name: Fort Klamath
    distance:
      value: 18.87
      units: km
- country: US
  region: OR
  name: Orient
  lat: '45.4691'
  long: "-122.3545"
  closest_rate_centers:
  - name: Gresham
    distance:
      value: 7.29
      units: km
  - name: Corbett
    distance:
      value: 9.38
      units: km
  - name: Sunnyside
    distance:
      value: 11.39
      units: km
- country: US
  region: OR
  name: Pacific City
  lat: '45.2054'
  long: "-123.9536"
  closest_rate_centers:
  - name: Pacific City
    distance:
      value: 0.74
      units: km
  - name: Cloverdale
    distance:
      value: 5.62
      units: km
  - name: Beaver
    distance:
      value: 12.91
      units: km
- country: US
  region: OR
  name: Paisley
  lat: '42.6926'
  long: "-120.5452"
  closest_rate_centers:
  - name: Paisley
    distance:
      value: 0.4
      units: km
  - name: Bly
    distance:
      value: 51.8
      units: km
  - name: Lakeview
    distance:
      value: 58.34
      units: km
- country: US
  region: OR
  name: Parkdale
  lat: '45.5131'
  long: "-121.5921"
  closest_rate_centers:
  - name: Parkdale
    distance:
      value: 0.6
      units: km
  - name: Odell
    distance:
      value: 12.86
      units: km
  - name: Hood River
    distance:
      value: 22.49
      units: km
- country: US
  region: OR
  name: Pendleton
  lat: '45.6757'
  long: "-118.8201"
  closest_rate_centers:
  - name: Pendleton
    distance:
      value: 2.99
      units: km
  - name: Pilot Rock
    distance:
      value: 22.14
      units: km
  - name: Helix
    distance:
      value: 23.22
      units: km
- country: US
  region: OR
  name: Peoria
  lat: '44.4508'
  long: "-123.2043"
  closest_rate_centers:
  - name: Shedd
    distance:
      value: 7.53
      units: km
  - name: Halsey
    distance:
      value: 10.87
      units: km
  - name: Corvallis
    distance:
      value: 14.04
      units: km
- country: US
  region: OR
  name: Philomath
  lat: '44.5423'
  long: "-123.3599"
  closest_rate_centers:
  - name: Philomath
    distance:
      value: 1.16
      units: km
  - name: Corvallis
    distance:
      value: 7.93
      units: km
  - name: Blodgett
    distance:
      value: 13.87
      units: km
- country: US
  region: OR
  name: Phoenix
  lat: '42.2749'
  long: "-122.8154"
  closest_rate_centers:
  - name: Phoenix
    distance:
      value: 3.0
      units: km
  - name: Medford
    distance:
      value: 8.21
      units: km
  - name: Ashland
    distance:
      value: 11.51
      units: km
- country: US
  region: OR
  name: Pilot Rock
  lat: '45.4960'
  long: "-118.8333"
  closest_rate_centers:
  - name: Pilot Rock
    distance:
      value: 2.16
      units: km
  - name: Pendleton
    distance:
      value: 19.24
      units: km
  - name: Meacham
    distance:
      value: 32.36
      units: km
- country: US
  region: OR
  name: Pine Grove
  lat: '45.1135'
  long: "-121.3553"
  closest_rate_centers:
  - name: Pine Grove
    distance:
      value: 1.15
      units: km
  - name: Wamic
    distance:
      value: 14.03
      units: km
  - name: Tygh Valley
    distance:
      value: 20.49
      units: km
- country: US
  region: OR
  name: Pine Hollow
  lat: '45.2420'
  long: "-121.2910"
  closest_rate_centers:
  - name: Wamic
    distance:
      value: 2.87
      units: km
  - name: Tygh Valley
    distance:
      value: 8.88
      units: km
  - name: Pine Grove
    distance:
      value: 16.18
      units: km
- country: US
  region: OR
  name: Pistol River
  lat: '42.2837'
  long: "-124.3992"
  closest_rate_centers:
  - name: Gold Beach
    distance:
      value: 13.72
      units: km
  - name: Brookings
    distance:
      value: 27.85
      units: km
  - name: Port Orford
    distance:
      value: 51.44
      units: km
- country: US
  region: OR
  name: Pleasant Valley
  lat: '45.3761'
  long: "-123.7952"
  closest_rate_centers:
  - name: Tillamook
    distance:
      value: 8.99
      units: km
  - name: Beaver
    distance:
      value: 11.25
      units: km
  - name: Bay City
    distance:
      value: 17.8
      units: km
- country: US
  region: OR
  name: Plush
  lat: '42.4051'
  long: "-119.8993"
  closest_rate_centers:
  - name: Lakeview
    distance:
      value: 43.57
      units: km
  - name: Paisley
    distance:
      value: 61.43
      units: km
  - name: Bly
    distance:
      value: 93.58
      units: km
- country: US
  region: OR
  name: Port Orford
  lat: '42.7497'
  long: "-124.4973"
  closest_rate_centers:
  - name: Port Orford
    distance:
      value: 1.0
      units: km
  - name: Langlois
    distance:
      value: 18.88
      units: km
  - name: Gold Beach
    distance:
      value: 38.73
      units: km
- country: US
  region: OR
  name: Portland
  lat: '45.5371'
  long: "-122.6500"
  closest_rate_centers:
  - name: Portland
    distance:
      value: 9.87
      units: km
  - name: Lake Oswego
    distance:
      value: 13.26
      units: km
  - name: Beaverton
    distance:
      value: 13.81
      units: km
- country: US
  region: OR
  name: Powers
  lat: '42.8859'
  long: "-124.0734"
  closest_rate_centers:
  - name: Powers
    distance:
      value: 1.4
      units: km
  - name: Myrtle Point
    distance:
      value: 20.12
      units: km
  - name: Langlois
    distance:
      value: 30.72
      units: km
- country: US
  region: OR
  name: Prairie City
  lat: '44.4611'
  long: "-118.7094"
  closest_rate_centers:
  - name: Prairie City
    distance:
      value: 1.18
      units: km
  - name: John Day
    distance:
      value: 19.48
      units: km
  - name: Bates
    distance:
      value: 20.88
      units: km
- country: US
  region: OR
  name: Prescott
  lat: '46.0487'
  long: "-122.8879"
  closest_rate_centers:
  - name: Rainier
    distance:
      value: 5.28
      units: km
  - name: St Helens
    distance:
      value: 21.2
      units: km
  - name: Clatskanie
    distance:
      value: 24.64
      units: km
- country: US
  region: OR
  name: Prineville
  lat: '44.2985'
  long: "-120.8607"
  closest_rate_centers:
  - name: Prineville
    distance:
      value: 1.08
      units: km
  - name: Redmond
    distance:
      value: 25.09
      units: km
  - name: Culver
    distance:
      value: 37.43
      units: km
- country: US
  region: OR
  name: Prineville Lake Acres
  lat: '44.1676'
  long: "-120.7889"
  closest_rate_centers:
  - name: Prineville
    distance:
      value: 15.24
      units: km
  - name: Redmond
    distance:
      value: 32.53
      units: km
  - name: Bend
    distance:
      value: 42.51
      units: km
- country: US
  region: OR
  name: Pronghorn
  lat: '44.1881'
  long: "-121.1817"
  closest_rate_centers:
  - name: Redmond
    distance:
      value: 8.8
      units: km
  - name: Bend
    distance:
      value: 16.64
      units: km
  - name: Prineville
    distance:
      value: 29.32
      units: km
- country: US
  region: OR
  name: Prospect
  lat: '42.7526'
  long: "-122.4757"
  closest_rate_centers:
  - name: Prospect
    distance:
      value: 0.52
      units: km
  - name: Butte Falls
    distance:
      value: 24.61
      units: km
  - name: Shady Cove
    distance:
      value: 31.22
      units: km
- country: US
  region: OR
  name: Rainier
  lat: '46.0768'
  long: "-122.9405"
  closest_rate_centers:
  - name: Rainier
    distance:
      value: 0.77
      units: km
  - name: Clatskanie
    distance:
      value: 20.06
      units: km
  - name: St Helens
    distance:
      value: 25.57
      units: km
- country: US
  region: OR
  name: Raleigh Hills
  lat: '45.4851'
  long: "-122.7567"
  closest_rate_centers:
  - name: Beaverton
    distance:
      value: 4.25
      units: km
  - name: Tigard
    distance:
      value: 5.94
      units: km
  - name: Lake Oswego
    distance:
      value: 10.15
      units: km
- country: US
  region: OR
  name: Redmond
  lat: '44.2612'
  long: "-121.1810"
  closest_rate_centers:
  - name: Redmond
    distance:
      value: 0.91
      units: km
  - name: Bend
    distance:
      value: 23.76
      units: km
  - name: Prineville
    distance:
      value: 26.89
      units: km
- country: US
  region: OR
  name: Redwood
  lat: '42.4219'
  long: "-123.3915"
  closest_rate_centers:
  - name: Grants Pass
    distance:
      value: 6.67
      units: km
  - name: Rogue River
    distance:
      value: 18.58
      units: km
  - name: Provolt-Murphy
    distance:
      value: 20.49
      units: km
- country: US
  region: OR
  name: Reedsport
  lat: '43.6983'
  long: "-124.1121"
  closest_rate_centers:
  - name: Reedsport
    distance:
      value: 0.9
      units: km
  - name: Lakeside
    distance:
      value: 14.48
      units: km
  - name: Scottsburg
    distance:
      value: 25.72
      units: km
- country: US
  region: OR
  name: Rhododendron
  lat: '45.3149'
  long: "-121.8887"
  closest_rate_centers:
  - name: Hood Land
    distance:
      value: 6.53
      units: km
  - name: Government Camp
    distance:
      value: 10.75
      units: km
  - name: Parkdale
    distance:
      value: 32.53
      units: km
- country: US
  region: OR
  name: Richland
  lat: '44.7682'
  long: "-117.1669"
  closest_rate_centers:
  - name: Richland
    distance:
      value: 0.16
      units: km
  - name: Halfway
    distance:
      value: 12.53
      units: km
  - name: Conner Creek
    distance:
      value: 22.51
      units: km
- country: US
  region: OR
  name: Rickreall
  lat: '44.9319'
  long: "-123.2344"
  closest_rate_centers:
  - name: Dallas
    distance:
      value: 5.82
      units: km
  - name: Falls City
    distance:
      value: 17.1
      units: km
  - name: Salem
    distance:
      value: 17.36
      units: km
- country: US
  region: OR
  name: Riddle
  lat: '42.9542'
  long: "-123.3644"
  closest_rate_centers:
  - name: Riddle
    distance:
      value: 0.43
      units: km
  - name: Canyonville
    distance:
      value: 8.45
      units: km
  - name: Myrtle Creek
    distance:
      value: 11.19
      units: km
- country: US
  region: OR
  name: River Point
  lat: '46.1434'
  long: "-123.8041"
  closest_rate_centers:
  - name: Astoria
    distance:
      value: 5.34
      units: km
  - name: Warrenton
    distance:
      value: 9.81
      units: km
  - name: Knappa
    distance:
      value: 17.67
      units: km
- country: US
  region: OR
  name: River Road
  lat: '44.0833'
  long: "-123.1320"
  closest_rate_centers:
  - name: Eugene
    distance:
      value: 5.44
      units: km
  - name: Junction City
    distance:
      value: 15.66
      units: km
  - name: Veneta
    distance:
      value: 17.81
      units: km
- country: US
  region: OR
  name: Rivergrove
  lat: '45.3851'
  long: "-122.7330"
  closest_rate_centers:
  - name: Stafford-Sandy
    distance:
      value: 4.81
      units: km
  - name: Lake Oswego
    distance:
      value: 6.31
      units: km
  - name: Tigard
    distance:
      value: 6.41
      units: km
- country: US
  region: OR
  name: Riverside
  lat: '45.6768'
  long: "-118.7368"
  closest_rate_centers:
  - name: Pendleton
    distance:
      value: 3.9
      units: km
  - name: Helix
    distance:
      value: 20.38
      units: km
  - name: Pilot Rock
    distance:
      value: 23.4
      units: km
- country: US
  region: OR
  name: Rockaway Beach
  lat: '45.6186'
  long: "-123.9398"
  closest_rate_centers:
  - name: Rockaway
    distance:
      value: 1.11
      units: km
  - name: Garibaldi
    distance:
      value: 6.98
      units: km
  - name: Nehalem
    distance:
      value: 11.26
      units: km
- country: US
  region: OR
  name: Rockcreek
  lat: '45.5526'
  long: "-122.8760"
  closest_rate_centers:
  - name: Beaverton
    distance:
      value: 9.01
      units: km
  - name: Hillsboro
    distance:
      value: 9.33
      units: km
  - name: Portland
    distance:
      value: 10.17
      units: km
- country: US
  region: OR
  name: Rocky Point
  lat: '42.4482'
  long: "-122.1096"
  closest_rate_centers:
  - name: Rocky Point
    distance:
      value: 0.97
      units: km
  - name: Fish Lake
    distance:
      value: 10.95
      units: km
  - name: Chiloquin
    distance:
      value: 25.04
      units: km
- country: US
  region: OR
  name: Rogue River
  lat: '42.4354'
  long: "-123.1681"
  closest_rate_centers:
  - name: Rogue River
    distance:
      value: 0.49
      units: km
  - name: Gold Hill
    distance:
      value: 10.44
      units: km
  - name: Grants Pass
    distance:
      value: 11.98
      units: km
- country: US
  region: OR
  name: Rose Lodge
  lat: '45.0187'
  long: "-123.8882"
  closest_rate_centers:
  - name: Lincoln City
    distance:
      value: 12.28
      units: km
  - name: Cloverdale
    distance:
      value: 19.94
      units: km
  - name: Pacific City
    distance:
      value: 22.06
      units: km
- country: US
  region: OR
  name: Roseburg
  lat: '43.2231'
  long: "-123.3520"
  closest_rate_centers:
  - name: Roseburg
    distance:
      value: 2.49
      units: km
