---
cities:
  us:
    OR:
    - name: Adair Village
      region: OR
      lat: '44.6706'
      long: "-123.2160"
    - name: Adams
      region: OR
      lat: '45.7662'
      long: "-118.5643"
    - name: Adrian
      region: OR
      lat: '43.7408'
      long: "-117.0709"
    - name: Albany
      region: OR
      lat: '44.6272'
      long: "-123.0965"
    - name: Aloha
      region: OR
      lat: '45.4920'
      long: "-122.8725"
    - name: Alpine
      region: OR
      lat: '44.3303'
      long: "-123.3628"
    - name: Alsea
      region: OR
      lat: '44.3815'
      long: "-123.5958"
    - name: Altamont
      region: OR
      lat: '42.1980'
      long: "-121.7248"
    - name: Amity
      region: OR
      lat: '45.1153'
      long: "-123.2033"
    - name: Annex
      region: OR
      lat: '44.2346'
      long: "-116.9922"
    - name: Antelope
      region: OR
      lat: '44.9113'
      long: "-120.7236"
    - name: Arlington
      region: OR
      lat: '45.7207'
      long: "-120.1887"
    - name: Ashland
      region: OR
      lat: '42.1905'
      long: "-122.6992"
    - name: Astoria
      region: OR
      lat: '46.1856'
      long: "-123.8053"
    - name: Athena
      region: OR
      lat: '45.8133'
      long: "-118.4926"
    - name: Aumsville
      region: OR
      lat: '44.8462'
      long: "-122.8700"
    - name: Aurora
      region: OR
      lat: '45.2284'
      long: "-122.7573"
    - name: Baker City
      region: OR
      lat: '44.7749'
      long: "-117.8320"
    - name: Bandon
      region: OR
      lat: '43.1141'
      long: "-124.4158"
    - name: Banks
      region: OR
      lat: '45.6150'
      long: "-123.1071"
    - name: Barlow
      region: OR
      lat: '45.2523'
      long: "-122.7223"
    - name: Barnesdale
      region: OR
      lat: '45.6487'
      long: "-123.8545"
    - name: Barview
      region: OR
      lat: '43.3470'
      long: "-124.3073"
    - name: Bay City
      region: OR
      lat: '45.5216'
      long: "-123.8858"
    - name: Bayshore
      region: OR
      lat: '44.4419'
      long: "-124.0754"
    - name: Bayside Gardens
      region: OR
      lat: '45.7143'
      long: "-123.9165"
    - name: Beatty
      region: OR
      lat: '42.4419'
      long: "-121.2716"
    - name: Beaver
      region: OR
      lat: '45.2781'
      long: "-123.8222"
    - name: Beaver Marsh
      region: OR
      lat: '43.1364'
      long: "-121.8042"
    - name: Beavercreek
      region: OR
      lat: '45.2756'
      long: "-122.5136"
    - name: Beaverton
      region: OR
      lat: '45.4779'
      long: "-122.8168"
    - name: Bellfountain
      region: OR
      lat: '44.3654'
      long: "-123.3559"
    - name: Bend
      region: OR
      lat: '44.0563'
      long: "-121.3095"
    - name: Bethany
      region: OR
      lat: '45.5614'
      long: "-122.8370"
    - name: Biggs Junction
      region: OR
      lat: '45.6640'
      long: "-120.8390"
    - name: Black Butte Ranch
      region: OR
      lat: '44.3578'
      long: "-121.6588"
    - name: Blodgett
      region: OR
      lat: '44.5969'
      long: "-123.5211"
    - name: Bly
      region: OR
      lat: '42.3916'
      long: "-121.0435"
    - name: Boardman
      region: OR
      lat: '45.8378'
      long: "-119.6937"
    - name: Bonanza
      region: OR
      lat: '42.2003'
      long: "-121.4066"
    - name: Boring
      region: OR
      lat: '45.4304'
      long: "-122.3716"
    - name: Brogan
      region: OR
      lat: '44.2475'
      long: "-117.5187"
    - name: Brookings
      region: OR
      lat: '42.0697'
      long: "-124.3002"
    - name: Brooks
      region: OR
      lat: '45.0508'
      long: "-122.9575"
    - name: Brownsville
      region: OR
      lat: '44.3922'
      long: "-122.9834"
    - name: Bull Mountain
      region: OR
      lat: '45.4125'
      long: "-122.8320"
    - name: Bunker Hill
      region: OR
      lat: '43.3502'
      long: "-124.2082"
    - name: Burns
      region: OR
      lat: '43.5883'
      long: "-119.0612"
    - name: Butte Falls
      region: OR
      lat: '42.5414'
      long: "-122.5691"
    - name: Butteville
      region: OR
      lat: '45.2562'
      long: "-122.8357"
    - name: Camp Sherman
      region: OR
      lat: '44.4493'
      long: "-121.6496"
    - name: Canby
      region: OR
      lat: '45.2652'
      long: "-122.6867"
    - name: Cannon Beach
      region: OR
      lat: '45.8884'
      long: "-123.9603"
    - name: Canyon City
      region: OR
      lat: '44.3931'
      long: "-118.9494"
    - name: Canyonville
      region: OR
      lat: '42.9273'
      long: "-123.2789"
    - name: Cape Meares
      region: OR
      lat: '45.5153'
      long: "-123.9536"
    - name: Carlton
      region: OR
      lat: '45.2945'
      long: "-123.1753"
    - name: Cascade Locks
      region: OR
      lat: '45.6763'
      long: "-121.8719"
    - name: Cascadia
      region: OR
      lat: '44.3930'
      long: "-122.5027"
    - name: Cave Junction
      region: OR
      lat: '42.1672'
      long: "-123.6473"
    - name: Cayuse
      region: OR
      lat: '45.6765'
      long: "-118.5736"
    - name: Cedar Hills
      region: OR
      lat: '45.5047'
      long: "-122.8053"
    - name: Cedar Mill
      region: OR
      lat: '45.5355'
      long: "-122.8006"
    - name: Central Point
      region: OR
      lat: '42.3764'
      long: "-122.9111"
    - name: Chemult
      region: OR
      lat: '43.2150'
      long: "-121.7850"
    - name: Chenoweth
      region: OR
      lat: '45.6206'
      long: "-121.2363"
    - name: Cherry Grove
      region: OR
      lat: '45.4508'
      long: "-123.2482"
    - name: Cheshire
      region: OR
      lat: '44.1901'
      long: "-123.2834"
    - name: Chiloquin
      region: OR
      lat: '42.5764'
      long: "-121.8677"
    - name: Clatskanie
      region: OR
      lat: '46.1047'
      long: "-123.2045"
    - name: Cloverdale
      region: OR
      lat: '45.2006'
      long: "-123.8842"
    - name: Coburg
      region: OR
      lat: '44.1394'
      long: "-123.0588"
    - name: Columbia City
      region: OR
      lat: '45.8950'
      long: "-122.8116"
    - name: Condon
      region: OR
      lat: '45.2366'
      long: "-120.1860"
    - name: Coos Bay
      region: OR
      lat: '43.3789'
      long: "-124.2330"
    - name: Coquille
      region: OR
      lat: '43.1802'
      long: "-124.1841"
    - name: Cornelius
      region: OR
      lat: '45.5188'
      long: "-123.0510"
    - name: Corvallis
      region: OR
      lat: '44.5698'
      long: "-123.2779"
    - name: Cottage Grove
      region: OR
      lat: '43.7960'
      long: "-123.0573"
    - name: Cove
      region: OR
      lat: '45.2964'
      long: "-117.8102"
    - name: Crabtree
      region: OR
      lat: '44.6376'
      long: "-122.9059"
    - name: Crane
      region: OR
      lat: '43.4179'
      long: "-118.5875"
    - name: Crawfordsville
      region: OR
      lat: '44.3561'
      long: "-122.8649"
    - name: Crescent
      region: OR
      lat: '43.4550'
      long: "-121.7013"
    - name: Crescent Lake
      region: OR
      lat: '43.5097'
      long: "-121.9354"
    - name: Creswell
      region: OR
      lat: '43.9212'
      long: "-123.0160"
    - name: Crooked River Ranch
      region: OR
      lat: '44.4242'
      long: "-121.2757"
    - name: Culver
      region: OR
      lat: '44.5234'
      long: "-121.2110"
    - name: Dallas
      region: OR
      lat: '44.9221'
      long: "-123.3130"
    - name: Damascus
      region: OR
      lat: '45.4233'
      long: "-122.4436"
    - name: Days Creek
      region: OR
      lat: '42.9705'
      long: "-123.1658"
    - name: Dayton
      region: OR
      lat: '45.2198'
      long: "-123.0781"
    - name: Dayville
      region: OR
      lat: '44.4667'
      long: "-119.5322"
    - name: Deer Island
      region: OR
      lat: '45.9330'
      long: "-122.8498"
    - name: Depoe Bay
      region: OR
      lat: '44.8091'
      long: "-124.0599"
    - name: Deschutes River Woods
      region: OR
      lat: '43.9887'
      long: "-121.3608"
    - name: Detroit
      region: OR
      lat: '44.7338'
      long: "-122.1513"
    - name: Dexter
      region: OR
      lat: '43.9188'
      long: "-122.8220"
    - name: Dillard
      region: OR
      lat: '43.1082'
      long: "-123.4262"
    - name: Dilley
      region: OR
      lat: '45.4917'
      long: "-123.1222"
    - name: Donald
      region: OR
      lat: '45.2227'
      long: "-122.8389"
    - name: Drain
      region: OR
      lat: '43.6623'
      long: "-123.3143"
    - name: Dufur
      region: OR
      lat: '45.4531'
      long: "-121.1288"
    - name: Dundee
      region: OR
      lat: '45.2759'
      long: "-123.0070"
    - name: Dunes City
      region: OR
      lat: '43.9079'
      long: "-124.0985"
    - name: Dunthorpe
      region: OR
      lat: '45.4417'
      long: "-122.6594"
    - name: Durham
      region: OR
      lat: '45.3941'
      long: "-122.7580"
    - name: Eagle Crest
      region: OR
      lat: '44.2614'
      long: "-121.2995"
    - name: Eagle Point
      region: OR
      lat: '42.4677'
      long: "-122.8016"
    - name: Echo
      region: OR
      lat: '45.7431'
      long: "-119.1917"
    - name: Elgin
      region: OR
      lat: '45.5646'
      long: "-117.9213"
    - name: Elkton
      region: OR
      lat: '43.6378'
      long: "-123.5687"
    - name: Elmira
      region: OR
      lat: '44.0700'
      long: "-123.3588"
    - name: Enterprise
      region: OR
      lat: '45.4258'
      long: "-117.2789"
    - name: Eola
      region: OR
      lat: '44.9312'
      long: "-123.1202"
    - name: Estacada
      region: OR
      lat: '45.2986'
      long: "-122.3337"
    - name: Eugene
      region: OR
      lat: '44.0564'
      long: "-123.1174"
    - name: Fair Oaks
      region: OR
      lat: '43.4109'
      long: "-123.2194"
    - name: Fairview
      region: OR
      lat: '45.4583'
      long: "-123.7927"
    - name: Fairview
      region: OR
      lat: '45.5469'
      long: "-122.4390"
    - name: Falcon Heights
      region: OR
      lat: '42.1314'
      long: "-121.7566"
    - name: Falls City
      region: OR
      lat: '44.8648'
      long: "-123.4372"
    - name: Florence
      region: OR
      lat: '43.9916'
      long: "-124.1063"
    - name: Foots Creek
      region: OR
      lat: '42.3845'
      long: "-123.1408"
    - name: Forest Grove
      region: OR
      lat: '45.5243'
      long: "-123.1097"
    - name: Fort Hill
      region: OR
      lat: '45.0670'
      long: "-123.5605"
    - name: Fort Klamath
      region: OR
      lat: '42.7048'
      long: "-121.9943"
    - name: Fossil
      region: OR
      lat: '44.9981'
      long: "-120.2146"
    - name: Four Corners
      region: OR
      lat: '44.9290'
      long: "-122.9732"
    - name: Garden Home-Whitford
      region: OR
      lat: '45.4642'
      long: "-122.7588"
    - name: Gardiner
      region: OR
      lat: '43.7327'
      long: "-124.1068"
    - name: Garibaldi
      region: OR
      lat: '45.5607'
      long: "-123.9112"
    - name: Gaston
      region: OR
      lat: '45.4348'
      long: "-123.1449"
    - name: Gates
      region: OR
      lat: '44.7561'
      long: "-122.4201"
    - name: Gearhart
      region: OR
      lat: '46.0289'
      long: "-123.9173"
    - name: Gervais
      region: OR
      lat: '45.1081'
      long: "-122.8964"
    - name: Gilchrist
      region: OR
      lat: '43.4770'
      long: "-121.6900"
    - name: Gladstone
      region: OR
      lat: '45.3864'
      long: "-122.5934"
    - name: Glasgow
      region: OR
      lat: '43.4371'
      long: "-124.1961"
    - name: Glendale
      region: OR
      lat: '42.7381'
      long: "-123.4294"
    - name: Glide
      region: OR
      lat: '43.3029'
      long: "-123.0666"
    - name: Gold Beach
      region: OR
      lat: '42.3974'
      long: "-124.4171"
    - name: Gold Hill
      region: OR
      lat: '42.4358'
      long: "-123.0527"
    - name: Gopher Flats
      region: OR
      lat: '45.6658'
      long: "-118.7225"
    - name: Government Camp
      region: OR
      lat: '45.3022'
      long: "-121.7527"
    - name: Grand Ronde
      region: OR
      lat: '45.0739'
      long: "-123.6211"
    - name: Granite
      region: OR
      lat: '44.8100'
      long: "-118.4187"
    - name: Grants Pass
      region: OR
      lat: '42.4333'
      long: "-123.3317"
    - name: Grass Valley
      region: OR
      lat: '45.3591'
      long: "-120.7844"
    - name: Green
      region: OR
      lat: '43.1509'
      long: "-123.3854"
    - name: Green Meadows
      region: OR
      lat: '45.6131'
      long: "-118.8000"
    - name: Greenhorn
      region: OR
      lat: '44.7087'
      long: "-118.4968"
    - name: Gresham
      region: OR
      lat: '45.5021'
      long: "-122.4413"
    - name: Haines
      region: OR
      lat: '44.9123'
      long: "-117.9396"
    - name: Halfway
      region: OR
      lat: '44.8781'
      long: "-117.1097"
    - name: Halsey
      region: OR
      lat: '44.3827'
      long: "-123.1110"
    - name: Happy Valley
      region: OR
      lat: '45.4358'
      long: "-122.5081"
    - name: Harbor
      region: OR
      lat: '42.0385'
      long: "-124.2516"
    - name: Harper
      region: OR
      lat: '43.8570'
      long: "-117.6265"
    - name: Harrisburg
      region: OR
      lat: '44.2719'
      long: "-123.1656"
    - name: Hayesville
      region: OR
      lat: '44.9793'
      long: "-122.9738"
    - name: Hebo
      region: OR
      lat: '45.2260'
      long: "-123.8586"
    - name: Heceta Beach
      region: OR
      lat: '44.0248'
      long: "-124.1208"
    - name: Helix
      region: OR
      lat: '45.8507'
      long: "-118.6591"
    - name: Heppner
      region: OR
      lat: '45.3547'
      long: "-119.5560"
    - name: Hermiston
      region: OR
      lat: '45.8326'
      long: "-119.2854"
    - name: Hillsboro
      region: OR
      lat: '45.5273'
      long: "-122.9360"
    - name: Hines
      region: OR
      lat: '43.5569'
      long: "-119.0803"
    - name: Holley
      region: OR
      lat: '44.3490'
      long: "-122.7855"
    - name: Hood River
      region: OR
      lat: '45.7092'
      long: "-121.5260"
    - name: Hubbard
      region: OR
      lat: '45.1819'
      long: "-122.8072"
    - name: Huntington
      region: OR
      lat: '44.3501'
      long: "-117.2668"
    - name: Idanha
      region: OR
      lat: '44.7029'
      long: "-122.0843"
    - name: Idaville
      region: OR
      lat: '45.5098'
      long: "-123.8633"
    - name: Imbler
      region: OR
      lat: '45.4621'
      long: "-117.9632"
    - name: Independence
      region: OR
      lat: '44.8547'
      long: "-123.1952"
    - name: Ione
      region: OR
      lat: '45.5029'
      long: "-119.8220"
    - name: Irrigon
      region: OR
      lat: '45.8958'
      long: "-119.4883"
    - name: Island City
      region: OR
      lat: '45.3358'
      long: "-118.0492"
    - name: Jacksonville
      region: OR
      lat: '42.3127'
      long: "-122.9692"
    - name: Jasper
      region: OR
      lat: '43.9892'
      long: "-122.9100"
    - name: Jeffers Gardens
      region: OR
      lat: '46.1518'
      long: "-123.8520"
    - name: Jefferson
      region: OR
      lat: '44.7171'
      long: "-123.0068"
    - name: Jennings Lodge
      region: OR
      lat: '45.3927'
      long: "-122.6152"
    - name: John Day
      region: OR
      lat: '44.4181'
      long: "-118.9563"
    - name: Johnson City
      region: OR
      lat: '45.4046'
      long: "-122.5794"
    - name: Jordan Valley
      region: OR
      lat: '42.9793'
      long: "-117.0574"
    - name: Joseph
      region: OR
      lat: '45.3525'
      long: "-117.2304"
    - name: Junction City
      region: OR
      lat: '44.2068'
      long: "-123.2102"
    - name: Juniper Canyon
      region: OR
      lat: '44.2027'
      long: "-120.7550"
    - name: Juntura
      region: OR
      lat: '43.7487'
      long: "-118.0789"
    - name: Keizer
      region: OR
      lat: '45.0028'
      long: "-123.0243"
    - name: Keno
      region: OR
      lat: '42.1309'
      long: "-121.9280"
    - name: Kerby
      region: OR
      lat: '42.2045'
      long: "-123.6490"
    - name: King City
      region: OR
      lat: '45.4012'
      long: "-122.8069"
    - name: Kings Valley
      region: OR
      lat: '44.6985'
      long: "-123.4269"
    - name: Kirkpatrick
      region: OR
      lat: '45.6796'
      long: "-118.6499"
    - name: Klamath Falls
      region: OR
      lat: '42.2195'
      long: "-121.7754"
    - name: Knappa
      region: OR
      lat: '46.1694'
      long: "-123.5822"
    - name: La Grande
      region: OR
      lat: '45.3242'
      long: "-118.0865"
    - name: La Pine
      region: OR
      lat: '43.6869'
      long: "-121.4853"
    - name: Labish Village
      region: OR
      lat: '45.0191'
      long: "-122.9736"
    - name: Lacomb
      region: OR
      lat: '44.5844'
      long: "-122.7417"
    - name: Lafayette
      region: OR
      lat: '45.2463'
      long: "-123.1115"
    - name: Lake Oswego
      region: OR
      lat: '45.4129'
      long: "-122.7004"
    - name: Lakeside
      region: OR
      lat: '43.5795'
      long: "-124.1733"
    - name: Lakeview
      region: OR
      lat: '42.1919'
      long: "-120.3527"
    - name: Langlois
      region: OR
      lat: '42.9259'
      long: "-124.4532"
    - name: Lebanon
      region: OR
      lat: '44.5317'
      long: "-122.9071"
    - name: Lexington
      region: OR
      lat: '45.4462'
      long: "-119.6879"
    - name: Lincoln Beach
      region: OR
      lat: '44.8746'
      long: "-124.0310"
    - name: Lincoln City
      region: OR
      lat: '44.9751'
      long: "-124.0072"
    - name: Lonerock
      region: OR
      lat: '45.0887'
      long: "-119.8841"
    - name: Long Creek
      region: OR
      lat: '44.7142'
      long: "-119.1042"
    - name: Lookingglass
      region: OR
      lat: '43.1848'
      long: "-123.4999"
    - name: Lostine
      region: OR
      lat: '45.4868'
      long: "-117.4296"
    - name: Lowell
      region: OR
      lat: '43.9208'
      long: "-122.7819"
    - name: Lyons
      region: OR
      lat: '44.7777'
      long: "-122.6098"
    - name: Madras
      region: OR
      lat: '44.6483'
      long: "-121.1390"
    - name: Malin
      region: OR
      lat: '42.0133'
      long: "-121.4096"
    - name: Manzanita
      region: OR
      lat: '45.7165'
      long: "-123.9352"
    - name: Mapleton
      region: OR
      lat: '44.0325'
      long: "-123.8609"
    - name: Marcola
      region: OR
      lat: '44.1751'
      long: "-122.8582"
    - name: Marion
      region: OR
      lat: '44.7513'
      long: "-122.9277"
    - name: Marlene Village
      region: OR
      lat: '45.5173'
      long: "-122.8199"
    - name: Maupin
      region: OR
      lat: '45.1732'
      long: "-121.0881"
    - name: Maywood Park
      region: OR
      lat: '45.5524'
      long: "-122.5617"
    - name: McKay
      region: OR
      lat: '45.4923'
      long: "-118.6842"
    - name: McMinnville
      region: OR
      lat: '45.2110'
      long: "-123.1918"
    - name: Meacham
      region: OR
      lat: '45.5231'
      long: "-118.4396"
    - name: Medford
      region: OR
      lat: '42.3372'
      long: "-122.8540"
    - name: Mehama
      region: OR
      lat: '44.7914'
      long: "-122.6308"
    - name: Melrose
      region: OR
      lat: '43.2529'
      long: "-123.4574"
    - name: Merlin
      region: OR
      lat: '42.5204'
      long: "-123.4252"
    - name: Merrill
      region: OR
      lat: '42.0260'
      long: "-121.6008"
    - name: Metolius
      region: OR
      lat: '44.5875'
      long: "-121.1760"
    - name: Metzger
      region: OR
      lat: '45.4493'
      long: "-122.7621"
    - name: Mill City
      region: OR
      lat: '44.7520'
      long: "-122.4777"
    - name: Millersburg
      region: OR
      lat: '44.6779'
      long: "-123.0691"
    - name: Milton-Freewater
      region: OR
      lat: '45.9340'
      long: "-118.3909"
    - name: Milwaukie
      region: OR
      lat: '45.4445'
      long: "-122.6219"
    - name: Mission
      region: OR
      lat: '45.6586'
      long: "-118.6655"
    - name: Mitchell
      region: OR
      lat: '44.5703'
      long: "-120.1537"
    - name: Molalla
      region: OR
      lat: '45.1502'
      long: "-122.5845"
    - name: Monmouth
      region: OR
      lat: '44.8505'
      long: "-123.2284"
    - name: Monroe
      region: OR
      lat: '44.3168'
      long: "-123.2989"
    - name: Monument
      region: OR
      lat: '44.8208'
      long: "-119.4209"
    - name: Moro
      region: OR
      lat: '45.4837'
      long: "-120.7333"
    - name: Mosier
      region: OR
      lat: '45.6850'
      long: "-121.3951"
    - name: Mount Angel
      region: OR
      lat: '45.0695'
      long: "-122.7972"
    - name: Mount Hood
      region: OR
      lat: '45.5339'
      long: "-121.5662"
    - name: Mount Vernon
      region: OR
      lat: '44.4169'
      long: "-119.1132"
    - name: Mulino
      region: OR
      lat: '45.2234'
      long: "-122.5617"
    - name: Myrtle Creek
      region: OR
      lat: '43.0227'
      long: "-123.2812"
    - name: Myrtle Point
      region: OR
      lat: '43.0617'
      long: "-124.1327"
    - name: Neahkahnie
      region: OR
      lat: '45.7324'
      long: "-123.9399"
    - name: Nehalem
      region: OR
      lat: '45.7196'
      long: "-123.8941"
    - name: Neotsu
      region: OR
      lat: '44.9944'
      long: "-123.9783"
    - name: Nesika Beach
      region: OR
      lat: '42.5045'
      long: "-124.4065"
    - name: Neskowin
      region: OR
      lat: '45.1208'
      long: "-123.9766"
    - name: Netarts
      region: OR
      lat: '45.4356'
      long: "-123.9344"
    - name: New Hope
      region: OR
      lat: '42.3693'
      long: "-123.3590"
    - name: New Pine Creek
      region: OR
      lat: '42.0014'
      long: "-120.3043"
    - name: Newberg
      region: OR
      lat: '45.3075'
      long: "-122.9601"
    - name: Newport
      region: OR
      lat: '44.6242'
      long: "-124.0513"
    - name: North Bend
      region: OR
      lat: '43.4075'
      long: "-124.2364"
    - name: North Plains
      region: OR
      lat: '45.5974'
      long: "-122.9948"
    - name: North Powder
      region: OR
      lat: '45.0300'
      long: "-117.9205"
    - name: Nyssa
      region: OR
      lat: '43.8779'
      long: "-116.9956"
    - name: O'Brien
      region: OR
      lat: '42.0702'
      long: "-123.7077"
    - name: Oak Grove
      region: OR
      lat: '45.4156'
      long: "-122.6349"
    - name: Oak Hills
      region: OR
      lat: '45.5405'
      long: "-122.8413"
    - name: Oakland
      region: OR
      lat: '43.4233'
      long: "-123.2969"
    - name: Oakridge
      region: OR
      lat: '43.7451'
      long: "-122.4638"
    - name: Oatfield
      region: OR
      lat: '45.4125'
      long: "-122.5940"
    - name: Oceanside
      region: OR
      lat: '45.4549'
      long: "-123.9610"
    - name: Ochoco West
      region: OR
      lat: '44.4033'
      long: "-120.9207"
    - name: Odell
      region: OR
      lat: '45.6354'
      long: "-121.5522"
    - name: Ontario
      region: OR
      lat: '44.0259'
      long: "-116.9760"
    - name: Oregon City
      region: OR
      lat: '45.3418'
      long: "-122.5924"
    - name: Oregon Shores
      region: OR
      lat: '42.5376'
      long: "-121.9216"
    - name: Orient
      region: OR
      lat: '45.4691'
      long: "-122.3545"
    - name: Pacific City
      region: OR
      lat: '45.2054'
      long: "-123.9536"
    - name: Paisley
      region: OR
      lat: '42.6926'
      long: "-120.5452"
    - name: Parkdale
      region: OR
      lat: '45.5131'
      long: "-121.5921"
    - name: Pendleton
      region: OR
      lat: '45.6757'
      long: "-118.8201"
    - name: Peoria
      region: OR
      lat: '44.4508'
      long: "-123.2043"
    - name: Philomath
      region: OR
      lat: '44.5423'
      long: "-123.3599"
    - name: Phoenix
      region: OR
      lat: '42.2749'
      long: "-122.8154"
    - name: Pilot Rock
      region: OR
      lat: '45.4960'
      long: "-118.8333"
    - name: Pine Grove
      region: OR
      lat: '45.1135'
      long: "-121.3553"
    - name: Pine Hollow
      region: OR
      lat: '45.2420'
      long: "-121.2910"
    - name: Pistol River
      region: OR
      lat: '42.2837'
      long: "-124.3992"
    - name: Pleasant Valley
      region: OR
      lat: '45.3761'
      long: "-123.7952"
    - name: Plush
      region: OR
      lat: '42.4051'
      long: "-119.8993"
    - name: Port Orford
      region: OR
      lat: '42.7497'
      long: "-124.4973"
    - name: Portland
      region: OR
      lat: '45.5371'
      long: "-122.6500"
    - name: Powers
      region: OR
      lat: '42.8859'
      long: "-124.0734"
    - name: Prairie City
      region: OR
      lat: '44.4611'
      long: "-118.7094"
    - name: Prescott
      region: OR
      lat: '46.0487'
      long: "-122.8879"
    - name: Prineville
      region: OR
      lat: '44.2985'
      long: "-120.8607"
    - name: Prineville Lake Acres
      region: OR
      lat: '44.1676'
      long: "-120.7889"
    - name: Pronghorn
      region: OR
      lat: '44.1881'
      long: "-121.1817"
    - name: Prospect
      region: OR
      lat: '42.7526'
      long: "-122.4757"
    - name: Rainier
      region: OR
      lat: '46.0768'
      long: "-122.9405"
    - name: Raleigh Hills
      region: OR
      lat: '45.4851'
      long: "-122.7567"
    - name: Redmond
      region: OR
      lat: '44.2612'
      long: "-121.1810"
    - name: Redwood
      region: OR
      lat: '42.4219'
      long: "-123.3915"
    - name: Reedsport
      region: OR
      lat: '43.6983'
      long: "-124.1121"
    - name: Rhododendron
      region: OR
      lat: '45.3149'
      long: "-121.8887"
    - name: Richland
      region: OR
      lat: '44.7682'
      long: "-117.1669"
    - name: Rickreall
      region: OR
      lat: '44.9319'
      long: "-123.2344"
    - name: Riddle
      region: OR
      lat: '42.9542'
      long: "-123.3644"
    - name: River Point
      region: OR
      lat: '46.1434'
      long: "-123.8041"
    - name: River Road
      region: OR
      lat: '44.0833'
      long: "-123.1320"
    - name: Rivergrove
      region: OR
      lat: '45.3851'
      long: "-122.7330"
    - name: Riverside
      region: OR
      lat: '45.6768'
      long: "-118.7368"
    - name: Rockaway Beach
      region: OR
      lat: '45.6186'
      long: "-123.9398"
    - name: Rockcreek
      region: OR
      lat: '45.5526'
      long: "-122.8760"
    - name: Rocky Point
      region: OR
      lat: '42.4482'
      long: "-122.1096"
    - name: Rogue River
      region: OR
      lat: '42.4354'
      long: "-123.1681"
    - name: Rose Lodge
      region: OR
      lat: '45.0187'
      long: "-123.8882"
    - name: Roseburg
      region: OR
      lat: '43.2231'
      long: "-123.3520"
    - name: Roseburg North
      region: OR
      lat: '43.2662'
      long: "-123.3477"
    - name: Rowena
      region: OR
      lat: '45.6701'
      long: "-121.2749"
    - name: Ruch
      region: OR
      lat: '42.2314'
      long: "-123.0403"
    - name: Rufus
      region: OR
      lat: '45.6919'
      long: "-120.7434"
    - name: Running Y Ranch
      region: OR
      lat: '42.2751'
      long: "-121.8747"
    - name: Salem
      region: OR
      lat: '44.9233'
      long: "-123.0244"
    - name: San Marine
      region: OR
      lat: '44.3533'
      long: "-124.0904"
    - name: Sandy
      region: OR
      lat: '45.3988'
      long: "-122.2697"
    - name: Santa Clara
      region: OR
      lat: '44.1154'
      long: "-123.1344"
    - name: Saunders Lake
      region: OR
      lat: '43.5214'
      long: "-124.2110"
    - name: Scappoose
      region: OR
      lat: '45.7582'
      long: "-122.8730"
    - name: Scio
      region: OR
      lat: '44.7046'
      long: "-122.8508"
    - name: Scotts Mills
      region: OR
      lat: '45.0410'
      long: "-122.6689"
    - name: Seaside
      region: OR
      lat: '45.9889'
      long: "-123.9214"
    - name: Selma
      region: OR
      lat: '42.2797'
      long: "-123.6151"
    - name: Seneca
      region: OR
      lat: '44.1352'
      long: "-118.9763"
    - name: Seventh Mountain
      region: OR
      lat: '44.0050'
      long: "-121.3825"
    - name: Shady Cove
      region: OR
      lat: '42.6117'
      long: "-122.8179"
    - name: Shaniko
      region: OR
      lat: '45.0037'
      long: "-120.7522"
    - name: Shedd
      region: OR
      lat: '44.4579'
      long: "-123.1119"
    - name: Sheridan
      region: OR
      lat: '45.0960'
      long: "-123.3983"
    - name: Sherwood
      region: OR
      lat: '45.3594'
      long: "-122.8427"
    - name: Siletz
      region: OR
      lat: '44.7219'
      long: "-123.9187"
    - name: Silver Lake
      region: OR
      lat: '43.1264'
      long: "-121.0495"
    - name: Silverton
      region: OR
      lat: '45.0030'
      long: "-122.7808"
    - name: Sisters
      region: OR
      lat: '44.2923'
      long: "-121.5531"
    - name: Sodaville
      region: OR
      lat: '44.4831'
      long: "-122.8691"
    - name: South Lebanon
      region: OR
      lat: '44.5055'
      long: "-122.8959"
    - name: Sportsmans Park
      region: OR
      lat: '45.2197'
      long: "-121.3945"
    - name: Sprague River
      region: OR
      lat: '42.4567'
      long: "-121.5022"
    - name: Spray
      region: OR
      lat: '44.8335'
      long: "-119.7949"
    - name: Springfield
      region: OR
      lat: '44.0538'
      long: "-122.9811"
    - name: St. Helens
      region: OR
      lat: '45.8572'
      long: "-122.8164"
    - name: St. Paul
      region: OR
      lat: '45.2123'
      long: "-122.9772"
    - name: Stafford
      region: OR
      lat: '45.3786'
      long: "-122.6822"
    - name: Stanfield
      region: OR
      lat: '45.7846'
      long: "-119.2187"
    - name: Stayton
      region: OR
      lat: '44.8034'
      long: "-122.7984"
    - name: Sublimity
      region: OR
      lat: '44.8294'
      long: "-122.7923"
    - name: Summerville
      region: OR
      lat: '45.4897'
      long: "-118.0040"
    - name: Summit
      region: OR
      lat: '44.6363'
      long: "-123.5769"
    - name: Sumpter
      region: OR
      lat: '44.7435'
      long: "-118.1975"
    - name: Sunriver
      region: OR
      lat: '43.8815'
      long: "-121.4368"
    - name: Sutherlin
      region: OR
      lat: '43.3882'
      long: "-123.3242"
    - name: Svensen
      region: OR
      lat: '46.1543'
      long: "-123.6528"
    - name: Sweet Home
      region: OR
      lat: '44.4023'
      long: "-122.7028"
    - name: Takilma
      region: OR
      lat: '42.0409'
      long: "-123.6223"
    - name: Talent
      region: OR
      lat: '42.2404'
      long: "-122.7807"
    - name: Tangent
      region: OR
      lat: '44.5477'
      long: "-123.1109"
    - name: Terrebonne
      region: OR
      lat: '44.3533'
      long: "-121.1807"
    - name: Tetherow
      region: OR
      lat: '44.0389'
      long: "-121.3667"
    - name: The Dalles
      region: OR
      lat: '45.6053'
      long: "-121.1818"
    - name: Three Rivers
      region: OR
      lat: '43.8366'
      long: "-121.4646"
    - name: Tigard
      region: OR
      lat: '45.4237'
      long: "-122.7845"
    - name: Tillamook
      region: OR
      lat: '45.4562'
      long: "-123.8331"
    - name: Toledo
      region: OR
      lat: '44.6198'
      long: "-123.9341"
    - name: Trail
      region: OR
      lat: '42.6567'
      long: "-122.8135"
    - name: Trent
      region: OR
      lat: '43.9429'
      long: "-122.8575"
    - name: Tri-City
      region: OR
      lat: '42.9894'
      long: "-123.2999"
    - name: Troutdale
      region: OR
      lat: '45.5372'
      long: "-122.3955"
    - name: Tualatin
      region: OR
      lat: '45.3772'
      long: "-122.7748"
    - name: Tumalo
      region: OR
      lat: '44.1561'
      long: "-121.3280"
    - name: Turner
      region: OR
      lat: '44.8489'
      long: "-122.9518"
    - name: Tutuilla
      region: OR
      lat: '45.6142'
      long: "-118.7066"
    - name: Tygh Valley
      region: OR
      lat: '45.2417'
      long: "-121.1693"
    - name: Ukiah
      region: OR
      lat: '45.1344'
      long: "-118.9331"
    - name: Umapine
      region: OR
      lat: '45.9760'
      long: "-118.5010"
    - name: Umatilla
      region: OR
      lat: '45.9119'
      long: "-119.3133"
    - name: Union
      region: OR
      lat: '45.2089'
      long: "-117.8679"
    - name: Unity
      region: OR
      lat: '44.4491'
      long: "-118.1881"
    - name: Vale
      region: OR
      lat: '43.9840'
      long: "-117.2418"
    - name: Veneta
      region: OR
      lat: '44.0471'
      long: "-123.3514"
    - name: Vernonia
      region: OR
      lat: '45.8611'
      long: "-123.1834"
    - name: Waldport
      region: OR
      lat: '44.4172'
      long: "-124.0665"
    - name: Wallowa
      region: OR
      lat: '45.5704'
      long: "-117.5286"
    - name: Wallowa Lake
      region: OR
      lat: '45.3041'
      long: "-117.2117"
    - name: Wamic
      region: OR
      lat: '45.2256'
      long: "-121.2927"
    - name: Warm Springs
      region: OR
      lat: '44.7669'
      long: "-121.2898"
    - name: Warren
      region: OR
      lat: '45.8133'
      long: "-122.8796"
    - name: Warrenton
      region: OR
      lat: '46.1685'
      long: "-123.9302"
    - name: Wasco
      region: OR
      lat: '45.5917'
      long: "-120.6974"
    - name: Waterloo
      region: OR
      lat: '44.4947'
      long: "-122.8242"
    - name: Wedderburn
      region: OR
      lat: '42.4328'
      long: "-124.4232"
    - name: West Haven-Sylvan
      region: OR
      lat: '45.5164'
      long: "-122.7655"
    - name: West Linn
      region: OR
      lat: '45.3670'
      long: "-122.6399"
    - name: West Scio
      region: OR
      lat: '44.7098'
      long: "-122.8812"
    - name: West Slope
      region: OR
      lat: '45.4962'
      long: "-122.7730"
    - name: Westfir
      region: OR
      lat: '43.7579'
      long: "-122.5097"
    - name: Weston
      region: OR
      lat: '45.8165'
      long: "-118.4258"
    - name: Westport
      region: OR
      lat: '46.1303'
      long: "-123.3715"
    - name: Wheeler
      region: OR
      lat: '45.6873'
      long: "-123.8871"
    - name: White City
      region: OR
      lat: '42.4316'
      long: "-122.8322"
    - name: Willamina
      region: OR
      lat: '45.0784'
      long: "-123.4848"
    - name: Williams
      region: OR
      lat: '42.2194'
      long: "-123.2922"
    - name: Wilsonville
      region: OR
      lat: '45.3109'
      long: "-122.7702"
    - name: Wimer
      region: OR
      lat: '42.5446'
      long: "-123.1480"
    - name: Winchester Bay
      region: OR
      lat: '43.6729'
      long: "-124.1828"
    - name: Winston
      region: OR
      lat: '43.1201'
      long: "-123.4246"
    - name: Wood Village
      region: OR
      lat: '45.5358'
      long: "-122.4205"
    - name: Woodburn
      region: OR
      lat: '45.1472'
      long: "-122.8603"
    - name: Yachats
      region: OR
      lat: '44.3127'
      long: "-124.1023"
    - name: Yamhill
      region: OR
      lat: '45.3409'
      long: "-123.1846"
    - name: Yoncalla
      region: OR
      lat: '43.6003'
      long: "-123.2875"
