---
cities:
  US:
    SD:
    - name: Aberdeen
      region: SD
      lat: '45.4649'
      long: "-98.4686"
      closest_rate_centers:
      - name: Aberdeen
        distance:
          value: 1.04
          units: km
      - name: Columbia
        distance:
          value: 21.14
          units: km
      - name: Groton
        distance:
          value: 28.88
          units: km
    - name: Agar
      region: SD
      lat: '44.8397'
      long: "-100.0732"
      closest_rate_centers:
      - name: Onida
        distance:
          value: 14.58
          units: km
      - name: Gettysburg
        distance:
          value: 21.04
          units: km
      - name: Lebanon
        distance:
          value: 35.09
          units: km
    - name: Agency Village
      region: SD
      lat: '45.5796'
      long: "-97.0782"
      closest_rate_centers:
      - name: Sisseton
        distance:
          value: 9.92
          units: km
      - name: Peever
        distance:
          value: 9.99
          units: km
      - name: West Browns Valley
        distance:
          value: 13.96
          units: km
    - name: Akaska
      region: SD
      lat: '45.3310'
      long: "-100.1208"
      closest_rate_centers:
      - name: Selby
        distance:
          value: 20.68
          units: km
      - name: Glenham
        distance:
          value: 25.22
          units: km
      - name: Hoven
        distance:
          value: 28.9
          units: km
    - name: Albee
      region: SD
      lat: '45.0513'
      long: "-96.5535"
      closest_rate_centers:
      - name: Revillo
        distance:
          value: 3.83
          units: km
      - name: West Marietta
        distance:
          value: 6.6
          units: km
      - name: Stockholm
        distance:
          value: 20.1
          units: km
    - name: Alcester
      region: SD
      lat: '43.0278'
      long: "-96.6268"
      closest_rate_centers:
      - name: Alcester
        distance:
          value: 0.67
          units: km
      - name: West Hawarden
        distance:
          value: 8.66
          units: km
      - name: Alsen
        distance:
          value: 13.62
          units: km
    - name: Alexandria
      region: SD
      lat: '43.6541'
      long: "-97.7798"
      closest_rate_centers:
      - name: Alexandria
        distance:
          value: 0.74
          units: km
      - name: Emery
        distance:
          value: 13.82
          units: km
      - name: Spencer
        distance:
          value: 17.05
          units: km
    - name: Allen
      region: SD
      lat: '43.2792'
      long: "-101.9265"
      closest_rate_centers:
      - name: Martin
        distance:
          value: 18.87
          units: km
      - name: Kyle
        distance:
          value: 26.23
          units: km
      - name: North Gordon
        distance:
          value: 37.76
          units: km
    - name: Alpena
      region: SD
      lat: '44.1829'
      long: "-98.3683"
      closest_rate_centers:
      - name: Alpena
        distance:
          value: 0.03
          units: km
      - name: Woonsocket
        distance:
          value: 16.71
          units: km
      - name: Wessington Springs
        distance:
          value: 20.13
          units: km
    - name: Altamont
      region: SD
      lat: '44.8408'
      long: "-96.6901"
      closest_rate_centers:
      - name: Clear Lake
        distance:
          value: 9.82
          units: km
      - name: Goodwin
        distance:
          value: 13.25
          units: km
      - name: Gary
        distance:
          value: 19.51
          units: km
    - name: Anderson
      region: SD
      lat: '43.5194'
      long: "-96.6141"
      closest_rate_centers:
      - name: Brandon
        distance:
          value: 8.6
          units: km
      - name: Sioux Falls
        distance:
          value: 9.32
          units: km
      - name: Harrisburg-Tea
        distance:
          value: 12.55
          units: km
    - name: Andover
      region: SD
      lat: '45.4102'
      long: "-97.9037"
      closest_rate_centers:
      - name: Andover
        distance:
          value: 0.23
          units: km
      - name: Pierpont
        distance:
          value: 11.17
          units: km
      - name: Bristol
        distance:
          value: 14.44
          units: km
    - name: Angostura
      region: SD
      lat: '43.3192'
      long: "-103.3860"
      closest_rate_centers:
      - name: Oral
        distance:
          value: 13.65
          units: km
      - name: Hot Springs
        distance:
          value: 13.95
          units: km
      - name: Oelrichs
        distance:
          value: 20.1
          units: km
    - name: Antelope
      region: SD
      lat: '43.3087'
      long: "-100.6306"
      closest_rate_centers:
      - name: Mission
        distance:
          value: 2.39
          units: km
      - name: Rosebud
        distance:
          value: 19.36
          units: km
      - name: Wood
        distance:
          value: 24.48
          units: km
    - name: Ardmore
      region: SD
      lat: '43.0192'
      long: "-103.6543"
      closest_rate_centers:
      - name: Ardmore
        distance:
          value: 0.41
          units: km
      - name: Edgemont
        distance:
          value: 33.91
          units: km
      - name: Oelrichs
        distance:
          value: 38.19
          units: km
    - name: Arlington
      region: SD
      lat: '44.3635'
      long: "-97.1338"
      closest_rate_centers:
      - name: Arlington
        distance:
          value: 0.35
          units: km
      - name: Sinai
        distance:
          value: 15.37
          units: km
      - name: Volga
        distance:
          value: 17.1
          units: km
    - name: Armour
      region: SD
      lat: '43.3190'
      long: "-98.3448"
      closest_rate_centers:
      - name: Armour
        distance:
          value: 0.64
          units: km
      - name: Corsica
        distance:
          value: 12.96
          units: km
      - name: Delmont
        distance:
          value: 15.42
          units: km
    - name: Artas
      region: SD
      lat: '45.8873'
      long: "-99.8069"
      closest_rate_centers:
      - name: Eureka
        distance:
          value: 18.94
          units: km
      - name: South Venturia
        distance:
          value: 20.73
          units: km
      - name: Herreid
        distance:
          value: 21.08
          units: km
    - name: Artesian
      region: SD
      lat: '44.0079'
      long: "-97.9237"
      closest_rate_centers:
      - name: Artesian
        distance:
          value: 0.1
          units: km
      - name: Forestburg
        distance:
          value: 14.87
          units: km
      - name: Letcher
        distance:
          value: 20.6
          units: km
    - name: Ashland Heights
      region: SD
      lat: '44.1293'
      long: "-103.1286"
      closest_rate_centers:
      - name: Rapid City
        distance:
          value: 8.95
          units: km
      - name: New Underwood
        distance:
          value: 24.17
          units: km
      - name: Hermosa
        distance:
          value: 33.13
          units: km
    - name: Ashton
      region: SD
      lat: '44.9931'
      long: "-98.4991"
      closest_rate_centers:
      - name: Redfield
        distance:
          value: 13.32
          units: km
      - name: Mellette
        distance:
          value: 17.48
          units: km
      - name: Tulare
        distance:
          value: 27.9
          units: km
    - name: Astoria
      region: SD
      lat: '44.5577'
      long: "-96.5465"
      closest_rate_centers:
      - name: Astoria
        distance:
          value: 0.42
          units: km
      - name: West Hendricks
        distance:
          value: 6.99
          units: km
      - name: Toronto
        distance:
          value: 8.69
          units: km
    - name: Aurora
      region: SD
      lat: '44.2823'
      long: "-96.6868"
      closest_rate_centers:
      - name: Brookings Rural
        distance:
          value: 8.71
          units: km
      - name: Brookings
        distance:
          value: 8.71
          units: km
      - name: White
        distance:
          value: 17.01
          units: km
      - name: Elkton
        distance:
          value: 17.29
          units: km
    - name: Aurora Center
      region: SD
      lat: '43.5272'
      long: "-98.5894"
      closest_rate_centers:
      - name: New Holland
        distance:
          value: 11.41
          units: km
      - name: Stickney
        distance:
          value: 14.03
          units: km
      - name: Corsica
        distance:
          value: 18.44
          units: km
    - name: Avon
      region: SD
      lat: '43.0052'
      long: "-98.0593"
      closest_rate_centers:
      - name: Avon
        distance:
          value: 0.47
          units: km
      - name: Tyndall
        distance:
          value: 15.57
          units: km
      - name: Springfield
        distance:
          value: 20.79
          units: km
    - name: Badger
      region: SD
      lat: '44.4855'
      long: "-97.2079"
      closest_rate_centers:
      - name: Lake Norden
        distance:
          value: 11.08
          units: km
      - name: Arlington
        distance:
          value: 14.49
          units: km
      - name: Lake Preston
        distance:
          value: 18.57
          units: km
    - name: Baltic
      region: SD
      lat: '43.7603'
      long: "-96.7371"
      closest_rate_centers:
      - name: Baltic
        distance:
          value: 0.31
          units: km
      - name: Dell Rapids
        distance:
          value: 7.64
          units: km
      - name: Crooks
        distance:
          value: 12.49
          units: km
    - name: Bancroft
      region: SD
      lat: '44.4894'
      long: "-97.7505"
      closest_rate_centers:
      - name: Iroquois
        distance:
          value: 15.95
          units: km
      - name: Bryant-Willow Lake
        distance:
          value: 17.29
          units: km
      - name: De Smet
        distance:
          value: 19.13
          units: km
    - name: Batesland
      region: SD
      lat: '43.1278'
      long: "-102.1017"
      closest_rate_centers:
      - name: North Gordon
        distance:
          value: 15.85
          units: km
      - name: Martin
        distance:
          value: 29.75
          units: km
      - name: Kyle
        distance:
          value: 34.19
          units: km
    - name: Bath
      region: SD
      lat: '45.4692'
      long: "-98.3236"
      closest_rate_centers:
      - name: Aberdeen
        distance:
          value: 12.31
          units: km
      - name: Columbia
        distance:
          value: 16.64
          units: km
      - name: Groton
        distance:
          value: 17.64
          units: km
    - name: Bath Corner
      region: SD
      lat: '45.4627'
      long: "-98.3329"
      closest_rate_centers:
      - name: Aberdeen
        distance:
          value: 11.59
          units: km
      - name: Columbia
        distance:
          value: 17.43
          units: km
      - name: Groton
        distance:
          value: 18.3
          units: km
    - name: Belle Fourche
      region: SD
      lat: '44.6640'
      long: "-103.8564"
      closest_rate_centers:
      - name: Belle Fourche
        distance:
          value: 1.19
          units: km
      - name: Spearfish
        distance:
          value: 18.95
          units: km
      - name: Nisland
        distance:
          value: 25.16
          units: km
    - name: Belvidere
      region: SD
      lat: '43.8321'
      long: "-101.2711"
      closest_rate_centers:
      - name: Belvidere
        distance:
          value: 1.38
          units: km
      - name: Kadoka
        distance:
          value: 19.55
          units: km
      - name: Midland
        distance:
          value: 28.09
          units: km
    - name: Beresford
      region: SD
      lat: '43.0797'
      long: "-96.7803"
      closest_rate_centers:
      - name: Beresford Rural
        distance:
          value: 0.46
          units: km
      - name: Beresford
        distance:
          value: 0.46
          units: km
      - name: Alsen
        distance:
          value: 10.66
          units: km
      - name: Alcester
        distance:
          value: 13.5
          units: km
    - name: Big Stone City
      region: SD
      lat: '45.2985'
      long: "-96.4657"
      closest_rate_centers:
      - name: Big Stone City
        distance:
          value: 0.59
          units: km
      - name: Milbank
        distance:
          value: 15.15
          units: km
      - name: West Marietta
        distance:
          value: 31.14
          units: km
    - name: Bijou Hills
      region: SD
      lat: '43.5285'
      long: "-99.1439"
      closest_rate_centers:
      - name: Academy
        distance:
          value: 9.76
          units: km
      - name: Pukwana
        distance:
          value: 27.64
          units: km
      - name: Kimball
        distance:
          value: 29.07
          units: km
    - name: Bison
      region: SD
      lat: '45.5235'
      long: "-102.4677"
      closest_rate_centers:
      - name: Bison
        distance:
          value: 0.54
          units: km
      - name: Meadow
        distance:
          value: 19.03
          units: km
      - name: Sorum
        distance:
          value: 36.79
          units: km
    - name: Blackhawk
      region: SD
      lat: '44.1514'
      long: "-103.3340"
      closest_rate_centers:
      - name: Rapid City
        distance:
          value: 11.66
          units: km
      - name: Keystone
        distance:
          value: 29.56
          units: km
      - name: Hill City
        distance:
          value: 30.95
          units: km
    - name: Blucksberg Mountain
      region: SD
      lat: '44.3593'
      long: "-103.4538"
      closest_rate_centers:
      - name: Sturgis
        distance:
          value: 7.13
          units: km
      - name: Whitewood
        distance:
          value: 18.13
          units: km
      - name: Deadwood
        distance:
          value: 20.27
          units: km
    - name: Blumengard Colony
      region: SD
      lat: '45.2415'
      long: "-99.1700"
      closest_rate_centers:
      - name: Cresbard
        distance:
          value: 18.72
          units: km
      - name: Faulkton
        distance:
          value: 23.12
          units: km
      - name: Onaka
        distance:
          value: 23.94
          units: km
    - name: Blunt
      region: SD
      lat: '44.5159'
      long: "-99.9885"
      closest_rate_centers:
      - name: Blunt
        distance:
          value: 0.26
          units: km
      - name: Harrold
        distance:
          value: 19.62
          units: km
      - name: Onida
        distance:
          value: 22.29
          units: km
    - name: Bon Homme Colony
      region: SD
      lat: '42.8649'
      long: "-97.7056"
      closest_rate_centers:
      - name: Tabor
        distance:
          value: 10.04
          units: km
      - name: Springfield
        distance:
          value: 15.83
          units: km
      - name: Tyndall
        distance:
          value: 19.56
          units: km
    - name: Bonesteel
      region: SD
      lat: '43.0775'
      long: "-98.9467"
      closest_rate_centers:
      - name: Bonesteel
        distance:
          value: 0.58
          units: km
      - name: North Naper
        distance:
          value: 18.18
          units: km
      - name: North Bristow
        distance:
          value: 30.07
          units: km
    - name: Boulder Canyon
      region: SD
      lat: '44.3971'
      long: "-103.6046"
      closest_rate_centers:
      - name: Whitewood
        distance:
          value: 7.37
          units: km
      - name: Deadwood
        distance:
          value: 8.2
          units: km
      - name: Sturgis
        distance:
          value: 8.66
          units: km
    - name: Bowdle
      region: SD
      lat: '45.4512'
      long: "-99.6565"
      closest_rate_centers:
      - name: Bowdle
        distance:
          value: 0.32
          units: km
      - name: Hosmer
        distance:
          value: 20.5
          units: km
      - name: Hoven
        distance:
          value: 24.92
          units: km
    - name: Box Elder
      region: SD
      lat: '44.1120'
      long: "-103.0818"
      closest_rate_centers:
      - name: Rapid City
        distance:
          value: 11.58
          units: km
      - name: New Underwood
        distance:
          value: 20.18
          units: km
      - name: Hermosa
        distance:
          value: 32.05
          units: km
    - name: Bradley
      region: SD
      lat: '45.0904'
      long: "-97.6420"
      closest_rate_centers:
      - name: Bradley
        distance:
          value: 0.14
          units: km
      - name: Florence
        distance:
          value: 25.05
          units: km
      - name: Clark
        distance:
          value: 25.13
          units: km
    - name: Brandon
      region: SD
      lat: '43.5928'
      long: "-96.5799"
      closest_rate_centers:
      - name: Brandon
        distance:
          value: 0.08
          units: km
      - name: Valley Springs
        distance:
          value: 9.2
          units: km
      - name: Sioux Falls
        distance:
          value: 13.08
          units: km
    - name: Brandt
      region: SD
      lat: '44.6669'
      long: "-96.6252"
      closest_rate_centers:
      - name: Brandt
        distance:
          value: 0.29
          units: km
      - name: Toronto
        distance:
          value: 10.59
          units: km
      - name: Clear Lake
        distance:
          value: 10.61
          units: km
    - name: Brant Lake
      region: SD
      lat: '43.9308'
      long: "-96.9436"
      closest_rate_centers:
      - name: Chester
        distance:
          value: 4.68
          units: km
      - name: Wentworth
        distance:
          value: 7.03
          units: km
      - name: Colman
        distance:
          value: 11.38
          units: km
    - name: Brant Lake South
      region: SD
      lat: '43.9139'
      long: "-96.9380"
      closest_rate_centers:
      - name: Chester
        distance:
          value: 2.75
          units: km
      - name: Wentworth
        distance:
          value: 8.96
          units: km
      - name: Colman
        distance:
          value: 11.99
          units: km
    - name: Brentford
      region: SD
      lat: '45.1591'
      long: "-98.3223"
      closest_rate_centers:
      - name: Mellette
        distance:
          value: 13.9
          units: km
      - name: Conde
        distance:
          value: 17.56
          units: km
      - name: Turton
        distance:
          value: 21.07
          units: km
    - name: Brentwood Colony
      region: SD
      lat: '45.1513'
      long: "-99.2984"
      closest_rate_centers:
      - name: Onaka
        distance:
          value: 14.02
          units: km
      - name: Faulkton
        distance:
          value: 18.22
          units: km
      - name: Seneca
        distance:
          value: 18.95
          units: km
    - name: Bridger
      region: SD
      lat: '44.5421'
      long: "-101.9136"
      closest_rate_centers:
      - name: Milesville
        distance:
          value: 22.6
          units: km
      - name: Creighton
        distance:
          value: 39.86
          units: km
      - name: Enning
        distance:
          value: 51.16
          units: km
    - name: Bridgewater
      region: SD
      lat: '43.5502'
      long: "-97.4984"
      closest_rate_centers:
      - name: Bridgewater
        distance:
          value: 0.37
          units: km
      - name: Emery
        distance:
          value: 11.62
          units: km
      - name: Canistota
        distance:
          value: 18.11
          units: km
    - name: Bristol
      region: SD
      lat: '45.3466'
      long: "-97.7485"
      closest_rate_centers:
      - name: Bristol
        distance:
          value: 0.72
          units: km
      - name: Andover
        distance:
          value: 14.1
          units: km
      - name: Webster
        distance:
          value: 18.12
          units: km
    - name: Britton
      region: SD
      lat: '45.7924'
      long: "-97.7529"
      closest_rate_centers:
      - name: Britton
        distance:
          value: 0.99
          units: km
      - name: South Forman
        distance:
          value: 15.9
          units: km
      - name: Langford
        distance:
          value: 21.54
          units: km
    - name: Broadland
      region: SD
      lat: '44.4938'
      long: "-98.3466"
      closest_rate_centers:
      - name: Wolsey
        distance:
          value: 13.7
          units: km
      - name: Hitchcock
        distance:
          value: 15.36
          units: km
      - name: Huron
        distance:
          value: 18.42
          units: km
    - name: Brookings
      region: SD
      lat: '44.3022'
      long: "-96.7859"
      closest_rate_centers:
      - name: Brookings
        distance:
          value: 0.82
          units: km
      - name: Brookings Rural
        distance:
          value: 0.82
          units: km
      - name: Volga
        distance:
          value: 11.41
          units: km
      - name: White
        distance:
          value: 18.09
          units: km
    - name: Bruce
      region: SD
      lat: '44.4378'
      long: "-96.8906"
      closest_rate_centers:
      - name: Volga
        distance:
          value: 12.97
          units: km
      - name: Estelline
        distance:
          value: 15.43
          units: km
      - name: Brookings Rural
        distance:
          value: 16.41
          units: km
      - name: Brookings
        distance:
          value: 16.41
          units: km
    - name: Bryant
      region: SD
      lat: '44.5899'
      long: "-97.4673"
      closest_rate_centers:
      - name: Bryant-Willow Lake
        distance:
          value: 14.4
          units: km
      - name: Lake Norden
        distance:
          value: 20.52
          units: km
      - name: Hayti
        distance:
          value: 22.31
          units: km
    - name: Buffalo
      region: SD
      lat: '45.5863'
      long: "-103.5434"
      closest_rate_centers:
      - name: Buffalo
        distance:
          value: 0.69
          units: km
      - name: Camp Crook
        distance:
          value: 33.91
          units: km
      - name: South Ladd
        distance:
          value: 37.73
          units: km
    - name: Buffalo Chip
      region: SD
      lat: '44.4166'
      long: "-103.4058"
      closest_rate_centers:
      - name: Sturgis
        distance:
          value: 7.36
          units: km
      - name: Whitewood
        distance:
          value: 18.69
          units: km
      - name: Deadwood
        distance:
          value: 24.13
          units: km
    - name: Buffalo Gap
      region: SD
      lat: '43.4921'
      long: "-103.3154"
      closest_rate_centers:
      - name: Buffalo Gap
        distance:
          value: 0.61
          units: km
      - name: Oral
        distance:
          value: 10.33
          units: km
      - name: Hot Springs
        distance:
          value: 14.92
          units: km
    - name: Bullhead
      region: SD
      lat: '45.7693'
      long: "-101.0809"
      closest_rate_centers:
      - name: McLaughlin
        distance:
          value: 21.33
          units: km
      - name: McIntosh
        distance:
          value: 26.75
          units: km
      - name: Timber Lake
        distance:
          value: 37.39
          units: km
    - name: Burbank
      region: SD
      lat: '42.7461'
      long: "-96.8326"
      closest_rate_centers:
      - name: Vermillion
        distance:
          value: 9.23
          units: km
      - name: Elk Point
        distance:
          value: 13.86
          units: km
      - name: West Akron
        distance:
          value: 21.8
          units: km
    - name: Burke
      region: SD
      lat: '43.1827'
      long: "-99.2923"
      closest_rate_centers:
      - name: Burke
        distance:
          value: 0.58
          units: km
      - name: Gregory
        distance:
          value: 12.89
          units: km
      - name: North Naper
        distance:
          value: 19.77
          units: km
    - name: Bushnell
      region: SD
      lat: '44.3274'
      long: "-96.6424"
      closest_rate_centers:
      - name: White
        distance:
          value: 11.77
          units: km
      - name: Brookings
        distance:
          value: 11.89
          units: km
      - name: Brookings Rural
        distance:
          value: 11.89
          units: km
      - name: Elkton
        distance:
          value: 16.6
          units: km
    - name: Butler
      region: SD
      lat: '45.2620'
      long: "-97.7117"
      closest_rate_centers:
      - name: Bristol
        distance:
          value: 9.14
          units: km
      - name: Webster
        distance:
          value: 16.68
          units: km
      - name: Bradley
        distance:
          value: 19.73
          units: km
    - name: Cameron Colony
      region: SD
      lat: '43.1878'
      long: "-97.2627"
      closest_rate_centers:
      - name: Flyger
        distance:
          value: 4.41
          units: km
      - name: Irene
        distance:
          value: 14.1
          units: km
      - name: Viborg
        distance:
          value: 14.9
          units: km
    - name: Camp Crook
      region: SD
      lat: '45.5500'
      long: "-103.9750"
      closest_rate_centers:
      - name: Camp Crook
        distance:
          value: 0.3
          units: km
      - name: Buffalo
        distance:
          value: 33.17
          units: km
      - name: South Ladd
        distance:
          value: 58.12
          units: km
    - name: Camrose Colony
      region: SD
      lat: '44.9343'
      long: "-98.2202"
      closest_rate_centers:
      - name: Doland
        distance:
          value: 10.72
          units: km
      - name: Turton
        distance:
          value: 15.98
          units: km
      - name: Redfield
        distance:
          value: 24.71
          units: km
    - name: Canistota
      region: SD
      lat: '43.5978'
      long: "-97.2926"
      closest_rate_centers:
      - name: Canistota
        distance:
          value: 0.72
          units: km
      - name: Salem
        distance:
          value: 15.71
          units: km
      - name: Bridgewater
        distance:
          value: 17.76
          units: km
    - name: Canova
      region: SD
      lat: '43.8813'
      long: "-97.5040"
      closest_rate_centers:
      - name: Canova
        distance:
          value: 0.39
          units: km
      - name: Howard
        distance:
          value: 14.33
          units: km
      - name: Center
        distance:
          value: 14.57
          units: km
    - name: Canton
      region: SD
      lat: '43.3032'
      long: "-96.5848"
      closest_rate_centers:
      - name: Canton
        distance:
          value: 0.73
          units: km
      - name: Worthing
        distance:
          value: 14.76
          units: km
      - name: Harrisburg-Tea
        distance:
          value: 19.18
          units: km
    - name: Caputa
      region: SD
      lat: '43.9961'
      long: "-102.9844"
      closest_rate_centers:
      - name: New Underwood
        distance:
          value: 16.09
          units: km
      - name: Rapid City
        distance:
          value: 21.35
          units: km
      - name: Hermosa
        distance:
          value: 24.43
          units: km
    - name: Carthage
      region: SD
      lat: '44.1686'
      long: "-97.7150"
      closest_rate_centers:
      - name: Howard
        distance:
          value: 23.29
          units: km
      - name: Artesian
        distance:
          value: 24.35
          units: km
      - name: Iroquois
        distance:
          value: 24.52
          units: km
    - name: Castlewood
      region: SD
      lat: '44.7242'
      long: "-97.0309"
      closest_rate_centers:
      - name: Castlewood
        distance:
          value: 0.21
          units: km
      - name: Hayti
        distance:
          value: 15.4
          units: km
      - name: Estelline
        distance:
          value: 19.35
          units: km
    - name: Cavour
      region: SD
      lat: '44.3693'
      long: "-98.0420"
      closest_rate_centers:
      - name: Cavour
        distance:
          value: 1.14
          units: km
      - name: Huron
        distance:
          value: 13.7
          units: km
      - name: Iroquois
        distance:
          value: 15.06
          units: km
    - name: Cedar Grove Colony
      region: SD
      lat: '43.5317'
      long: "-98.8045"
      closest_rate_centers:
      - name: Platte
        distance:
          value: 16.82
          units: km
      - name: New Holland
        distance:
          value: 20.48
          units: km
      - name: Academy
        distance:
          value: 23.15
          units: km
    - name: Centerville
      region: SD
      lat: '43.1165'
      long: "-96.9596"
      closest_rate_centers:
      - name: Centerville
        distance:
          value: 0.05
          units: km
      - name: Viborg
        distance:
          value: 11.37
          units: km
      - name: Beresford Rural
        distance:
          value: 14.85
          units: km
      - name: Beresford
        distance:
          value: 14.85
          units: km
    - name: Central City
      region: SD
      lat: '44.3685'
      long: "-103.7706"
      closest_rate_centers:
      - name: Lead
        distance:
          value: 2.02
          units: km
      - name: Deadwood
        distance:
          value: 5.42
          units: km
      - name: Whitewood
        distance:
          value: 14.93
          units: km
    - name: Chamberlain
      region: SD
      lat: '43.7956'
      long: "-99.3263"
      closest_rate_centers:
      - name: Chamberlain (Midstate Telecom)
        distance:
          value: 1.6
          units: km
      - name: Chamberlain
        distance:
          value: 1.6
          units: km
      - name: Pukwana
        distance:
          value: 11.45
          units: km
      - name: Reliance
        distance:
          value: 23.84
          units: km
    - name: Chancellor
      region: SD
      lat: '43.3719'
      long: "-96.9875"
      closest_rate_centers:
      - name: Lennox
        distance:
          value: 7.51
          units: km
      - name: Parker
        distance:
          value: 12.06
          units: km
      - name: Hurley
        distance:
          value: 12.79
          units: km
    - name: Chelsea
      region: SD
      lat: '45.1675'
      long: "-98.7434"
      closest_rate_centers:
      - name: Cresbard
        distance:
          value: 16.31
          units: km
      - name: Mellette
        distance:
          value: 19.25
          units: km
      - name: Faulkton
        distance:
          value: 34.08
          units: km
    - name: Cherry Creek
      region: SD
      lat: '44.6048'
      long: "-101.4996"
      closest_rate_centers:
      - name: Milesville
        distance:
          value: 24.5
          units: km
      - name: Hayes
        distance:
          value: 46.46
          units: km
      - name: Eagle Butte
        distance:
          value: 48.62
          units: km
    - name: Chester
      region: SD
      lat: '43.8996'
      long: "-96.9277"
      closest_rate_centers:
      - name: Chester
        distance:
          value: 1.03
          units: km
      - name: Wentworth
        distance:
          value: 10.72
          units: km
      - name: Colman
        distance:
          value: 12.39
          units: km
    - name: Claire City
      region: SD
      lat: '45.8566'
      long: "-97.1035"
      closest_rate_centers:
      - name: Claire City
        distance:
          value: 0.53
          units: km
      - name: South Lidgerwood
        distance:
          value: 10.94
          units: km
      - name: New Effington
        distance:
          value: 13.88
          units: km
    - name: Claremont
      region: SD
      lat: '45.6719'
      long: "-98.0157"
      closest_rate_centers:
      - name: Claremont
        distance:
          value: 0.59
          units: km
      - name: Langford
        distance:
          value: 16.05
          units: km
      - name: Houghton
        distance:
          value: 18.11
          units: km
    - name: Claremont Colony
      region: SD
      lat: '44.7129'
      long: "-96.9512"
      closest_rate_centers:
      - name: Castlewood
        distance:
          value: 6.62
          units: km
      - name: Estelline
        distance:
          value: 15.68
          units: km
      - name: Goodwin
        distance:
          value: 19.79
          units: km
    - name: Clark
      region: SD
      lat: '44.8809'
      long: "-97.7348"
      closest_rate_centers:
      - name: Clark
        distance:
          value: 0.77
          units: km
      - name: Bradley
        distance:
          value: 24.55
          units: km
      - name: Doland
        distance:
          value: 28.66
          units: km
    - name: Clark Colony
      region: SD
      lat: '44.7914'
      long: "-97.9815"
      closest_rate_centers:
      - name: Doland
        distance:
          value: 14.44
          units: km
      - name: Clark
        distance:
          value: 21.58
          units: km
      - name: Turton
        distance:
          value: 30.38
          units: km
    - name: Clear Lake
      region: SD
      lat: '45.6933'
      long: "-97.3572"
      closest_rate_centers:
      - name: Veblen
        distance:
          value: 20.18
          units: km
      - name: Roslyn
        distance:
          value: 23.69
          units: km
      - name: Sisseton
        distance:
          value: 23.87
          units: km
    - name: Clear Lake
      region: SD
      lat: '44.7644'
      long: "-96.6768"
      closest_rate_centers:
      - name: Clear Lake
        distance:
          value: 1.43
          units: km
      - name: Brandt
        distance:
          value: 11.86
          units: km
      - name: Gary
        distance:
          value: 18.09
          units: km
    - name: Clearfield Colony
      region: SD
      lat: '43.1439'
      long: "-98.1423"
      closest_rate_centers:
      - name: Delmont
        distance:
          value: 14.02
          units: km
      - name: Wagner
        distance:
          value: 14.39
          units: km
      - name: Avon
        distance:
          value: 16.62
          units: km
    - name: Cloverleaf Colony
      region: SD
      lat: '44.1840'
      long: "-97.5385"
      closest_rate_centers:
      - name: Howard
        distance:
          value: 19.46
          units: km
      - name: Oldham-Ramona
        distance:
          value: 21.58
          units: km
      - name: De Smet
        distance:
          value: 22.17
          units: km
    - name: Collins Colony
      region: SD
      lat: '44.5478'
      long: "-97.7013"
      closest_rate_centers:
      - name: Bryant-Willow Lake
        distance:
          value: 9.72
          units: km
      - name: De Smet
        distance:
          value: 21.45
          units: km
      - name: Iroquois
        distance:
          value: 23.52
          units: km
    - name: Colman
      region: SD
      lat: '43.9835'
      long: "-96.8148"
      closest_rate_centers:
      - name: Colman
        distance:
          value: 0.68
          units: km
      - name: Wentworth
        distance:
          value: 12.22
          units: km
      - name: Chester
        distance:
          value: 13.74
          units: km
    - name: Colome
      region: SD
      lat: '43.2599'
      long: "-99.7174"
      closest_rate_centers:
      - name: Winner
        distance:
          value: 17.23
          units: km
      - name: Gregory
        distance:
          value: 23.12
          units: km
      - name: Clearfield
        distance:
          value: 27.87
          units: km
    - name: Colonial Pine Hills
      region: SD
      lat: '44.0141'
      long: "-103.3146"
      closest_rate_centers:
      - name: Rapid City
        distance:
          value: 10.78
          units: km
      - name: Keystone
        distance:
          value: 15.89
          units: km
      - name: Hermosa
        distance:
          value: 22.24
          units: km
    - name: Colton
      region: SD
      lat: '43.7871'
      long: "-96.9280"
      closest_rate_centers:
      - name: Colton
        distance:
          value: 0.68
          units: km
      - name: Chester
        distance:
          value: 11.48
          units: km
      - name: Baltic
        distance:
          value: 15.88
          units: km
    - name: Columbia
      region: SD
      lat: '45.6148'
      long: "-98.3107"
      closest_rate_centers:
      - name: Columbia
        distance:
          value: 0.44
          units: km
      - name: Houghton
        distance:
          value: 18.47
          units: km
      - name: Aberdeen
        distance:
          value: 21.11
          units: km
    - name: Conde
      region: SD
      lat: '45.1573'
      long: "-98.0955"
      closest_rate_centers:
      - name: Conde
        distance:
          value: 0.31
          units: km
      - name: Turton
        distance:
          value: 11.82
          units: km
      - name: Ferney
        distance:
          value: 19.6
          units: km
    - name: Corn Creek
      region: SD
      lat: '43.5744'
      long: "-101.2059"
      closest_rate_centers:
      - name: Long Valley
        distance:
          value: 26.87
          units: km
      - name: Belvidere
        distance:
          value: 28.47
          units: km
      - name: White River
        distance:
          value: 36.65
          units: km
    - name: Corona
      region: SD
      lat: '45.3352'
      long: "-96.7646"
      closest_rate_centers:
      - name: Wilmot
        distance:
          value: 10.69
          units: km
      - name: Milbank
        distance:
          value: 16.05
          units: km
      - name: Summit
        distance:
          value: 21.14
          units: km
    - name: Corsica
      region: SD
      lat: '43.4223'
      long: "-98.4073"
      closest_rate_centers:
      - name: Corsica
        distance:
          value: 0.43
          units: km
      - name: Armour
        distance:
          value: 12.67
          units: km
      - name: New Holland
        distance:
          value: 15.38
          units: km
    - name: Cottonwood
      region: SD
      lat: '43.9657'
      long: "-101.9021"
      closest_rate_centers:
      - name: Quinn
        distance:
          value: 18.03
          units: km
      - name: Philip
        distance:
          value: 20.73
          units: km
      - name: Wall
        distance:
          value: 27.1
          units: km
    - name: Cow Creek
      region: SD
      lat: '44.5538'
      long: "-100.4754"
      closest_rate_centers:
      - name: Pierre
        distance:
          value: 23.08
          units: km
      - name: Onida
        distance:
          value: 36.71
          units: km
      - name: Blunt
        distance:
          value: 38.59
          units: km
    - name: Cresbard
      region: SD
      lat: '45.1692'
      long: "-98.9477"
      closest_rate_centers:
      - name: Cresbard
        distance:
          value: 0.56
          units: km
      - name: Faulkton
        distance:
          value: 20.94
          units: km
      - name: Orient
        distance:
          value: 32.0
          units: km
    - name: Crocker
      region: SD
      lat: '45.1070'
      long: "-97.7805"
      closest_rate_centers:
      - name: Bradley
        distance:
          value: 11.04
          units: km
      - name: Conde
        distance:
          value: 25.6
          units: km
      - name: Turton
        distance:
          value: 25.98
          units: km
    - name: Crook City
      region: SD
      lat: '44.4381'
      long: "-103.6434"
      closest_rate_centers:
      - name: Whitewood
        distance:
          value: 2.58
          units: km
      - name: Deadwood
        distance:
          value: 7.75
          units: km
      - name: Sturgis
        distance:
          value: 11.8
          units: km
    - name: Crooks
      region: SD
      lat: '43.6592'
      long: "-96.8094"
      closest_rate_centers:
      - name: Crooks
        distance:
          value: 0.17
          units: km
      - name: Hartford
        distance:
          value: 12.18
          units: km
      - name: Baltic
        distance:
          value: 12.58
          units: km
    - name: Custer
      region: SD
      lat: '43.7668'
      long: "-103.6006"
      closest_rate_centers:
      - name: Custer
        distance:
          value: 0.61
          units: km
      - name: Hill City
        distance:
          value: 18.65
          units: km
      - name: Keystone
        distance:
          value: 20.19
          units: km
    - name: Dakota Dunes
      region: SD
      lat: '42.4920'
      long: "-96.4870"
      closest_rate_centers:
      - name: North Sioux City
        distance:
          value: 2.92
          units: km
      - name: Jefferson
        distance:
          value: 13.42
          units: km
      - name: Elk Point
        distance:
          value: 26.87
          units: km
    - name: Dallas
      region: SD
      lat: '43.2379'
      long: "-99.5175"
      closest_rate_centers:
      - name: Gregory
        distance:
          value: 6.78
          units: km
      - name: Burke
        distance:
          value: 18.68
          units: km
      - name: Winner
        distance:
          value: 31.62
          units: km
    - name: Dante
      region: SD
      lat: '43.0399'
      long: "-98.1856"
      closest_rate_centers:
      - name: Wagner
        distance:
          value: 10.35
          units: km
      - name: Avon
        distance:
          value: 11.13
          units: km
      - name: Delmont
        distance:
          value: 25.48
          units: km
    - name: Davis
      region: SD
      lat: '43.2595'
      long: "-96.9945"
      closest_rate_centers:
      - name: Hurley
        distance:
          value: 8.33
          units: km
      - name: Viborg
        distance:
          value: 12.42
          units: km
      - name: Lennox
        distance:
          value: 12.47
          units: km
    - name: De Smet
      region: SD
      lat: '44.3862'
      long: "-97.5496"
      closest_rate_centers:
      - name: De Smet
        distance:
          value: 1.03
          units: km
      - name: Lake Preston
        distance:
          value: 13.91
          units: km
      - name: Iroquois
        distance:
          value: 24.18
          units: km
    - name: Deadwood
      region: SD
      lat: '44.3871'
      long: "-103.7207"
      closest_rate_centers:
      - name: Deadwood
        distance:
          value: 1.17
          units: km
      - name: Lead
        distance:
          value: 5.55
          units: km
      - name: Whitewood
        distance:
          value: 10.69
          units: km
    - name: Deerfield Colony
      region: SD
      lat: '45.5874'
      long: "-98.8995"
      closest_rate_centers:
      - name: Leola
        distance:
          value: 15.59
          units: km
      - name: Ipswich
        distance:
          value: 18.27
          units: km
      - name: South Forbes
        distance:
          value: 34.7
          units: km
    - name: Dell Rapids
      region: SD
      lat: '43.8244'
      long: "-96.7143"
      closest_rate_centers:
      - name: Dell Rapids
        distance:
          value: 0.39
          units: km
      - name: Baltic
        distance:
          value: 7.51
          units: km
      - name: Colton
        distance:
          value: 18.16
          units: km
    - name: Delmont
      region: SD
      lat: '43.2666'
      long: "-98.1592"
      closest_rate_centers:
      - name: Delmont
        distance:
          value: 0.7
          units: km
      - name: Tripp
        distance:
          value: 16.17
          units: km
      - name: Armour
        distance:
          value: 16.49
          units: km
    - name: Dimock
      region: SD
      lat: '43.4764'
      long: "-97.9888"
      closest_rate_centers:
      - name: Ethan
        distance:
          value: 7.45
          units: km
      - name: Parkston
        distance:
          value: 9.68
          units: km
      - name: Mitchell
        distance:
          value: 25.96
          units: km
    - name: Doland
      region: SD
      lat: '44.8944'
      long: "-98.0997"
      closest_rate_centers:
      - name: Doland
        distance:
          value: 0.35
          units: km
      - name: Turton
        distance:
          value: 17.42
          units: km
      - name: Clark
        distance:
          value: 28.92
          units: km
    - name: Dolton
      region: SD
      lat: '43.4911'
      long: "-97.3848"
      closest_rate_centers:
      - name: Bridgewater
        distance:
          value: 11.55
          units: km
      - name: Marion
        distance:
          value: 12.58
          units: km
      - name: Canistota
        distance:
          value: 14.64
          units: km
    - name: Draper
      region: SD
      lat: '43.9262'
      long: "-100.5372"
      closest_rate_centers:
      - name: Murdo
        distance:
          value: 15.12
          units: km
      - name: Vivian
        distance:
          value: 19.62
          units: km
      - name: Presho
        distance:
          value: 38.45
          units: km
    - name: Dudley
      region: SD
      lat: '43.3082'
      long: "-103.8192"
      closest_rate_centers:
      - name: Edgemont
        distance:
          value: 0.9
          units: km
      - name: Hot Springs
        distance:
          value: 30.66
          units: km
      - name: Ardmore
        distance:
          value: 34.4
          units: km
    - name: Dupree
      region: SD
      lat: '45.0495'
      long: "-101.6013"
      closest_rate_centers:
      - name: Dupree
        distance:
          value: 0.63
          units: km
      - name: Eagle Butte
        distance:
          value: 28.77
          units: km
      - name: Faith
        distance:
          value: 34.8
          units: km
      - name: Faith Rural
        distance:
          value: 34.8
          units: km
    - name: Eagle Butte
      region: SD
      lat: '44.9939'
      long: "-101.2310"
      closest_rate_centers:
      - name: Eagle Butte
        distance:
          value: 1.2
          units: km
      - name: Dupree
        distance:
          value: 30.32
          units: km
      - name: Isabel
        distance:
          value: 46.8
          units: km
    - name: Eden
      region: SD
      lat: '45.6168'
      long: "-97.4196"
      closest_rate_centers:
      - name: Roslyn
        distance:
          value: 13.93
          units: km
      - name: Sisseton
        distance:
          value: 29.09
          units: km
      - name: Veblen
        distance:
          value: 29.75
          units: km
    - name: Edgemont
      region: SD
      lat: '43.2973'
      long: "-103.8323"
      closest_rate_centers:
      - name: Edgemont
        distance:
          value: 1.53
          units: km
      - name: Hot Springs
        distance:
          value: 32.14
          units: km
      - name: Ardmore
        distance:
          value: 33.72
          units: km
    - name: Egan
      region: SD
      lat: '44.0004'
      long: "-96.6485"
      closest_rate_centers:
      - name: Flandreau
        distance:
          value: 6.46
          units: km
      - name: Colman
        distance:
          value: 13.73
          units: km
      - name: West Jasper
        distance:
          value: 19.91
          units: km
    - name: Elk Point
      region: SD
      lat: '42.6812'
      long: "-96.6805"
      closest_rate_centers:
      - name: Elk Point
        distance:
          value: 0.54
          units: km
      - name: Jefferson
        distance:
          value: 13.23
          units: km
      - name: West Akron
        distance:
          value: 19.81
          units: km
    - name: Elkton
      region: SD
      lat: '44.2351'
      long: "-96.4794"
      closest_rate_centers:
      - name: Elkton
        distance:
          value: 0.26
          units: km
      - name: Flandreau
        distance:
          value: 23.38
          units: km
      - name: White
        distance:
          value: 25.88
          units: km
    - name: Emery
      region: SD
      lat: '43.6020'
      long: "-97.6195"
      closest_rate_centers:
      - name: Emery
        distance:
          value: 0.5
          units: km
      - name: Bridgewater
        distance:
          value: 11.03
          units: km
      - name: Spencer
        distance:
          value: 13.84
          units: km
    - name: Enemy Swim
      region: SD
      lat: '45.4319'
      long: "-97.2868"
      closest_rate_centers:
      - name: Waubay
        distance:
          value: 11.04
          units: km
      - name: Roslyn
        distance:
          value: 17.66
          units: km
      - name: Webster
        distance:
          value: 21.62
          units: km
    - name: Erwin
      region: SD
      lat: '44.4880'
      long: "-97.4409"
      closest_rate_centers:
      - name: Lake Preston
        distance:
          value: 14.15
          units: km
      - name: De Smet
        distance:
          value: 15.13
          units: km
      - name: Lake Norden
        distance:
          value: 21.37
          units: km
    - name: Estelline
      region: SD
      lat: '44.5768'
      long: "-96.9011"
      closest_rate_centers:
      - name: Estelline
        distance:
          value: 0.07
          units: km
      - name: Castlewood
        distance:
          value: 19.46
          units: km
      - name: Toronto
        distance:
          value: 19.59
          units: km
    - name: Ethan
      region: SD
      lat: '43.5463'
      long: "-97.9834"
      closest_rate_centers:
      - name: Ethan
        distance:
          value: 0.39
          units: km
      - name: Parkston
        distance:
          value: 17.44
          units: km
      - name: Mitchell
        distance:
          value: 18.32
          units: km
    - name: Eureka
      region: SD
      lat: '45.7707'
      long: "-99.6207"
      closest_rate_centers:
      - name: Eureka
        distance:
          value: 0.5
          units: km
      - name: South Venturia
        distance:
          value: 17.3
          units: km
      - name: Hosmer
        distance:
          value: 23.85
          units: km
    - name: Evergreen Colony
      region: SD
      lat: '45.1217'
      long: "-99.0425"
      closest_rate_centers:
      - name: Cresbard
        distance:
          value: 9.19
          units: km
      - name: Faulkton
        distance:
          value: 12.06
          units: km
      - name: Orient
        distance:
          value: 25.0
          units: km
    - name: Fairburn
      region: SD
      lat: '43.6869'
      long: "-103.2087"
      closest_rate_centers:
      - name: Hermosa
        distance:
          value: 16.5
          units: km
      - name: Buffalo Gap
        distance:
          value: 22.95
          units: km
      - name: Keystone
        distance:
          value: 28.45
          units: km
    - name: Fairfax
      region: SD
      lat: '43.0281'
      long: "-98.8890"
      closest_rate_centers:
      - name: Bonesteel
        distance:
          value: 7.77
          units: km
      - name: North Naper
        distance:
          value: 22.18
          units: km
      - name: North Bristow
        distance:
          value: 24.82
          units: km
    - name: Fairview
      region: SD
      lat: '43.2221'
      long: "-96.4876"
      closest_rate_centers:
      - name: Hudson
        distance:
          value: 10.4
          units: km
      - name: Canton
        distance:
          value: 12.34
          units: km
      - name: Alcester
        distance:
          value: 25.01
          units: km
    - name: Faith
      region: SD
      lat: '45.0258'
      long: "-102.0363"
      closest_rate_centers:
      - name: Faith Rural
        distance:
          value: 0.53
          units: km
      - name: Faith
        distance:
          value: 0.53
          units: km
      - name: Dupree
        distance:
          value: 33.66
          units: km
      - name: Maurine
        distance:
          value: 43.46
          units: km
    - name: Farmer
      region: SD
      lat: '43.7252'
      long: "-97.6890"
      closest_rate_centers:
      - name: Spencer
        distance:
          value: 7.82
          units: km
      - name: Alexandria
        distance:
          value: 10.44
          units: km
      - name: Emery
        distance:
          value: 14.83
          units: km
    - name: Faulkton
      region: SD
      lat: '45.0342'
      long: "-99.1266"
      closest_rate_centers:
      - name: Faulkton
        distance:
          value: 0.66
          units: km
      - name: Orient
        distance:
          value: 15.3
          units: km
      - name: Cresbard
        distance:
          value: 20.72
          units: km
    - name: Fedora
      region: SD
      lat: '44.0067'
      long: "-97.7895"
      closest_rate_centers:
      - name: Artesian
        distance:
          value: 10.64
          units: km
      - name: Howard
        distance:
          value: 21.1
          units: km
      - name: Forestburg
        distance:
          value: 25.6
          units: km
    - name: Ferney
      region: SD
      lat: '45.3346'
      long: "-98.0939"
      closest_rate_centers:
      - name: Ferney
        distance:
          value: 0.55
          units: km
      - name: Groton
        distance:
          value: 13.06
          units: km
      - name: Andover
        distance:
          value: 16.85
          units: km
    - name: Flandreau
      region: SD
      lat: '44.0465'
      long: "-96.5983"
      closest_rate_centers:
      - name: Flandreau
        distance:
          value: 0.96
          units: km
      - name: Colman
        distance:
          value: 19.11
          units: km
      - name: West Jasper
        distance:
          value: 21.95
          units: km
    - name: Florence
      region: SD
      lat: '45.0548'
      long: "-97.3263"
      closest_rate_centers:
      - name: Florence
        distance:
          value: 0.28
          units: km
      - name: Watertown
        distance:
          value: 24.74
          units: km
      - name: Bradley
        distance:
          value: 25.1
          units: km
    - name: Fordham Colony
      region: SD
      lat: '44.7678'
      long: "-97.9068"
      closest_rate_centers:
      - name: Clark
        distance:
          value: 18.04
          units: km
      - name: Doland
        distance:
          value: 20.42
          units: km
      - name: Bryant-Willow Lake
        distance:
          value: 26.27
          units: km
    - name: Forestburg
      region: SD
      lat: '44.0212'
      long: "-98.1032"
      closest_rate_centers:
      - name: Forestburg
        distance:
          value: 0.73
          units: km
      - name: Woonsocket
        distance:
          value: 13.6
          units: km
      - name: Letcher
        distance:
          value: 13.83
          units: km
    - name: Fort Pierre
      region: SD
      lat: '44.3680'
      long: "-100.3831"
      closest_rate_centers:
      - name: Pierre
        distance:
          value: 2.4
          units: km
      - name: Blunt
        distance:
          value: 35.25
          units: km
      - name: Onida
        distance:
          value: 45.48
          units: km
    - name: Fort Thompson
      region: SD
      lat: '44.0527'
      long: "-99.4079"
      closest_rate_centers:
      - name: Fort Thompson
        distance:
          value: 3.57
          units: km
      - name: Reliance
        distance:
          value: 24.89
          units: km
      - name: Chamberlain
        distance:
          value: 27.73
          units: km
      - name: Chamberlain (Midstate Telecom)
        distance:
          value: 27.73
          units: km
    - name: Frankfort
      region: SD
      lat: '44.8777'
      long: "-98.3092"
      closest_rate_centers:
      - name: Doland
        distance:
          value: 16.68
          units: km
      - name: Redfield
        distance:
          value: 16.8
          units: km
      - name: Tulare
        distance:
          value: 21.86
          units: km
    - name: Frederick
      region: SD
      lat: '45.8319'
      long: "-98.5067"
      closest_rate_centers:
      - name: Frederick
        distance:
          value: 0.16
          units: km
      - name: South Ellendale
        distance:
          value: 7.75
          units: km
      - name: South Guelph
        distance:
          value: 14.48
          units: km
    - name: Freeman
      region: SD
      lat: '43.3475'
      long: "-97.4306"
      closest_rate_centers:
      - name: Freeman
        distance:
          value: 0.49
          units: km
      - name: Marion
        distance:
          value: 16.26
          units: km
      - name: Menno
        distance:
          value: 17.18
          units: km
    - name: Fruitdale
      region: SD
      lat: '44.6692'
      long: "-103.6955"
      closest_rate_centers:
      - name: Belle Fourche
        distance:
          value: 12.21
          units: km
      - name: Nisland
        distance:
          value: 12.42
          units: km
      - name: Newell
        distance:
          value: 22.99
          units: km
    - name: Fulton
      region: SD
      lat: '43.7288'
      long: "-97.8226"
      closest_rate_centers:
      - name: Alexandria
        distance:
          value: 8.25
          units: km
      - name: Mitchell
        distance:
          value: 16.17
          units: km
      - name: Spencer
        distance:
          value: 18.56
          units: km
    - name: Gann Valley
      region: SD
      lat: '44.0336'
      long: "-98.9887"
      closest_rate_centers:
      - name: Gann Valley
        distance:
          value: 0.29
          units: km
      - name: Kimball
        distance:
          value: 31.49
          units: km
      - name: Pukwana
        distance:
          value: 32.82
          units: km
    - name: Garden City
      region: SD
      lat: '44.9593'
      long: "-97.5804"
      closest_rate_centers:
      - name: Clark
        distance:
          value: 15.36
          units: km
      - name: Bradley
        distance:
          value: 15.48
          units: km
      - name: Florence
        distance:
          value: 22.74
          units: km
    - name: Garretson
      region: SD
      lat: '43.7147'
      long: "-96.5028"
      closest_rate_centers:
      - name: Garretson
        distance:
          value: 0.57
          units: km
      - name: Brandon
        distance:
          value: 14.93
          units: km
      - name: Valley Springs
        distance:
          value: 15.85
          units: km
    - name: Gary
      region: SD
      lat: '44.7941'
      long: "-96.4574"
      closest_rate_centers:
      - name: Gary
        distance:
          value: 0.46
          units: km
      - name: Clear Lake
        distance:
          value: 18.49
          units: km
      - name: Brandt
        distance:
          value: 19.44
          units: km
    - name: Gayville
      region: SD
      lat: '42.8889'
      long: "-97.1738"
      closest_rate_centers:
      - name: Wakonda
        distance:
          value: 14.06
          units: km
      - name: Yankton
        distance:
          value: 18.01
          units: km
      - name: Irene
        distance:
          value: 21.93
          units: km
    - name: Geddes
      region: SD
      lat: '43.2540'
      long: "-98.6974"
      closest_rate_centers:
      - name: Lake Andes
        distance:
          value: 16.6
          units: km
      - name: Platte
        distance:
          value: 18.1
          units: km
      - name: New Holland
        distance:
          value: 20.63
          units: km
    - name: Gettysburg
      region: SD
      lat: '45.0060'
      long: "-99.9539"
      closest_rate_centers:
      - name: Gettysburg
        distance:
          value: 0.38
          units: km
      - name: Lebanon
        distance:
          value: 16.31
          units: km
      - name: Hoven
        distance:
          value: 29.89
          units: km
    - name: Glendale Colony
      region: SD
      lat: '44.7979'
      long: "-98.2868"
      closest_rate_centers:
      - name: Doland
        distance:
          value: 18.13
          units: km
      - name: Tulare
        distance:
          value: 18.68
          units: km
      - name: Redfield
        distance:
          value: 20.43
          units: km
    - name: Glenham
      region: SD
      lat: '45.5330'
      long: "-100.2711"
      closest_rate_centers:
      - name: Glenham
        distance:
          value: 0.15
          units: km
      - name: Mobridge
        distance:
          value: 12.73
          units: km
      - name: Selby
        distance:
          value: 18.78
          units: km
    - name: Golden View Colony
      region: SD
      lat: '43.6954'
      long: "-97.4487"
      closest_rate_centers:
      - name: Salem
        distance:
          value: 6.27
          units: km
      - name: Spencer
        distance:
          value: 11.95
          units: km
      - name: Bridgewater
        distance:
          value: 16.76
          units: km
    - name: Goodwin
      region: SD
      lat: '44.8775'
      long: "-96.8497"
      closest_rate_centers:
      - name: Goodwin
        distance:
          value: 0.19
          units: km
      - name: Clear Lake
        distance:
          value: 19.06
          units: km
      - name: Watertown
        distance:
          value: 20.03
          units: km
    - name: Graceville Colony
      region: SD
      lat: '43.9289'
      long: "-97.2840"
      closest_rate_centers:
      - name: Winfred
        distance:
          value: 10.22
          units: km
      - name: Center
        distance:
          value: 11.24
          units: km
      - name: Madison
        distance:
          value: 16.27
          units: km
    - name: Grass Ranch Colony
      region: SD
      lat: '43.6500'
      long: "-98.8836"
      closest_rate_centers:
      - name: Kimball
        distance:
          value: 12.66
          units: km
      - name: White Lake
        distance:
          value: 16.57
          units: km
      - name: Academy
        distance:
          value: 26.27
          units: km
    - name: Grassland Colony
      region: SD
      lat: '45.6682'
      long: "-98.7965"
      closest_rate_centers:
      - name: Leola
        distance:
          value: 12.15
          units: km
      - name: South Forbes
        distance:
          value: 24.26
          units: km
      - name: Frederick
        distance:
          value: 28.77
          units: km
    - name: Green Grass
      region: SD
      lat: '45.1714'
      long: "-101.2573"
      closest_rate_centers:
      - name: Eagle Butte
        distance:
          value: 18.9
          units: km
      - name: Isabel
        distance:
          value: 27.89
          units: km
      - name: Dupree
        distance:
          value: 30.83
          units: km
    - name: Green Valley
      region: SD
      lat: '44.0390'
      long: "-103.1116"
      closest_rate_centers:
      - name: Rapid City
        distance:
          value: 10.14
          units: km
      - name: New Underwood
        distance:
          value: 23.12
          units: km
      - name: Hermosa
        distance:
          value: 23.59
          units: km
    - name: Greenwood Colony
      region: SD
      lat: '43.2145'
      long: "-98.1536"
      closest_rate_centers:
      - name: Delmont
        distance:
          value: 6.12
          units: km
      - name: Tripp
        distance:
          value: 15.15
          units: km
      - name: Wagner
        distance:
          value: 18.79
          units: km
    - name: Gregory
      region: SD
      lat: '43.2300'
      long: "-99.4208"
      closest_rate_centers:
      - name: Gregory
        distance:
          value: 1.23
          units: km
      - name: Burke
        distance:
          value: 11.1
          units: km
      - name: North Naper
        distance:
          value: 30.39
          units: km
    - name: Grenville
      region: SD
      lat: '45.4670'
      long: "-97.3901"
      closest_rate_centers:
      - name: Roslyn
        distance:
          value: 8.7
          units: km
      - name: Waubay
        distance:
          value: 16.56
          units: km
      - name: Webster
        distance:
          value: 18.65
          units: km
    - name: Groton
      region: SD
      lat: '45.4517'
      long: "-98.1000"
      closest_rate_centers:
      - name: Groton
        distance:
          value: 0.11
          units: km
      - name: Ferney
        distance:
          value: 13.14
          units: km
      - name: Andover
        distance:
          value: 15.88
          units: km
    - name: Hamill
      region: SD
      lat: '43.5939'
      long: "-99.6907"
      closest_rate_centers:
      - name: Winner
        distance:
          value: 27.88
          units: km
      - name: Reliance
        distance:
          value: 32.33
          units: km
      - name: Witten
        distance:
          value: 36.34
          units: km
    - name: Harrisburg
      region: SD
      lat: '43.4324'
      long: "-96.7041"
      closest_rate_centers:
      - name: Harrisburg-Tea
        distance:
          value: 2.08
          units: km
      - name: Sioux Falls
        distance:
          value: 12.21
          units: km
      - name: Worthing
        distance:
          value: 13.12
          units: km
    - name: Harrison
      region: SD
      lat: '43.4310'
      long: "-98.5268"
      closest_rate_centers:
      - name: New Holland
        distance:
          value: 5.77
          units: km
      - name: Corsica
        distance:
          value: 9.59
          units: km
      - name: Armour
        distance:
          value: 19.1
          units: km
    - name: Harrold
      region: SD
      lat: '44.5258'
      long: "-99.7416"
      closest_rate_centers:
      - name: Harrold
        distance:
          value: 0.05
          units: km
      - name: Blunt
        distance:
          value: 19.82
          units: km
      - name: Highmore
        distance:
          value: 23.02
          units: km
    - name: Hartford
      region: SD
      lat: '43.6210'
      long: "-96.9424"
      closest_rate_centers:
      - name: Hartford
        distance:
          value: 0.69
          units: km
      - name: Wall Lake
        distance:
          value: 8.74
          units: km
      - name: Humboldt
        distance:
          value: 10.74
          units: km
    - name: Hayti
      region: SD
      lat: '44.6580'
      long: "-97.2049"
      closest_rate_centers:
      - name: Hayti
        distance:
          value: 0.22
          units: km
      - name: Lake Norden
        distance:
          value: 8.1
          units: km
      - name: Castlewood
        distance:
          value: 15.42
          units: km
    - name: Hazel
      region: SD
      lat: '44.7582'
      long: "-97.3810"
      closest_rate_centers:
      - name: Hayti
        distance:
          value: 17.99
          units: km
      - name: Lake Norden
        distance:
          value: 23.6
          units: km
      - name: Bryant-Willow Lake
        distance:
          value: 25.46
          units: km
    - name: Hecla
      region: SD
      lat: '45.8822'
      long: "-98.1520"
      closest_rate_centers:
      - name: Hecla
        distance:
          value: 0.18
          units: km
      - name: Houghton
        distance:
          value: 13.78
          units: km
      - name: South Guelph
        distance:
          value: 16.81
          units: km
    - name: Henry
      region: SD
      lat: '44.8809'
      long: "-97.4616"
      closest_rate_centers:
      - name: Clark
        distance:
          value: 21.46
          units: km
      - name: Florence
        distance:
          value: 22.31
          units: km
      - name: Bradley
        distance:
          value: 27.37
          units: km
    - name: Hermosa
      region: SD
      lat: '43.8399'
      long: "-103.1930"
      closest_rate_centers:
      - name: Hermosa
        distance:
          value: 0.58
          units: km
      - name: Keystone
        distance:
          value: 19.07
          units: km
      - name: Rapid City
        distance:
          value: 27.28
          units: km
    - name: Herreid
      region: SD
      lat: '45.8378'
      long: "-100.0748"
      closest_rate_centers:
      - name: Herreid
        distance:
          value: 0.44
          units: km
      - name: Mound City
        distance:
          value: 11.74
          units: km
      - name: Pollock
        distance:
          value: 17.73
          units: km
    - name: Herrick
      region: SD
      lat: '43.1150'
      long: "-99.1882"
      closest_rate_centers:
      - name: North Naper
        distance:
          value: 9.41
          units: km
      - name: Burke
        distance:
          value: 11.83
          units: km
      - name: Bonesteel
        distance:
          value: 19.74
          units: km
    - name: Hetland
      region: SD
      lat: '44.3772'
      long: "-97.2347"
      closest_rate_centers:
      - name: Arlington
        distance:
          value: 7.85
          units: km
      - name: Lake Preston
        distance:
          value: 11.27
          units: km
      - name: Sinai
        distance:
          value: 21.52
          units: km
    - name: Highmore
      region: SD
      lat: '44.5214'
      long: "-99.4394"
      closest_rate_centers:
      - name: Highmore
        distance:
          value: 1.05
          units: km
      - name: Ree Heights
        distance:
          value: 19.0
          units: km
      - name: Harrold
        distance:
          value: 23.94
          units: km
    - name: Hill City
      region: SD
      lat: '43.9337'
      long: "-103.5694"
      closest_rate_centers:
      - name: Hill City
        distance:
          value: 0.43
          units: km
      - name: Keystone
        distance:
          value: 12.86
          units: km
      - name: Custer
        distance:
          value: 18.5
          units: km
    - name: Hillcrest Colony
      region: SD
      lat: '44.9425'
      long: "-97.6672"
      closest_rate_centers:
      - name: Clark
        distance:
          value: 9.25
          units: km
      - name: Bradley
        distance:
          value: 16.7
          units: km
      - name: Florence
        distance:
          value: 29.67
          units: km
    - name: Hillside Colony
      region: SD
      lat: '44.7382'
      long: "-98.0473"
      closest_rate_centers:
      - name: Doland
        distance:
          value: 17.5
          units: km
      - name: Clark
        distance:
          value: 28.97
          units: km
      - name: Hitchcock
        distance:
          value: 31.14
          units: km
    - name: Hillsview
      region: SD
      lat: '45.6642'
      long: "-99.5607"
      closest_rate_centers:
      - name: Hosmer
        distance:
          value: 11.35
          units: km
      - name: Eureka
        distance:
          value: 13.23
          units: km
      - name: Bowdle
        distance:
          value: 25.09
          units: km
    - name: Hitchcock
      region: SD
      lat: '44.6294'
      long: "-98.4082"
      closest_rate_centers:
      - name: Hitchcock
        distance:
          value: 0.5
          units: km
      - name: Tulare
        distance:
          value: 14.92
          units: km
      - name: Wolsey
        distance:
          value: 24.9
          units: km
    - name: Horse Creek
      region: SD
      lat: '43.5330'
      long: "-100.7419"
      closest_rate_centers:
      - name: White River
        distance:
          value: 3.69
          units: km
      - name: Wood
        distance:
          value: 21.32
          units: km
      - name: Mission
        distance:
          value: 26.66
          units: km
    - name: Hosmer
      region: SD
      lat: '45.5788'
      long: "-99.4736"
      closest_rate_centers:
      - name: Hosmer
        distance:
          value: 0.47
          units: km
      - name: Roscoe
        distance:
          value: 18.14
          units: km
      - name: Bowdle
        distance:
          value: 20.43
          units: km
    - name: Hot Springs
      region: SD
      lat: '43.4195'
      long: "-103.4657"
      closest_rate_centers:
      - name: Hot Springs
        distance:
          value: 1.13
          units: km
      - name: Buffalo Gap
        distance:
          value: 15.14
          units: km
      - name: Oral
        distance:
          value: 16.13
          units: km
    - name: Hoven
      region: SD
      lat: '45.2416'
      long: "-99.7775"
      closest_rate_centers:
      - name: Hoven
        distance:
          value: 0.34
          units: km
      - name: Tolstoy
        distance:
          value: 13.0
          units: km
      - name: Lebanon
        distance:
          value: 19.26
          units: km
    - name: Howard
      region: SD
      lat: '44.0117'
      long: "-97.5246"
      closest_rate_centers:
      - name: Howard
        distance:
          value: 0.28
          units: km
      - name: Winfred
        distance:
          value: 12.66
          units: km
      - name: Canova
        distance:
          value: 14.54
          units: km
    - name: Hudson
      region: SD
      lat: '43.1301'
      long: "-96.4556"
      closest_rate_centers:
      - name: Hudson
        distance:
          value: 0.24
          units: km
      - name: West Hawarden
        distance:
          value: 17.97
          units: km
      - name: Alcester
        distance:
          value: 18.63
          units: km
    - name: Humboldt
      region: SD
      lat: '43.6447'
      long: "-97.0745"
      closest_rate_centers:
      - name: Humboldt
        distance:
          value: 0.65
          units: km
      - name: Hartford
        distance:
          value: 10.54
          units: km
      - name: Wall Lake
        distance:
          value: 15.17
          units: km
    - name: Hurley
      region: SD
      lat: '43.2794'
      long: "-97.0894"
      closest_rate_centers:
      - name: Hurley
        distance:
          value: 0.64
          units: km
      - name: Viborg
        distance:
          value: 12.47
          units: km
      - name: Parker
        distance:
          value: 13.08
          units: km
    - name: Huron
      region: SD
      lat: '44.3623'
      long: "-98.2094"
      closest_rate_centers:
      - name: Huron
        distance:
          value: 0.58
          units: km
      - name: Cavour
        distance:
          value: 14.18
          units: km
      - name: Wolsey
        distance:
          value: 21.67
          units: km
    - name: Huron Colony
      region: SD
      lat: '44.5634'
      long: "-98.2055"
      closest_rate_centers:
      - name: Hitchcock
        distance:
          value: 17.39
          units: km
      - name: Huron
        distance:
          value: 22.84
          units: km
      - name: Cavour
        distance:
          value: 24.91
          units: km
    - name: Hutterville Colony
      region: SD
      lat: '45.2663'
      long: "-98.2115"
      closest_rate_centers:
      - name: Ferney
        distance:
          value: 11.44
          units: km
      - name: Conde
        distance:
          value: 14.84
          units: km
      - name: Groton
        distance:
          value: 22.45
          units: km
    - name: Ideal
      region: SD
      lat: '43.5400'
      long: "-99.9218"
      closest_rate_centers:
      - name: Witten
        distance:
          value: 17.56
          units: km
      - name: Winner
        distance:
          value: 19.0
          units: km
      - name: Kennebec
        distance:
          value: 40.55
          units: km
    - name: Interior
      region: SD
      lat: '43.7269'
      long: "-101.9837"
      closest_rate_centers:
      - name: Quinn
        distance:
          value: 31.68
          units: km
      - name: Wall
        distance:
          value: 35.86
          units: km
      - name: Kyle
        distance:
          value: 36.38
          units: km
    - name: Ipswich
      region: SD
      lat: '45.4435'
      long: "-99.0300"
      closest_rate_centers:
      - name: Ipswich
        distance:
          value: 1.0
          units: km
      - name: Roscoe
        distance:
          value: 23.74
          units: km
      - name: Cresbard
        distance:
          value: 30.64
          units: km
    - name: Irene
      region: SD
      lat: '43.0837'
      long: "-97.1576"
      closest_rate_centers:
      - name: Irene
        distance:
          value: 0.27
          units: km
      - name: Wakonda
        distance:
          value: 9.53
          units: km
      - name: Viborg
        distance:
          value: 11.19
          units: km
    - name: Iroquois
      region: SD
      lat: '44.3679'
      long: "-97.8495"
      closest_rate_centers:
      - name: Iroquois
        distance:
          value: 0.33
          units: km
      - name: Cavour
        distance:
          value: 14.55
          units: km
      - name: De Smet
        distance:
          value: 22.95
          units: km
    - name: Isabel
      region: SD
      lat: '45.3939'
      long: "-101.4325"
      closest_rate_centers:
      - name: Isabel
        distance:
          value: 0.4
          units: km
      - name: Timber Lake
        distance:
          value: 27.36
          units: km
      - name: Dupree
        distance:
          value: 40.86
          units: km
    - name: Jamesville Colony
      region: SD
      lat: '43.1015'
      long: "-97.4818"
      closest_rate_centers:
      - name: Lesterville
        distance:
          value: 11.1
          units: km
      - name: Menno
        distance:
          value: 17.39
          units: km
      - name: Flyger
        distance:
          value: 18.49
          units: km
    - name: Java
      region: SD
      lat: '45.5038'
      long: "-99.8839"
      closest_rate_centers:
      - name: Selby
        distance:
          value: 11.62
          units: km
      - name: Bowdle
        distance:
          value: 18.48
          units: km
      - name: Mound City
        distance:
          value: 29.26
          units: km
    - name: Jefferson
      region: SD
      lat: '42.6043'
      long: "-96.5661"
      closest_rate_centers:
      - name: Jefferson
        distance:
          value: 0.69
          units: km
      - name: North Sioux City
        distance:
          value: 11.85
          units: km
      - name: Elk Point
        distance:
          value: 13.21
          units: km
    - name: Johnson Siding
      region: SD
      lat: '44.0846'
      long: "-103.4380"
      closest_rate_centers:
      - name: Rapid City
        distance:
          value: 17.28
          units: km
      - name: Hill City
        distance:
          value: 20.05
          units: km
      - name: Keystone
        distance:
          value: 21.39
          units: km
    - name: Kadoka
      region: SD
      lat: '43.8325'
      long: "-101.5081"
      closest_rate_centers:
      - name: Kadoka
        distance:
          value: 0.54
          units: km
      - name: Belvidere
        distance:
          value: 17.98
          units: km
      - name: Philip
        distance:
          value: 26.42
          units: km
    - name: Kaylor
      region: SD
      lat: '43.1926'
      long: "-97.8405"
      closest_rate_centers:
      - name: Tripp
        distance:
          value: 10.94
          units: km
      - name: Scotland
        distance:
          value: 10.99
          units: km
      - name: Menno
        distance:
          value: 21.55
          units: km
    - name: Kenel
      region: SD
      lat: '45.8545'
      long: "-100.4592"
      closest_rate_centers:
      - name: Pollock
        distance:
          value: 15.09
          units: km
      - name: McLaughlin
        distance:
          value: 27.82
          units: km
      - name: Herreid
        distance:
          value: 30.13
          units: km
    - name: Kennebec
      region: SD
      lat: '43.9035'
      long: "-99.8619"
      closest_rate_centers:
      - name: Kennebec
        distance:
          value: 0.29
          units: km
      - name: Presho
        distance:
          value: 15.71
          units: km
      - name: Reliance
        distance:
          value: 21.1
          units: km
    - name: Keystone
      region: SD
      lat: '43.8949'
      long: "-103.4268"
      closest_rate_centers:
      - name: Keystone
        distance:
          value: 0.65
          units: km
      - name: Hill City
        distance:
          value: 12.61
          units: km
      - name: Custer
        distance:
          value: 19.41
          units: km
    - name: Kidder
      region: SD
      lat: '45.8817'
      long: "-97.7139"
      closest_rate_centers:
      - name: South Forman
        distance:
          value: 7.68
          units: km
      - name: Britton
        distance:
          value: 9.71
          units: km
      - name: Langford
        distance:
          value: 31.91
          units: km
    - name: Kimball
      region: SD
      lat: '43.7468'
      long: "-98.9569"
      closest_rate_centers:
      - name: Kimball
        distance:
          value: 0.53
          units: km
      - name: Pukwana
        distance:
          value: 18.71
          units: km
      - name: White Lake
        distance:
          value: 19.59
          units: km
    - name: Kranzburg
      region: SD
      lat: '44.8888'
      long: "-96.9092"
      closest_rate_centers:
      - name: Goodwin
        distance:
          value: 4.83
          units: km
      - name: Watertown
        distance:
          value: 15.25
          units: km
      - name: Castlewood
        distance:
          value: 20.76
          units: km
    - name: Kyle
      region: SD
      lat: '43.4245'
      long: "-102.1801"
      closest_rate_centers:
      - name: Kyle
        distance:
          value: 0.78
          units: km
      - name: North Gordon
        distance:
          value: 43.72
          units: km
      - name: Martin
        distance:
          value: 44.97
          units: km
    - name: La Plant
      region: SD
      lat: '45.1353'
      long: "-100.6648"
      closest_rate_centers:
      - name: Laplant
        distance:
          value: 2.91
          units: km
      - name: Timber Lake
        distance:
          value: 46.74
          units: km
      - name: Eagle Butte
        distance:
          value: 47.66
          units: km
    - name: Lake Andes
      region: SD
      lat: '43.1560'
      long: "-98.5361"
      closest_rate_centers:
      - name: Lake Andes
        distance:
          value: 0.49
          units: km
      - name: North Bristow
        distance:
          value: 15.1
          units: km
      - name: Wagner
        distance:
          value: 20.92
          units: km
    - name: Lake City
      region: SD
      lat: '45.7248'
      long: "-97.4139"
      closest_rate_centers:
      - name: Veblen
        distance:
          value: 18.64
          units: km
      - name: South Lidgerwood
        distance:
          value: 24.29
          units: km
      - name: South Forman
        distance:
          value: 25.15
          units: km
    - name: Lake Madison
      region: SD
      lat: '43.9593'
      long: "-97.0210"
      closest_rate_centers:
      - name: Wentworth
        distance:
          value: 5.62
          units: km
      - name: Madison
        distance:
          value: 9.37
          units: km
      - name: Chester
        distance:
          value: 10.72
          units: km
    - name: Lake Norden
      region: SD
      lat: '44.5799'
      long: "-97.2109"
      closest_rate_centers:
      - name: Lake Norden
        distance:
          value: 0.62
          units: km
      - name: Hayti
        distance:
          value: 8.73
          units: km
      - name: Castlewood
        distance:
          value: 21.32
          units: km
    - name: Lake Poinsett
      region: SD
      lat: '44.5664'
      long: "-97.0798"
      closest_rate_centers:
      - name: Lake Norden
        distance:
          value: 10.38
          units: km
      - name: Hayti
        distance:
          value: 14.07
          units: km
      - name: Estelline
        distance:
          value: 14.14
          units: km
    - name: Lake Preston
      region: SD
      lat: '44.3617'
      long: "-97.3760"
      closest_rate_centers:
      - name: Lake Preston
        distance:
          value: 0.86
          units: km
      - name: De Smet
        distance:
          value: 14.93
          units: km
      - name: Arlington
        distance:
          value: 18.98
          units: km
    - name: Lakeview Colony
      region: SD
      lat: '43.2202'
      long: "-98.4564"
      closest_rate_centers:
      - name: Lake Andes
        distance:
          value: 9.92
          units: km
      - name: Armour
        distance:
          value: 13.62
          units: km
      - name: Wagner
        distance:
          value: 19.93
          units: km
    - name: Lane
      region: SD
      lat: '44.0697'
      long: "-98.4246"
      closest_rate_centers:
      - name: Wessington Springs
        distance:
          value: 12.38
          units: km
      - name: Woonsocket
        distance:
          value: 12.67
          units: km
      - name: Alpena
        distance:
          value: 13.38
          units: km
    - name: Langford
      region: SD
      lat: '45.6024'
      long: "-97.8303"
      closest_rate_centers:
      - name: Langford
        distance:
          value: 0.48
          units: km
      - name: Pierpont
        distance:
          value: 11.56
          units: km
      - name: Claremont
        distance:
          value: 16.23
          units: km
    - name: Lantry
      region: SD
      lat: '45.0183'
      long: "-101.4328"
      closest_rate_centers:
      - name: Dupree
        distance:
          value: 14.25
          units: km
      - name: Eagle Butte
        distance:
          value: 15.15
          units: km
      - name: Isabel
        distance:
          value: 41.39
          units: km
    - name: Lead
      region: SD
      lat: '44.3528'
      long: "-103.7671"
      closest_rate_centers:
      - name: Lead
        distance:
          value: 0.28
          units: km
      - name: Deadwood
        distance:
          value: 6.0
          units: km
      - name: Whitewood
        distance:
          value: 15.99
          units: km
    - name: Lebanon
      region: SD
      lat: '45.0688'
      long: "-99.7664"
      closest_rate_centers:
      - name: Lebanon
        distance:
          value: 0.04
          units: km
      - name: Gettysburg
        distance:
          value: 16.21
          units: km
      - name: Tolstoy
        distance:
          value: 19.27
          units: km
    - name: Lemmon
      region: SD
      lat: '45.9383'
      long: "-102.1598"
      closest_rate_centers:
      - name: Lemmon
        distance:
          value: 0.79
          units: km
      - name: Morristown
        distance:
          value: 33.9
          units: km
      - name: South Hettinger
        distance:
          value: 34.31
          units: km
    - name: Lennox
      region: SD
      lat: '43.3495'
      long: "-96.8937"
      closest_rate_centers:
      - name: Lennox
        distance:
          value: 0.56
          units: km
      - name: Worthing
        distance:
          value: 10.8
          units: km
      - name: Harrisburg-Tea
        distance:
          value: 16.93
          units: km
    - name: Leola
      region: SD
      lat: '45.7212'
      long: "-98.9386"
      closest_rate_centers:
      - name: Leola
        distance:
          value: 0.9
          units: km
      - name: South Forbes
        distance:
          value: 22.6
          units: km
      - name: Long Lake
        distance:
          value: 25.94
          units: km
    - name: Lesterville
      region: SD
      lat: '43.0385'
      long: "-97.5905"
      closest_rate_centers:
      - name: Lesterville
        distance:
          value: 0.62
          units: km
      - name: Tabor
        distance:
          value: 11.44
          units: km
      - name: Scotland
        distance:
          value: 16.14
          units: km
    - name: Letcher
      region: SD
      lat: '43.8995'
      long: "-98.1442"
      closest_rate_centers:
      - name: Letcher
        distance:
          value: 1.04
          units: km
      - name: Forestburg
        distance:
          value: 13.28
          units: km
      - name: Woonsocket
        distance:
          value: 19.55
          units: km
    - name: Little Eagle
      region: SD
      lat: '45.6832'
      long: "-100.7966"
      closest_rate_centers:
      - name: McLaughlin
        distance:
          value: 14.84
          units: km
      - name: Mobridge
        distance:
          value: 32.64
          units: km
      - name: Timber Lake
        distance:
          value: 35.81
          units: km
    - name: Long Hollow
      region: SD
      lat: '45.6823'
      long: "-97.1611"
      closest_rate_centers:
      - name: Sisseton
        distance:
          value: 8.62
          units: km
      - name: Claire City
        distance:
          value: 20.28
          units: km
      - name: Peever
        distance:
          value: 22.02
          units: km
    - name: Long Lake
      region: SD
      lat: '45.8567'
      long: "-99.2058"
      closest_rate_centers:
      - name: Long Lake
        distance:
          value: 0.33
          units: km
      - name: South Nelvik
        distance:
          value: 7.38
          units: km
      - name: South Ashley
        distance:
          value: 14.14
          units: km
    - name: Long Lake Colony
      region: SD
      lat: '45.6040'
      long: "-98.8253"
      closest_rate_centers:
      - name: Leola
        distance:
          value: 15.79
          units: km
      - name: Ipswich
        distance:
          value: 23.38
          units: km
      - name: Aberdeen
        distance:
          value: 30.8
          units: km
    - name: Loomis
      region: SD
      lat: '43.7931'
      long: "-98.1040"
      closest_rate_centers:
      - name: Mitchell
        distance:
          value: 11.48
          units: km
      - name: Letcher
        distance:
          value: 11.92
          units: km
      - name: Mount Vernon
        distance:
          value: 14.95
          units: km
    - name: Lower Brule
      region: SD
      lat: '44.0742'
      long: "-99.5838"
      closest_rate_centers:
      - name: Fort Thompson
        distance:
          value: 11.54
          units: km
      - name: Reliance
        distance:
          value: 21.94
          units: km
      - name: Kennebec
        distance:
          value: 29.2
          units: km
    - name: Lowry
      region: SD
      lat: '45.3155'
      long: "-99.9812"
      closest_rate_centers:
      - name: Hoven
        distance:
          value: 18.16
          units: km
      - name: Selby
        distance:
          value: 21.62
          units: km
      - name: Bowdle
        distance:
          value: 29.18
          units: km
    - name: Lyons
      region: SD
      lat: '43.7249'
      long: "-96.8662"
      closest_rate_centers:
      - name: Colton
        distance:
          value: 8.32
          units: km
      - name: Crooks
        distance:
          value: 8.48
          units: km
      - name: Baltic
        distance:
          value: 11.24
          units: km
    - name: Madison
      region: SD
      lat: '44.0062'
      long: "-97.1085"
      closest_rate_centers:
      - name: Madison
        distance:
          value: 0.64
          units: km
      - name: Wentworth
        distance:
          value: 11.43
          units: km
      - name: Nunda
        distance:
          value: 18.18
          units: km
    - name: Manderson-White Horse Creek
      region: SD
      lat: '43.2350'
      long: "-102.4916"
      closest_rate_centers:
      - name: Pine Ridge
        distance:
          value: 24.23
          units: km
      - name: North Gordon
        distance:
          value: 29.72
          units: km
      - name: Kyle
        distance:
          value: 33.58
          units: km
    - name: Mansfield
      region: SD
      lat: '45.2465'
      long: "-98.5581"
      closest_rate_centers:
      - name: Mellette
        distance:
          value: 11.65
          units: km
      - name: Aberdeen
        distance:
          value: 25.27
          units: km
      - name: Cresbard
        distance:
          value: 31.85
          units: km
    - name: Marion
      region: SD
      lat: '43.4236'
      long: "-97.2605"
      closest_rate_centers:
      - name: Marion
        distance:
          value: 0.12
          units: km
      - name: Parker
        distance:
          value: 10.79
          units: km
      - name: Freeman
        distance:
          value: 16.23
          units: km
    - name: Martin
      region: SD
      lat: '43.1749'
      long: "-101.7323"
      closest_rate_centers:
      - name: Martin
        distance:
          value: 0.74
          units: km
      - name: Long Valley
        distance:
          value: 36.7
          units: km
      - name: North Gordon
        distance:
          value: 44.78
          units: km
    - name: Marty
      region: SD
      lat: '42.9965'
      long: "-98.4302"
      closest_rate_centers:
      - name: North Bristow
        distance:
          value: 12.87
          units: km
      - name: Wagner
        distance:
          value: 14.37
          units: km
      - name: Lake Andes
        distance:
          value: 19.99
          units: km
    - name: Marvin
      region: SD
      lat: '45.2605'
      long: "-96.9154"
      closest_rate_centers:
      - name: Summit
        distance:
          value: 10.5
          units: km
      - name: Wilmot
        distance:
          value: 16.88
          units: km
      - name: South Shore
        distance:
          value: 17.65
          units: km
    - name: Maverick Junction
      region: SD
      lat: '43.4087'
      long: "-103.3958"
      closest_rate_centers:
      - name: Hot Springs
        distance:
          value: 6.79
          units: km
      - name: Oral
        distance:
          value: 10.42
          units: km
      - name: Buffalo Gap
        distance:
          value: 11.78
          units: km
    - name: Maxwell Colony
      region: SD
      lat: '43.1825'
      long: "-97.6352"
      closest_rate_centers:
      - name: Menno
        distance:
          value: 7.65
          units: km
      - name: Scotland
        distance:
          value: 7.67
          units: km
      - name: Lesterville
        distance:
          value: 15.8
          units: km
    - name: Mayfield Colony
      region: SD
      lat: '44.6943'
      long: "-97.5811"
      closest_rate_centers:
      - name: Bryant-Willow Lake
        distance:
          value: 9.15
          units: km
      - name: Clark
        distance:
          value: 23.33
          units: km
      - name: Hayti
        distance:
          value: 30.23
          units: km
    - name: McIntosh
      region: SD
      lat: '45.9214'
      long: "-101.3491"
      closest_rate_centers:
      - name: McIntosh
        distance:
          value: 0.93
          units: km
      - name: Morristown
        distance:
          value: 28.84
          units: km
      - name: McLaughlin
        distance:
          value: 43.05
          units: km
    - name: McLaughlin
      region: SD
      lat: '45.8132'
      long: "-100.8108"
      closest_rate_centers:
      - name: McLaughlin
        distance:
          value: 0.41
          units: km
      - name: Pollock
        distance:
          value: 42.43
          units: km
      - name: Mobridge
        distance:
          value: 42.57
          units: km
    - name: Meadow View Addition
      region: SD
      lat: '43.6233'
      long: "-96.7023"
      closest_rate_centers:
      - name: Sioux Falls
        distance:
          value: 9.33
          units: km
      - name: Crooks
        distance:
          value: 9.55
          units: km
      - name: Brandon
        distance:
          value: 10.34
          units: km
    - name: Meckling
      region: SD
      lat: '42.8402'
      long: "-97.0673"
      closest_rate_centers:
      - name: Vermillion
        distance:
          value: 12.6
          units: km
      - name: Wakonda
        distance:
          value: 18.73
          units: km
      - name: Yankton
        distance:
          value: 26.94
          units: km
    - name: Mellette
      region: SD
      lat: '45.1544'
      long: "-98.4983"
      closest_rate_centers:
      - name: Mellette
        distance:
          value: 0.46
          units: km
      - name: Redfield
        distance:
          value: 31.19
          units: km
      - name: Conde
        distance:
          value: 31.37
          units: km
    - name: Menno
      region: SD
      lat: '43.2386'
      long: "-97.5774"
      closest_rate_centers:
      - name: Menno
        distance:
          value: 0.43
          units: km
      - name: Scotland
        distance:
          value: 15.11
          units: km
      - name: Freeman
        distance:
          value: 17.01
          units: km
    - name: Midland
      region: SD
      lat: '44.0711'
      long: "-101.1554"
      closest_rate_centers:
      - name: Midland
        distance:
          value: 0.84
          units: km
      - name: Belvidere
        distance:
          value: 29.34
          units: km
      - name: Hayes
        distance:
          value: 34.85
          units: km
    - name: Milbank
      region: SD
      lat: '45.2195'
      long: "-96.6338"
      closest_rate_centers:
      - name: Milbank
        distance:
          value: 0.82
          units: km
      - name: Big Stone City
        distance:
          value: 16.4
          units: km
      - name: Stockholm
        distance:
          value: 18.53
          units: km
    - name: Millbrook Colony
      region: SD
      lat: '43.6700'
      long: "-97.8717"
      closest_rate_centers:
      - name: Alexandria
        distance:
          value: 7.23
          units: km
      - name: Mitchell
        distance:
          value: 12.81
          units: km
      - name: Ethan
