---
cities:
  us:
    SD:
    - name: Aberdeen
      region: SD
      lat: '45.4649'
      long: "-98.4686"
    - name: Agar
      region: SD
      lat: '44.8397'
      long: "-100.0732"
    - name: Agency Village
      region: SD
      lat: '45.5796'
      long: "-97.0782"
    - name: Akaska
      region: SD
      lat: '45.3310'
      long: "-100.1208"
    - name: Albee
      region: SD
      lat: '45.0513'
      long: "-96.5535"
    - name: Alcester
      region: SD
      lat: '43.0278'
      long: "-96.6268"
    - name: Alexandria
      region: SD
      lat: '43.6541'
      long: "-97.7798"
    - name: Allen
      region: SD
      lat: '43.2792'
      long: "-101.9265"
    - name: Alpena
      region: SD
      lat: '44.1829'
      long: "-98.3683"
    - name: Altamont
      region: SD
      lat: '44.8408'
      long: "-96.6901"
    - name: Anderson
      region: SD
      lat: '43.5194'
      long: "-96.6141"
    - name: Andover
      region: SD
      lat: '45.4102'
      long: "-97.9037"
    - name: Angostura
      region: SD
      lat: '43.3192'
      long: "-103.3860"
    - name: Antelope
      region: SD
      lat: '43.3087'
      long: "-100.6306"
    - name: Ardmore
      region: SD
      lat: '43.0192'
      long: "-103.6543"
    - name: Arlington
      region: SD
      lat: '44.3635'
      long: "-97.1338"
    - name: Armour
      region: SD
      lat: '43.3190'
      long: "-98.3448"
    - name: Artas
      region: SD
      lat: '45.8873'
      long: "-99.8069"
    - name: Artesian
      region: SD
      lat: '44.0079'
      long: "-97.9237"
    - name: Ashland Heights
      region: SD
      lat: '44.1293'
      long: "-103.1286"
    - name: Ashton
      region: SD
      lat: '44.9931'
      long: "-98.4991"
    - name: Astoria
      region: SD
      lat: '44.5577'
      long: "-96.5465"
    - name: Aurora
      region: SD
      lat: '44.2823'
      long: "-96.6868"
    - name: Aurora Center
      region: SD
      lat: '43.5272'
      long: "-98.5894"
    - name: Avon
      region: SD
      lat: '43.0052'
      long: "-98.0593"
    - name: Badger
      region: SD
      lat: '44.4855'
      long: "-97.2079"
    - name: Baltic
      region: SD
      lat: '43.7603'
      long: "-96.7371"
    - name: Bancroft
      region: SD
      lat: '44.4894'
      long: "-97.7505"
    - name: Batesland
      region: SD
      lat: '43.1278'
      long: "-102.1017"
    - name: Bath
      region: SD
      lat: '45.4692'
      long: "-98.3236"
    - name: Bath Corner
      region: SD
      lat: '45.4627'
      long: "-98.3329"
    - name: Belle Fourche
      region: SD
      lat: '44.6640'
      long: "-103.8564"
    - name: Belvidere
      region: SD
      lat: '43.8321'
      long: "-101.2711"
    - name: Beresford
      region: SD
      lat: '43.0797'
      long: "-96.7803"
    - name: Big Stone City
      region: SD
      lat: '45.2985'
      long: "-96.4657"
    - name: Bijou Hills
      region: SD
      lat: '43.5285'
      long: "-99.1439"
    - name: Bison
      region: SD
      lat: '45.5235'
      long: "-102.4677"
    - name: Blackhawk
      region: SD
      lat: '44.1514'
      long: "-103.3340"
    - name: Blucksberg Mountain
      region: SD
      lat: '44.3593'
      long: "-103.4538"
    - name: Blumengard Colony
      region: SD
      lat: '45.2415'
      long: "-99.1700"
    - name: Blunt
      region: SD
      lat: '44.5159'
      long: "-99.9885"
    - name: Bon Homme Colony
      region: SD
      lat: '42.8649'
      long: "-97.7056"
    - name: Bonesteel
      region: SD
      lat: '43.0775'
      long: "-98.9467"
    - name: Boulder Canyon
      region: SD
      lat: '44.3971'
      long: "-103.6046"
    - name: Bowdle
      region: SD
      lat: '45.4512'
      long: "-99.6565"
    - name: Box Elder
      region: SD
      lat: '44.1120'
      long: "-103.0818"
    - name: Bradley
      region: SD
      lat: '45.0904'
      long: "-97.6420"
    - name: Brandon
      region: SD
      lat: '43.5928'
      long: "-96.5799"
    - name: Brandt
      region: SD
      lat: '44.6669'
      long: "-96.6252"
    - name: Brant Lake
      region: SD
      lat: '43.9308'
      long: "-96.9436"
    - name: Brant Lake South
      region: SD
      lat: '43.9139'
      long: "-96.9380"
    - name: Brentford
      region: SD
      lat: '45.1591'
      long: "-98.3223"
    - name: Brentwood Colony
      region: SD
      lat: '45.1513'
      long: "-99.2984"
    - name: Bridger
      region: SD
      lat: '44.5421'
      long: "-101.9136"
    - name: Bridgewater
      region: SD
      lat: '43.5502'
      long: "-97.4984"
    - name: Bristol
      region: SD
      lat: '45.3466'
      long: "-97.7485"
    - name: Britton
      region: SD
      lat: '45.7924'
      long: "-97.7529"
    - name: Broadland
      region: SD
      lat: '44.4938'
      long: "-98.3466"
    - name: Brookings
      region: SD
      lat: '44.3022'
      long: "-96.7859"
    - name: Bruce
      region: SD
      lat: '44.4378'
      long: "-96.8906"
    - name: Bryant
      region: SD
      lat: '44.5899'
      long: "-97.4673"
    - name: Buffalo
      region: SD
      lat: '45.5863'
      long: "-103.5434"
    - name: Buffalo Chip
      region: SD
      lat: '44.4166'
      long: "-103.4058"
    - name: Buffalo Gap
      region: SD
      lat: '43.4921'
      long: "-103.3154"
    - name: Bullhead
      region: SD
      lat: '45.7693'
      long: "-101.0809"
    - name: Burbank
      region: SD
      lat: '42.7461'
      long: "-96.8326"
    - name: Burke
      region: SD
      lat: '43.1827'
      long: "-99.2923"
    - name: Bushnell
      region: SD
      lat: '44.3274'
      long: "-96.6424"
    - name: Butler
      region: SD
      lat: '45.2620'
      long: "-97.7117"
    - name: Cameron Colony
      region: SD
      lat: '43.1878'
      long: "-97.2627"
    - name: Camp Crook
      region: SD
      lat: '45.5500'
      long: "-103.9750"
    - name: Camrose Colony
      region: SD
      lat: '44.9343'
      long: "-98.2202"
    - name: Canistota
      region: SD
      lat: '43.5978'
      long: "-97.2926"
    - name: Canova
      region: SD
      lat: '43.8813'
      long: "-97.5040"
    - name: Canton
      region: SD
      lat: '43.3032'
      long: "-96.5848"
    - name: Caputa
      region: SD
      lat: '43.9961'
      long: "-102.9844"
    - name: Carthage
      region: SD
      lat: '44.1686'
      long: "-97.7150"
    - name: Castlewood
      region: SD
      lat: '44.7242'
      long: "-97.0309"
    - name: Cavour
      region: SD
      lat: '44.3693'
      long: "-98.0420"
    - name: Cedar Grove Colony
      region: SD
      lat: '43.5317'
      long: "-98.8045"
    - name: Centerville
      region: SD
      lat: '43.1165'
      long: "-96.9596"
    - name: Central City
      region: SD
      lat: '44.3685'
      long: "-103.7706"
    - name: Chamberlain
      region: SD
      lat: '43.7956'
      long: "-99.3263"
    - name: Chancellor
      region: SD
      lat: '43.3719'
      long: "-96.9875"
    - name: Chelsea
      region: SD
      lat: '45.1675'
      long: "-98.7434"
    - name: Cherry Creek
      region: SD
      lat: '44.6048'
      long: "-101.4996"
    - name: Chester
      region: SD
      lat: '43.8996'
      long: "-96.9277"
    - name: Claire City
      region: SD
      lat: '45.8566'
      long: "-97.1035"
    - name: Claremont
      region: SD
      lat: '45.6719'
      long: "-98.0157"
    - name: Claremont Colony
      region: SD
      lat: '44.7129'
      long: "-96.9512"
    - name: Clark
      region: SD
      lat: '44.8809'
      long: "-97.7348"
    - name: Clark Colony
      region: SD
      lat: '44.7914'
      long: "-97.9815"
    - name: Clear Lake
      region: SD
      lat: '45.6933'
      long: "-97.3572"
    - name: Clear Lake
      region: SD
      lat: '44.7644'
      long: "-96.6768"
    - name: Clearfield Colony
      region: SD
      lat: '43.1439'
      long: "-98.1423"
    - name: Cloverleaf Colony
      region: SD
      lat: '44.1840'
      long: "-97.5385"
    - name: Collins Colony
      region: SD
      lat: '44.5478'
      long: "-97.7013"
    - name: Colman
      region: SD
      lat: '43.9835'
      long: "-96.8148"
    - name: Colome
      region: SD
      lat: '43.2599'
      long: "-99.7174"
    - name: Colonial Pine Hills
      region: SD
      lat: '44.0141'
      long: "-103.3146"
    - name: Colton
      region: SD
      lat: '43.7871'
      long: "-96.9280"
    - name: Columbia
      region: SD
      lat: '45.6148'
      long: "-98.3107"
    - name: Conde
      region: SD
      lat: '45.1573'
      long: "-98.0955"
    - name: Corn Creek
      region: SD
      lat: '43.5744'
      long: "-101.2059"
    - name: Corona
      region: SD
      lat: '45.3352'
      long: "-96.7646"
    - name: Corsica
      region: SD
      lat: '43.4223'
      long: "-98.4073"
    - name: Cottonwood
      region: SD
      lat: '43.9657'
      long: "-101.9021"
    - name: Cow Creek
      region: SD
      lat: '44.5538'
      long: "-100.4754"
    - name: Cresbard
      region: SD
      lat: '45.1692'
      long: "-98.9477"
    - name: Crocker
      region: SD
      lat: '45.1070'
      long: "-97.7805"
    - name: Crook City
      region: SD
      lat: '44.4381'
      long: "-103.6434"
    - name: Crooks
      region: SD
      lat: '43.6592'
      long: "-96.8094"
    - name: Custer
      region: SD
      lat: '43.7668'
      long: "-103.6006"
    - name: Dakota Dunes
      region: SD
      lat: '42.4920'
      long: "-96.4870"
    - name: Dallas
      region: SD
      lat: '43.2379'
      long: "-99.5175"
    - name: Dante
      region: SD
      lat: '43.0399'
      long: "-98.1856"
    - name: Davis
      region: SD
      lat: '43.2595'
      long: "-96.9945"
    - name: De Smet
      region: SD
      lat: '44.3862'
      long: "-97.5496"
    - name: Deadwood
      region: SD
      lat: '44.3871'
      long: "-103.7207"
    - name: Deerfield Colony
      region: SD
      lat: '45.5874'
      long: "-98.8995"
    - name: Dell Rapids
      region: SD
      lat: '43.8244'
      long: "-96.7143"
    - name: Delmont
      region: SD
      lat: '43.2666'
      long: "-98.1592"
    - name: Dimock
      region: SD
      lat: '43.4764'
      long: "-97.9888"
    - name: Doland
      region: SD
      lat: '44.8944'
      long: "-98.0997"
    - name: Dolton
      region: SD
      lat: '43.4911'
      long: "-97.3848"
    - name: Draper
      region: SD
      lat: '43.9262'
      long: "-100.5372"
    - name: Dudley
      region: SD
      lat: '43.3082'
      long: "-103.8192"
    - name: Dupree
      region: SD
      lat: '45.0495'
      long: "-101.6013"
    - name: Eagle Butte
      region: SD
      lat: '44.9939'
      long: "-101.2310"
    - name: Eden
      region: SD
      lat: '45.6168'
      long: "-97.4196"
    - name: Edgemont
      region: SD
      lat: '43.2973'
      long: "-103.8323"
    - name: Egan
      region: SD
      lat: '44.0004'
      long: "-96.6485"
    - name: Elk Point
      region: SD
      lat: '42.6812'
      long: "-96.6805"
    - name: Elkton
      region: SD
      lat: '44.2351'
      long: "-96.4794"
    - name: Emery
      region: SD
      lat: '43.6020'
      long: "-97.6195"
    - name: Enemy Swim
      region: SD
      lat: '45.4319'
      long: "-97.2868"
    - name: Erwin
      region: SD
      lat: '44.4880'
      long: "-97.4409"
    - name: Estelline
      region: SD
      lat: '44.5768'
      long: "-96.9011"
    - name: Ethan
      region: SD
      lat: '43.5463'
      long: "-97.9834"
    - name: Eureka
      region: SD
      lat: '45.7707'
      long: "-99.6207"
    - name: Evergreen Colony
      region: SD
      lat: '45.1217'
      long: "-99.0425"
    - name: Fairburn
      region: SD
      lat: '43.6869'
      long: "-103.2087"
    - name: Fairfax
      region: SD
      lat: '43.0281'
      long: "-98.8890"
    - name: Fairview
      region: SD
      lat: '43.2221'
      long: "-96.4876"
    - name: Faith
      region: SD
      lat: '45.0258'
      long: "-102.0363"
    - name: Farmer
      region: SD
      lat: '43.7252'
      long: "-97.6890"
    - name: Faulkton
      region: SD
      lat: '45.0342'
      long: "-99.1266"
    - name: Fedora
      region: SD
      lat: '44.0067'
      long: "-97.7895"
    - name: Ferney
      region: SD
      lat: '45.3346'
      long: "-98.0939"
    - name: Flandreau
      region: SD
      lat: '44.0465'
      long: "-96.5983"
    - name: Florence
      region: SD
      lat: '45.0548'
      long: "-97.3263"
    - name: Fordham Colony
      region: SD
      lat: '44.7678'
      long: "-97.9068"
    - name: Forestburg
      region: SD
      lat: '44.0212'
      long: "-98.1032"
    - name: Fort Pierre
      region: SD
      lat: '44.3680'
      long: "-100.3831"
    - name: Fort Thompson
      region: SD
      lat: '44.0527'
      long: "-99.4079"
    - name: Frankfort
      region: SD
      lat: '44.8777'
      long: "-98.3092"
    - name: Frederick
      region: SD
      lat: '45.8319'
      long: "-98.5067"
    - name: Freeman
      region: SD
      lat: '43.3475'
      long: "-97.4306"
    - name: Fruitdale
      region: SD
      lat: '44.6692'
      long: "-103.6955"
    - name: Fulton
      region: SD
      lat: '43.7288'
      long: "-97.8226"
    - name: Gann Valley
      region: SD
      lat: '44.0336'
      long: "-98.9887"
    - name: Garden City
      region: SD
      lat: '44.9593'
      long: "-97.5804"
    - name: Garretson
      region: SD
      lat: '43.7147'
      long: "-96.5028"
    - name: Gary
      region: SD
      lat: '44.7941'
      long: "-96.4574"
    - name: Gayville
      region: SD
      lat: '42.8889'
      long: "-97.1738"
    - name: Geddes
      region: SD
      lat: '43.2540'
      long: "-98.6974"
    - name: Gettysburg
      region: SD
      lat: '45.0060'
      long: "-99.9539"
    - name: Glendale Colony
      region: SD
      lat: '44.7979'
      long: "-98.2868"
    - name: Glenham
      region: SD
      lat: '45.5330'
      long: "-100.2711"
    - name: Golden View Colony
      region: SD
      lat: '43.6954'
      long: "-97.4487"
    - name: Goodwin
      region: SD
      lat: '44.8775'
      long: "-96.8497"
    - name: Graceville Colony
      region: SD
      lat: '43.9289'
      long: "-97.2840"
    - name: Grass Ranch Colony
      region: SD
      lat: '43.6500'
      long: "-98.8836"
    - name: Grassland Colony
      region: SD
      lat: '45.6682'
      long: "-98.7965"
    - name: Green Grass
      region: SD
      lat: '45.1714'
      long: "-101.2573"
    - name: Green Valley
      region: SD
      lat: '44.0390'
      long: "-103.1116"
    - name: Greenwood Colony
      region: SD
      lat: '43.2145'
      long: "-98.1536"
    - name: Gregory
      region: SD
      lat: '43.2300'
      long: "-99.4208"
    - name: Grenville
      region: SD
      lat: '45.4670'
      long: "-97.3901"
    - name: Groton
      region: SD
      lat: '45.4517'
      long: "-98.1000"
    - name: Hamill
      region: SD
      lat: '43.5939'
      long: "-99.6907"
    - name: Harrisburg
      region: SD
      lat: '43.4324'
      long: "-96.7041"
    - name: Harrison
      region: SD
      lat: '43.4310'
      long: "-98.5268"
    - name: Harrold
      region: SD
      lat: '44.5258'
      long: "-99.7416"
    - name: Hartford
      region: SD
      lat: '43.6210'
      long: "-96.9424"
    - name: Hayti
      region: SD
      lat: '44.6580'
      long: "-97.2049"
    - name: Hazel
      region: SD
      lat: '44.7582'
      long: "-97.3810"
    - name: Hecla
      region: SD
      lat: '45.8822'
      long: "-98.1520"
    - name: Henry
      region: SD
      lat: '44.8809'
      long: "-97.4616"
    - name: Hermosa
      region: SD
      lat: '43.8399'
      long: "-103.1930"
    - name: Herreid
      region: SD
      lat: '45.8378'
      long: "-100.0748"
    - name: Herrick
      region: SD
      lat: '43.1150'
      long: "-99.1882"
    - name: Hetland
      region: SD
      lat: '44.3772'
      long: "-97.2347"
    - name: Highmore
      region: SD
      lat: '44.5214'
      long: "-99.4394"
    - name: Hill City
      region: SD
      lat: '43.9337'
      long: "-103.5694"
    - name: Hillcrest Colony
      region: SD
      lat: '44.9425'
      long: "-97.6672"
    - name: Hillside Colony
      region: SD
      lat: '44.7382'
      long: "-98.0473"
    - name: Hillsview
      region: SD
      lat: '45.6642'
      long: "-99.5607"
    - name: Hitchcock
      region: SD
      lat: '44.6294'
      long: "-98.4082"
    - name: Horse Creek
      region: SD
      lat: '43.5330'
      long: "-100.7419"
    - name: Hosmer
      region: SD
      lat: '45.5788'
      long: "-99.4736"
    - name: Hot Springs
      region: SD
      lat: '43.4195'
      long: "-103.4657"
    - name: Hoven
      region: SD
      lat: '45.2416'
      long: "-99.7775"
    - name: Howard
      region: SD
      lat: '44.0117'
      long: "-97.5246"
    - name: Hudson
      region: SD
      lat: '43.1301'
      long: "-96.4556"
    - name: Humboldt
      region: SD
      lat: '43.6447'
      long: "-97.0745"
    - name: Hurley
      region: SD
      lat: '43.2794'
      long: "-97.0894"
    - name: Huron
      region: SD
      lat: '44.3623'
      long: "-98.2094"
    - name: Huron Colony
      region: SD
      lat: '44.5634'
      long: "-98.2055"
    - name: Hutterville Colony
      region: SD
      lat: '45.2663'
      long: "-98.2115"
    - name: Ideal
      region: SD
      lat: '43.5400'
      long: "-99.9218"
    - name: Interior
      region: SD
      lat: '43.7269'
      long: "-101.9837"
    - name: Ipswich
      region: SD
      lat: '45.4435'
      long: "-99.0300"
    - name: Irene
      region: SD
      lat: '43.0837'
      long: "-97.1576"
    - name: Iroquois
      region: SD
      lat: '44.3679'
      long: "-97.8495"
    - name: Isabel
      region: SD
      lat: '45.3939'
      long: "-101.4325"
    - name: Jamesville Colony
      region: SD
      lat: '43.1015'
      long: "-97.4818"
    - name: Java
      region: SD
      lat: '45.5038'
      long: "-99.8839"
    - name: Jefferson
      region: SD
      lat: '42.6043'
      long: "-96.5661"
    - name: Johnson Siding
      region: SD
      lat: '44.0846'
      long: "-103.4380"
    - name: Kadoka
      region: SD
      lat: '43.8325'
      long: "-101.5081"
    - name: Kaylor
      region: SD
      lat: '43.1926'
      long: "-97.8405"
    - name: Kenel
      region: SD
      lat: '45.8545'
      long: "-100.4592"
    - name: Kennebec
      region: SD
      lat: '43.9035'
      long: "-99.8619"
    - name: Keystone
      region: SD
      lat: '43.8949'
      long: "-103.4268"
    - name: Kidder
      region: SD
      lat: '45.8817'
      long: "-97.7139"
    - name: Kimball
      region: SD
      lat: '43.7468'
      long: "-98.9569"
    - name: Kranzburg
      region: SD
      lat: '44.8888'
      long: "-96.9092"
    - name: Kyle
      region: SD
      lat: '43.4245'
      long: "-102.1801"
    - name: La Plant
      region: SD
      lat: '45.1353'
      long: "-100.6648"
    - name: Lake Andes
      region: SD
      lat: '43.1560'
      long: "-98.5361"
    - name: Lake City
      region: SD
      lat: '45.7248'
      long: "-97.4139"
    - name: Lake Madison
      region: SD
      lat: '43.9593'
      long: "-97.0210"
    - name: Lake Norden
      region: SD
      lat: '44.5799'
      long: "-97.2109"
    - name: Lake Poinsett
      region: SD
      lat: '44.5664'
      long: "-97.0798"
    - name: Lake Preston
      region: SD
      lat: '44.3617'
      long: "-97.3760"
    - name: Lakeview Colony
      region: SD
      lat: '43.2202'
      long: "-98.4564"
    - name: Lane
      region: SD
      lat: '44.0697'
      long: "-98.4246"
    - name: Langford
      region: SD
      lat: '45.6024'
      long: "-97.8303"
    - name: Lantry
      region: SD
      lat: '45.0183'
      long: "-101.4328"
    - name: Lead
      region: SD
      lat: '44.3528'
      long: "-103.7671"
    - name: Lebanon
      region: SD
      lat: '45.0688'
      long: "-99.7664"
    - name: Lemmon
      region: SD
      lat: '45.9383'
      long: "-102.1598"
    - name: Lennox
      region: SD
      lat: '43.3495'
      long: "-96.8937"
    - name: Leola
      region: SD
      lat: '45.7212'
      long: "-98.9386"
    - name: Lesterville
      region: SD
      lat: '43.0385'
      long: "-97.5905"
    - name: Letcher
      region: SD
      lat: '43.8995'
      long: "-98.1442"
    - name: Little Eagle
      region: SD
      lat: '45.6832'
      long: "-100.7966"
    - name: Long Hollow
      region: SD
      lat: '45.6823'
      long: "-97.1611"
    - name: Long Lake
      region: SD
      lat: '45.8567'
      long: "-99.2058"
    - name: Long Lake Colony
      region: SD
      lat: '45.6040'
      long: "-98.8253"
    - name: Loomis
      region: SD
      lat: '43.7931'
      long: "-98.1040"
    - name: Lower Brule
      region: SD
      lat: '44.0742'
      long: "-99.5838"
    - name: Lowry
      region: SD
      lat: '45.3155'
      long: "-99.9812"
    - name: Lyons
      region: SD
      lat: '43.7249'
      long: "-96.8662"
    - name: Madison
      region: SD
      lat: '44.0062'
      long: "-97.1085"
    - name: Manderson-White Horse Creek
      region: SD
      lat: '43.2350'
      long: "-102.4916"
    - name: Mansfield
      region: SD
      lat: '45.2465'
      long: "-98.5581"
    - name: Marion
      region: SD
      lat: '43.4236'
      long: "-97.2605"
    - name: Martin
      region: SD
      lat: '43.1749'
      long: "-101.7323"
    - name: Marty
      region: SD
      lat: '42.9965'
      long: "-98.4302"
    - name: Marvin
      region: SD
      lat: '45.2605'
      long: "-96.9154"
    - name: Maverick Junction
      region: SD
      lat: '43.4087'
      long: "-103.3958"
    - name: Maxwell Colony
      region: SD
      lat: '43.1825'
      long: "-97.6352"
    - name: Mayfield Colony
      region: SD
      lat: '44.6943'
      long: "-97.5811"
    - name: McIntosh
      region: SD
      lat: '45.9214'
      long: "-101.3491"
    - name: McLaughlin
      region: SD
      lat: '45.8132'
      long: "-100.8108"
    - name: Meadow View Addition
      region: SD
      lat: '43.6233'
      long: "-96.7023"
    - name: Meckling
      region: SD
      lat: '42.8402'
      long: "-97.0673"
    - name: Mellette
      region: SD
      lat: '45.1544'
      long: "-98.4983"
    - name: Menno
      region: SD
      lat: '43.2386'
      long: "-97.5774"
    - name: Midland
      region: SD
      lat: '44.0711'
      long: "-101.1554"
    - name: Milbank
      region: SD
      lat: '45.2195'
      long: "-96.6338"
    - name: Millbrook Colony
      region: SD
      lat: '43.6700'
      long: "-97.8717"
    - name: Miller
      region: SD
      lat: '44.5204'
      long: "-98.9869"
    - name: Millerdale Colony
      region: SD
      lat: '44.3990'
      long: "-99.1111"
    - name: Milltown
      region: SD
      lat: '43.4252'
      long: "-97.8081"
    - name: Mina
      region: SD
      lat: '45.4521'
      long: "-98.7414"
    - name: Mission
      region: SD
      lat: '43.3063'
      long: "-100.6610"
    - name: Mission Hill
      region: SD
      lat: '42.9208'
      long: "-97.2791"
    - name: Mitchell
      region: SD
      lat: '43.7294'
      long: "-98.0337"
    - name: Mobridge
      region: SD
      lat: '45.5409'
      long: "-100.4349"
    - name: Monroe
      region: SD
      lat: '43.4865'
      long: "-97.2166"
    - name: Montrose
      region: SD
      lat: '43.6999'
      long: "-97.1844"
    - name: Morningside
      region: SD
      lat: '44.3663'
      long: "-98.1836"
    - name: Morristown
      region: SD
      lat: '45.9386'
      long: "-101.7188"
    - name: Mound City
      region: SD
      lat: '45.7262'
      long: "-100.0688"
    - name: Mount Vernon
      region: SD
      lat: '43.7127'
      long: "-98.2612"
    - name: Mountain Plains
      region: SD
      lat: '44.4670'
      long: "-103.8636"
    - name: Murdo
      region: SD
      lat: '43.8893'
      long: "-100.7142"
    - name: Naples
      region: SD
      lat: '44.7716'
      long: "-97.5131"
    - name: New Effington
      region: SD
      lat: '45.8558'
      long: "-96.9174"
    - name: New Elm Spring Colony
      region: SD
      lat: '43.4892'
      long: "-97.8284"
    - name: New Holland
      region: SD
      lat: '43.4288'
      long: "-98.6075"
    - name: New Underwood
      region: SD
      lat: '44.0987'
      long: "-102.8405"
    - name: Newdale Colony
      region: SD
      lat: '44.2900'
      long: "-96.5242"
    - name: Newell
      region: SD
      lat: '44.7174'
      long: "-103.4183"
    - name: Newport Colony
      region: SD
      lat: '45.6791'
      long: "-97.9328"
    - name: Nisland
      region: SD
      lat: '44.6731'
      long: "-103.5538"
    - name: Norfeld Colony
      region: SD
      lat: '44.4233'
      long: "-96.5561"
    - name: Norris
      region: SD
      lat: '43.4721'
      long: "-101.1928"
    - name: North Eagle Butte
      region: SD
      lat: '45.0172'
      long: "-101.2362"
    - name: North Sioux City
      region: SD
      lat: '42.5350'
      long: "-96.4998"
    - name: North Spearfish
      region: SD
      lat: '44.5107'
      long: "-103.9045"
    - name: Northville
      region: SD
      lat: '45.1554'
      long: "-98.5793"
    - name: Nunda
      region: SD
      lat: '44.1599'
      long: "-97.0194"
    - name: Oacoma
      region: SD
      lat: '43.8038'
      long: "-99.3721"
    - name: Oahe Acres
      region: SD
      lat: '44.4648'
      long: "-100.3449"
    - name: Oak Lane Colony
      region: SD
      lat: '43.5099'
      long: "-97.7412"
    - name: Oelrichs
      region: SD
      lat: '43.1820'
      long: "-103.2334"
    - name: Oglala
      region: SD
      lat: '43.1849'
      long: "-102.7268"
    - name: Okaton
      region: SD
      lat: '43.8621'
      long: "-100.9049"
    - name: Okreek
      region: SD
      lat: '43.3533'
      long: "-100.3826"
    - name: Ola
      region: SD
      lat: '43.6005'
      long: "-99.2114"
    - name: Old Elm Spring Colony
      region: SD
      lat: '43.4924'
      long: "-97.7990"
    - name: Oldham
      region: SD
      lat: '44.2281'
      long: "-97.3096"
    - name: Olivet
      region: SD
      lat: '43.2430'
      long: "-97.6747"
    - name: Onaka
      region: SD
      lat: '45.1912'
      long: "-99.4659"
    - name: Onida
      region: SD
      lat: '44.7049'
      long: "-100.0675"
    - name: Oral
      region: SD
      lat: '43.4100'
      long: "-103.2648"
    - name: Orient
      region: SD
      lat: '44.9017'
      long: "-99.0888"
    - name: Orland Colony
      region: SD
      lat: '43.8216'
      long: "-97.1990"
    - name: Ortley
      region: SD
      lat: '45.3349'
      long: "-97.2050"
    - name: Parker
      region: SD
      lat: '43.3978'
      long: "-97.1334"
    - name: Parkston
      region: SD
      lat: '43.3929'
      long: "-97.9864"
    - name: Parmelee
      region: SD
      lat: '43.3241'
      long: "-101.0410"
    - name: Pearl Creek Colony
      region: SD
      lat: '44.3260'
      long: "-97.9185"
    - name: Peever
      region: SD
      lat: '45.5422'
      long: "-96.9560"
    - name: Peever Flats
      region: SD
      lat: '45.5234'
      long: "-96.9356"
    - name: Pembrook Colony
      region: SD
      lat: '45.3728'
      long: "-98.9940"
    - name: Philip
      region: SD
      lat: '44.0407'
      long: "-101.6645"
    - name: Pickstown
      region: SD
      lat: '43.0671'
      long: "-98.5295"
    - name: Piedmont
      region: SD
      lat: '44.2136'
      long: "-103.3717"
    - name: Pierpont
      region: SD
      lat: '45.4953'
      long: "-97.8321"
    - name: Pierre
      region: SD
      lat: '44.3748'
      long: "-100.3205"
    - name: Pine Lakes Addition
      region: SD
      lat: '43.5510'
      long: "-96.6355"
    - name: Pine Ridge
      region: SD
      lat: '43.0270'
      long: "-102.5524"
    - name: Plainview Colony
      region: SD
      lat: '45.5808'
      long: "-99.0095"
    - name: Plankinton
      region: SD
      lat: '43.7155'
      long: "-98.4837"
    - name: Platte
      region: SD
      lat: '43.3869'
      long: "-98.8435"
    - name: Platte Colony
      region: SD
      lat: '43.4678'
      long: "-99.1261"
    - name: Pleasant Valley Colony
      region: SD
      lat: '44.0584'
      long: "-96.4706"
    - name: Poinsett Colony
      region: SD
      lat: '44.6414'
      long: "-96.9003"
    - name: Pollock
      region: SD
      lat: '45.9005'
      long: "-100.2885"
    - name: Porcupine
      region: SD
      lat: '43.2687'
      long: "-102.3353"
    - name: Prairie City
      region: SD
      lat: '45.5312'
      long: "-102.8164"
    - name: Prairiewood Village
      region: SD
      lat: '45.5094'
      long: "-98.4194"
    - name: Presho
      region: SD
      lat: '43.9071'
      long: "-100.0583"
    - name: Pringle
      region: SD
      lat: '43.6090'
      long: "-103.5946"
    - name: Provo
      region: SD
      lat: '43.1937'
      long: "-103.8329"
    - name: Pukwana
      region: SD
      lat: '43.7792'
      long: "-99.1843"
    - name: Quinn
      region: SD
      lat: '43.9866'
      long: "-102.1264"
    - name: Ramona
      region: SD
      lat: '44.1199'
      long: "-97.2154"
    - name: Rapid City
      region: SD
      lat: '44.0716'
      long: "-103.2204"
    - name: Rapid Valley
      region: SD
      lat: '44.0674'
      long: "-103.1223"
    - name: Ravinia
      region: SD
      lat: '43.1365'
      long: "-98.4268"
    - name: Raymond
      region: SD
      lat: '44.9105'
      long: "-97.9372"
    - name: Redfield
      region: SD
      lat: '44.8725'
      long: "-98.5187"
    - name: Ree Heights
      region: SD
      lat: '44.5158'
      long: "-99.2005"
    - name: Reliance
      region: SD
      lat: '43.8800'
      long: "-99.6018"
    - name: Renner Corner
      region: SD
      lat: '43.6524'
      long: "-96.7044"
    - name: Revillo
      region: SD
      lat: '45.0154'
      long: "-96.5712"
    - name: Richland
      region: SD
      lat: '42.7634'
      long: "-96.6480"
    - name: Riverside Colony
      region: SD
      lat: '44.4823'
      long: "-98.1366"
    - name: Rockham
      region: SD
      lat: '44.9043'
      long: "-98.8234"
    - name: Rockport Colony
      region: SD
      lat: '43.5820'
      long: "-97.8431"
    - name: Rolland Colony
      region: SD
      lat: '44.3437'
      long: "-96.5923"
    - name: Roscoe
      region: SD
      lat: '45.4501'
      long: "-99.3367"
    - name: Rosebud
      region: SD
      lat: '43.2398'
      long: "-100.8229"
    - name: Rosedale Colony
      region: SD
      lat: '43.6267'
      long: "-97.8754"
    - name: Rosholt
      region: SD
      lat: '45.8662'
      long: "-96.7318"
    - name: Roslyn
      region: SD
      lat: '45.4966'
      long: "-97.4928"
    - name: Roswell
      region: SD
      lat: '44.0060'
      long: "-97.6975"
    - name: Rowena
      region: SD
      lat: '43.5191'
      long: "-96.5561"
    - name: Running Water
      region: SD
      lat: '42.7822'
      long: "-97.9816"
    - name: Rustic Acres Colony
      region: SD
      lat: '43.8698'
      long: "-97.0990"
    - name: Salem
      region: SD
      lat: '43.7229'
      long: "-97.3893"
    - name: Scotland
      region: SD
      lat: '43.1481'
      long: "-97.7199"
    - name: Selby
      region: SD
      lat: '45.5057'
      long: "-100.0329"
    - name: Seneca
      region: SD
      lat: '45.0608'
      long: "-99.5092"
    - name: Shamrock Colony
      region: SD
      lat: '44.6207'
      long: "-97.9592"
    - name: Shannon Colony
      region: SD
      lat: '43.9826'
      long: "-97.4251"
    - name: Sherman
      region: SD
      lat: '43.7577'
      long: "-96.4762"
    - name: Shindler
      region: SD
      lat: '43.4676'
      long: "-96.6354"
    - name: Sicangu Village
      region: SD
      lat: '43.0137'
      long: "-100.5757"
    - name: Silver Lake Colony
      region: SD
      lat: '44.8657'
      long: "-97.6084"
    - name: Sinai
      region: SD
      lat: '44.2445'
      long: "-97.0440"
    - name: Sioux Falls
      region: SD
      lat: '43.5396'
      long: "-96.7311"
    - name: Sisseton
      region: SD
      lat: '45.6625'
      long: "-97.0454"
    - name: Smithwick
      region: SD
      lat: '43.2976'
      long: "-103.2163"
    - name: Soldier Creek
      region: SD
      lat: '43.3237'
      long: "-100.8883"
    - name: South Shore
      region: SD
      lat: '45.1016'
      long: "-96.9300"
    - name: Spearfish
      region: SD
      lat: '44.4909'
      long: "-103.8155"
    - name: Spencer
      region: SD
      lat: '43.7273'
      long: "-97.5911"
    - name: Spink Colony
      region: SD
      lat: '44.7449'
      long: "-98.2895"
    - name: Spring Creek
      region: SD
      lat: '43.1154'
      long: "-101.0306"
    - name: Spring Creek Colony
      region: SD
      lat: '45.9077'
      long: "-98.8806"
    - name: Spring Lake Colony
      region: SD
      lat: '44.2349'
      long: "-97.1748"
    - name: Spring Valley Colony
      region: SD
      lat: '44.0395'
      long: "-98.8811"
    - name: Springfield
      region: SD
      lat: '42.8624'
      long: "-97.8964"
    - name: St. Charles
      region: SD
      lat: '43.0881'
      long: "-99.0949"
    - name: St. Francis
      region: SD
      lat: '43.1426'
      long: "-100.9028"
    - name: St. Lawrence
      region: SD
      lat: '44.5166'
      long: "-98.9379"
    - name: St. Onge
      region: SD
      lat: '44.5458'
      long: "-103.7198"
    - name: Stephan
      region: SD
      lat: '44.2482'
      long: "-99.4576"
    - name: Stickney
      region: SD
      lat: '43.5894'
      long: "-98.4376"
    - name: Stockholm
      region: SD
      lat: '45.1018'
      long: "-96.7998"
    - name: Storla
      region: SD
      lat: '43.8625'
      long: "-98.3526"
    - name: Strandburg
      region: SD
      lat: '45.0441'
      long: "-96.7604"
    - name: Stratford
      region: SD
      lat: '45.3174'
      long: "-98.3043"
    - name: Sturgis
      region: SD
      lat: '44.4110'
      long: "-103.4973"
    - name: Summerset
      region: SD
      lat: '44.1912'
      long: "-103.3394"
    - name: Summit
      region: SD
      lat: '45.3056'
      long: "-97.0391"
    - name: Sunset Colony
      region: SD
      lat: '45.8059'
      long: "-97.8857"
    - name: Swift Bird
      region: SD
      lat: '45.0601'
      long: "-100.3545"
    - name: Tabor
      region: SD
      lat: '42.9476'
      long: "-97.6594"
    - name: Tea
      region: SD
      lat: '43.4564'
      long: "-96.8257"
    - name: Thunderbird Colony
      region: SD
      lat: '45.1911'
      long: "-99.2675"
    - name: Timber Lake
      region: SD
      lat: '45.4294'
      long: "-101.0715"
    - name: Tolstoy
      region: SD
      lat: '45.2083'
      long: "-99.6140"
    - name: Toronto
      region: SD
      lat: '44.5724'
      long: "-96.6414"
    - name: Trent
      region: SD
      lat: '43.9063'
      long: "-96.6578"
    - name: Tripp
      region: SD
      lat: '43.2254'
      long: "-97.9659"
    - name: Tschetter Colony
      region: SD
      lat: '43.3681'
      long: "-97.6880"
    - name: Tulare
      region: SD
      lat: '44.7382'
      long: "-98.5089"
    - name: Turton
      region: SD
      lat: '45.0490'
      long: "-98.0974"
    - name: Twin Brooks
      region: SD
      lat: '45.2090'
      long: "-96.7855"
    - name: Two Strike
      region: SD
      lat: '43.2141'
      long: "-100.8988"
    - name: Tyndall
      region: SD
      lat: '42.9899'
      long: "-97.8642"
    - name: Upland Colony
      region: SD
      lat: '43.8775'
      long: "-97.9763"
    - name: Utica
      region: SD
      lat: '42.9810'
      long: "-97.4967"
    - name: Vale
      region: SD
      lat: '44.6183'
      long: "-103.3986"
    - name: Valley Springs
      region: SD
      lat: '43.5824'
      long: "-96.4656"
    - name: Veblen
      region: SD
      lat: '45.8620'
      long: "-97.2869"
    - name: Verdon
      region: SD
      lat: '45.2442'
      long: "-98.0992"
    - name: Vermillion
      region: SD
      lat: '42.7811'
      long: "-96.9256"
    - name: Viborg
      region: SD
      lat: '43.1722'
      long: "-97.0824"
    - name: Vienna
      region: SD
      lat: '44.7031'
      long: "-97.5000"
    - name: Vilas
      region: SD
      lat: '44.0084'
      long: "-97.5956"
    - name: Virgil
      region: SD
      lat: '44.2909'
      long: "-98.4276"
    - name: Vivian
      region: SD
      lat: '43.9273'
      long: "-100.3011"
    - name: Volga
      region: SD
      lat: '44.3219'
      long: "-96.9219"
    - name: Volin
      region: SD
      lat: '42.9586'
      long: "-97.1812"
    - name: Wagner
      region: SD
      lat: '43.0768'
      long: "-98.2934"
    - name: Wakonda
      region: SD
      lat: '43.0081'
      long: "-97.1060"
    - name: Wakpala
      region: SD
      lat: '45.6594'
      long: "-100.5355"
    - name: Wall
      region: SD
      lat: '43.9914'
      long: "-102.2422"
    - name: Wallace
      region: SD
      lat: '45.0845'
      long: "-97.4781"
    - name: Wanblee
      region: SD
      lat: '43.5705'
      long: "-101.6614"
    - name: Ward
      region: SD
      lat: '44.1548'
      long: "-96.4626"
    - name: Warner
      region: SD
      lat: '45.3252'
      long: "-98.4952"
    - name: Wasta
      region: SD
      lat: '44.0696'
      long: "-102.4464"
    - name: Watertown
      region: SD
      lat: '44.9094'
      long: "-97.1532"
    - name: Waubay
      region: SD
      lat: '45.3345'
      long: "-97.3055"
    - name: Waverly
      region: SD
      lat: '44.9987'
      long: "-96.9742"
    - name: Webster
      region: SD
      lat: '45.3366'
      long: "-97.5219"
    - name: Wentworth
      region: SD
      lat: '43.9970'
      long: "-96.9645"
    - name: Wessington
      region: SD
      lat: '44.4552'
      long: "-98.6967"
    - name: Wessington Springs
      region: SD
      lat: '44.0805'
      long: "-98.5712"
    - name: West Brule
      region: SD
      lat: '44.0727'
      long: "-99.6383"
    - name: Westport
      region: SD
      lat: '45.6478'
      long: "-98.4981"
    - name: Westwood Colony
      region: SD
      lat: '45.8929'
      long: "-97.7814"
    - name: Wetonka
      region: SD
      lat: '45.6242'
      long: "-98.7717"
    - name: White
      region: SD
      lat: '44.4359'
      long: "-96.6460"
    - name: White Lake
      region: SD
      lat: '43.7283'
      long: "-98.7120"
    - name: White River
      region: SD
      lat: '43.5671'
      long: "-100.7449"
    - name: White Rock
      region: SD
      lat: '45.9248'
      long: "-96.5760"
    - name: White Rock Colony
      region: SD
      lat: '45.9109'
      long: "-96.6311"
    - name: Whitehorse
      region: SD
      lat: '45.2746'
      long: "-100.9012"
    - name: Whitewood
      region: SD
      lat: '44.4617'
      long: "-103.6381"
    - name: Willow Lake
      region: SD
      lat: '44.6279'
      long: "-97.6386"
    - name: Wilmot
      region: SD
      lat: '45.4091'
      long: "-96.8546"
    - name: Winfred
      region: SD
      lat: '44.0009'
      long: "-97.3598"
    - name: Winner
      region: SD
      lat: '43.3776'
      long: "-99.8552"
    - name: Wolf Creek Colony
      region: SD
      lat: '43.3527'
      long: "-97.6161"
    - name: Wolsey
      region: SD
      lat: '44.4105'
      long: "-98.4738"
    - name: Wonderland Homes
      region: SD
      lat: '44.2029'
      long: "-103.3433"
    - name: Wood
      region: SD
      lat: '43.4971'
      long: "-100.4802"
    - name: Woonsocket
      region: SD
      lat: '44.0541'
      long: "-98.2724"
    - name: Worthing
      region: SD
      lat: '43.3300'
      long: "-96.7683"
    - name: Wounded Knee
      region: SD
      lat: '43.1435'
      long: "-102.3681"
    - name: Yale
      region: SD
      lat: '44.4337'
      long: "-97.9885"
    - name: Yankton
      region: SD
      lat: '42.8901'
      long: "-97.3927"
