---
cities:
- country: US
  region: SD
  name: Aberdeen
  lat: '45.4649'
  long: "-98.4686"
  nearby_rate_centers:
  - name: ABERDEEN
    distance:
      value: 1.04
      units: km
  - name: COLUMBIA
    distance:
      value: 21.14
      units: km
  - name: GROTON
    distance:
      value: 28.88
      units: km
- country: US
  region: SD
  name: Agar
  lat: '44.8397'
  long: "-100.0732"
  nearby_rate_centers:
  - name: ONIDA
    distance:
      value: 14.58
      units: km
  - name: GETTYSBURG
    distance:
      value: 21.04
      units: km
  - name: LEBANON
    distance:
      value: 35.09
      units: km
- country: US
  region: SD
  name: Agency Village
  lat: '45.5796'
  long: "-97.0782"
  nearby_rate_centers:
  - name: SISSETON
    distance:
      value: 9.92
      units: km
  - name: PEEVER
    distance:
      value: 9.99
      units: km
  - name: WBROWNSVLY
    distance:
      value: 13.96
      units: km
- country: US
  region: SD
  name: Akaska
  lat: '45.3310'
  long: "-100.1208"
  nearby_rate_centers:
  - name: SELBY
    distance:
      value: 20.68
      units: km
  - name: GLENHAM
    distance:
      value: 25.22
      units: km
  - name: HOVEN
    distance:
      value: 28.9
      units: km
- country: US
  region: SD
  name: Albee
  lat: '45.0513'
  long: "-96.5535"
  nearby_rate_centers:
  - name: REVILLO
    distance:
      value: 3.83
      units: km
  - name: W MARIETTA
    distance:
      value: 6.6
      units: km
  - name: STOCKHOLM
    distance:
      value: 20.1
      units: km
- country: US
  region: SD
  name: Alcester
  lat: '43.0278'
  long: "-96.6268"
  nearby_rate_centers:
  - name: ALCESTER
    distance:
      value: 0.67
      units: km
  - name: W HAWARDEN
    distance:
      value: 8.66
      units: km
  - name: ALSEN
    distance:
      value: 13.62
      units: km
- country: US
  region: SD
  name: Alexandria
  lat: '43.6541'
  long: "-97.7798"
  nearby_rate_centers:
  - name: ALEXANDRIA
    distance:
      value: 0.74
      units: km
  - name: EMERY
    distance:
      value: 13.82
      units: km
  - name: SPENCER
    distance:
      value: 17.05
      units: km
- country: US
  region: SD
  name: Allen
  lat: '43.2792'
  long: "-101.9265"
  nearby_rate_centers:
  - name: MARTIN
    distance:
      value: 18.87
      units: km
  - name: KYLE
    distance:
      value: 26.23
      units: km
  - name: NO GORDON
    distance:
      value: 37.76
      units: km
- country: US
  region: SD
  name: Alpena
  lat: '44.1829'
  long: "-98.3683"
  nearby_rate_centers:
  - name: ALPENA
    distance:
      value: 0.03
      units: km
  - name: WOONSOCKET
    distance:
      value: 16.71
      units: km
  - name: WESIGTNSPG
    distance:
      value: 20.13
      units: km
- country: US
  region: SD
  name: Altamont
  lat: '44.8408'
  long: "-96.6901"
  nearby_rate_centers:
  - name: CLEAR LAKE
    distance:
      value: 9.82
      units: km
  - name: GOODWIN
    distance:
      value: 13.25
      units: km
  - name: GARY
    distance:
      value: 19.51
      units: km
- country: US
  region: SD
  name: Anderson
  lat: '43.5194'
  long: "-96.6141"
  nearby_rate_centers:
  - name: BRANDON
    distance:
      value: 8.6
      units: km
  - name: SIOUX FLS
    distance:
      value: 9.32
      units: km
  - name: HARISBGTEA
    distance:
      value: 12.55
      units: km
- country: US
  region: SD
  name: Andover
  lat: '45.4102'
  long: "-97.9037"
  nearby_rate_centers:
  - name: ANDOVER
    distance:
      value: 0.23
      units: km
  - name: PIERPONT
    distance:
      value: 11.17
      units: km
  - name: BRISTOL
    distance:
      value: 14.44
      units: km
- country: US
  region: SD
  name: Angostura
  lat: '43.3192'
  long: "-103.3860"
  nearby_rate_centers:
  - name: ORAL
    distance:
      value: 13.65
      units: km
  - name: HOTSPRINGS
    distance:
      value: 13.95
      units: km
  - name: OELRICHS
    distance:
      value: 20.1
      units: km
- country: US
  region: SD
  name: Antelope
  lat: '43.3087'
  long: "-100.6306"
  nearby_rate_centers:
  - name: MISSION
    distance:
      value: 2.39
      units: km
  - name: ROSEBUD
    distance:
      value: 19.36
      units: km
  - name: WOOD
    distance:
      value: 24.48
      units: km
- country: US
  region: SD
  name: Ardmore
  lat: '43.0192'
  long: "-103.6543"
  nearby_rate_centers:
  - name: ARDMORE
    distance:
      value: 0.41
      units: km
  - name: EDGEMONT
    distance:
      value: 33.91
      units: km
  - name: OELRICHS
    distance:
      value: 38.19
      units: km
- country: US
  region: SD
  name: Arlington
  lat: '44.3635'
  long: "-97.1338"
  nearby_rate_centers:
  - name: ARLINGTON
    distance:
      value: 0.35
      units: km
  - name: SINAI
    distance:
      value: 15.37
      units: km
  - name: VOLGA
    distance:
      value: 17.1
      units: km
- country: US
  region: SD
  name: Armour
  lat: '43.3190'
  long: "-98.3448"
  nearby_rate_centers:
  - name: ARMOUR
    distance:
      value: 0.64
      units: km
  - name: CORSICA
    distance:
      value: 12.96
      units: km
  - name: DELMONT
    distance:
      value: 15.42
      units: km
- country: US
  region: SD
  name: Artas
  lat: '45.8873'
  long: "-99.8069"
  nearby_rate_centers:
  - name: EUREKA
    distance:
      value: 18.94
      units: km
  - name: SOVENTURIA
    distance:
      value: 20.73
      units: km
  - name: HERREID
    distance:
      value: 21.08
      units: km
- country: US
  region: SD
  name: Artesian
  lat: '44.0079'
  long: "-97.9237"
  nearby_rate_centers:
  - name: ARTESIAN
    distance:
      value: 0.1
      units: km
  - name: FORESTBURG
    distance:
      value: 14.87
      units: km
  - name: LETCHER
    distance:
      value: 20.6
      units: km
- country: US
  region: SD
  name: Ashland Heights
  lat: '44.1293'
  long: "-103.1286"
  nearby_rate_centers:
  - name: RAPID CITY
    distance:
      value: 8.95
      units: km
  - name: NEWUNDERWD
    distance:
      value: 24.17
      units: km
  - name: HERMOSA
    distance:
      value: 33.13
      units: km
- country: US
  region: SD
  name: Ashton
  lat: '44.9931'
  long: "-98.4991"
  nearby_rate_centers:
  - name: REDFIELD
    distance:
      value: 13.32
      units: km
  - name: MELLETTE
    distance:
      value: 17.48
      units: km
  - name: TULARE
    distance:
      value: 27.9
      units: km
- country: US
  region: SD
  name: Astoria
  lat: '44.5577'
  long: "-96.5465"
  nearby_rate_centers:
  - name: ASTORIA
    distance:
      value: 0.42
      units: km
  - name: WHENDRICKS
    distance:
      value: 6.99
      units: km
  - name: TORONTO
    distance:
      value: 8.69
      units: km
- country: US
  region: SD
  name: Aurora
  lat: '44.2823'
  long: "-96.6868"
  nearby_rate_centers:
  - name: BROOKINGSR
    distance:
      value: 8.71
      units: km
  - name: BROOKINGS
    distance:
      value: 8.71
      units: km
  - name: WHITE
    distance:
      value: 17.01
      units: km
  - name: ELKTON
    distance:
      value: 17.29
      units: km
- country: US
  region: SD
  name: Aurora Center
  lat: '43.5272'
  long: "-98.5894"
  nearby_rate_centers:
  - name: NEWHOLLAND
    distance:
      value: 11.41
      units: km
  - name: STICKNEY
    distance:
      value: 14.03
      units: km
  - name: CORSICA
    distance:
      value: 18.44
      units: km
- country: US
  region: SD
  name: Avon
  lat: '43.0052'
  long: "-98.0593"
  nearby_rate_centers:
  - name: AVON
    distance:
      value: 0.47
      units: km
  - name: TYNDALL
    distance:
      value: 15.57
      units: km
  - name: SPRINGFLD
    distance:
      value: 20.79
      units: km
- country: US
  region: SD
  name: Badger
  lat: '44.4855'
  long: "-97.2079"
  nearby_rate_centers:
  - name: LAKENORDEN
    distance:
      value: 11.08
      units: km
  - name: ARLINGTON
    distance:
      value: 14.49
      units: km
  - name: LK PRESTON
    distance:
      value: 18.57
      units: km
- country: US
  region: SD
  name: Baltic
  lat: '43.7603'
  long: "-96.7371"
  nearby_rate_centers:
  - name: BALTIC
    distance:
      value: 0.31
      units: km
  - name: DELLRAPIDS
    distance:
      value: 7.64
      units: km
  - name: CROOKS
    distance:
      value: 12.49
      units: km
- country: US
  region: SD
  name: Bancroft
  lat: '44.4894'
  long: "-97.7505"
  nearby_rate_centers:
  - name: IROQUOIS
    distance:
      value: 15.95
      units: km
  - name: BRYNTWLWLK
    distance:
      value: 17.29
      units: km
  - name: DE SMET
    distance:
      value: 19.13
      units: km
- country: US
  region: SD
  name: Batesland
  lat: '43.1278'
  long: "-102.1017"
  nearby_rate_centers:
  - name: NO GORDON
    distance:
      value: 15.85
      units: km
  - name: MARTIN
    distance:
      value: 29.75
      units: km
  - name: KYLE
    distance:
      value: 34.19
      units: km
- country: US
  region: SD
  name: Bath
  lat: '45.4692'
  long: "-98.3236"
  nearby_rate_centers:
  - name: ABERDEEN
    distance:
      value: 12.31
      units: km
  - name: COLUMBIA
    distance:
      value: 16.64
      units: km
  - name: GROTON
    distance:
      value: 17.64
      units: km
- country: US
  region: SD
  name: Bath Corner
  lat: '45.4627'
  long: "-98.3329"
  nearby_rate_centers:
  - name: ABERDEEN
    distance:
      value: 11.59
      units: km
  - name: COLUMBIA
    distance:
      value: 17.43
      units: km
  - name: GROTON
    distance:
      value: 18.3
      units: km
- country: US
  region: SD
  name: Belle Fourche
  lat: '44.6640'
  long: "-103.8564"
  nearby_rate_centers:
  - name: BELLEFORCH
    distance:
      value: 1.19
      units: km
  - name: SPEARFISH
    distance:
      value: 18.95
      units: km
  - name: NISLAND
    distance:
      value: 25.16
      units: km
- country: US
  region: SD
  name: Belvidere
  lat: '43.8321'
  long: "-101.2711"
  nearby_rate_centers:
  - name: BELVIDERE
    distance:
      value: 1.38
      units: km
  - name: KADOKA
    distance:
      value: 19.55
      units: km
  - name: MIDLAND
    distance:
      value: 28.09
      units: km
- country: US
  region: SD
  name: Beresford
  lat: '43.0797'
  long: "-96.7803"
  nearby_rate_centers:
  - name: BERESFD RL
    distance:
      value: 0.46
      units: km
  - name: BERESFORD
    distance:
      value: 0.46
      units: km
  - name: ALSEN
    distance:
      value: 10.66
      units: km
  - name: ALCESTER
    distance:
      value: 13.5
      units: km
- country: US
  region: SD
  name: Big Stone City
  lat: '45.2985'
  long: "-96.4657"
  nearby_rate_centers:
  - name: BIGSTONECY
    distance:
      value: 0.59
      units: km
  - name: MILBANK
    distance:
      value: 15.15
      units: km
  - name: W MARIETTA
    distance:
      value: 31.14
      units: km
- country: US
  region: SD
  name: Bijou Hills
  lat: '43.5285'
  long: "-99.1439"
  nearby_rate_centers:
  - name: ACADEMY
    distance:
      value: 9.76
      units: km
  - name: PUKWANA
    distance:
      value: 27.64
      units: km
  - name: KIMBALL
    distance:
      value: 29.07
      units: km
- country: US
  region: SD
  name: Bison
  lat: '45.5235'
  long: "-102.4677"
  nearby_rate_centers:
  - name: BISON
    distance:
      value: 0.54
      units: km
  - name: MEADOW
    distance:
      value: 19.03
      units: km
  - name: SORUM
    distance:
      value: 36.79
      units: km
- country: US
  region: SD
  name: Blackhawk
  lat: '44.1514'
  long: "-103.3340"
  nearby_rate_centers:
  - name: RAPID CITY
    distance:
      value: 11.66
      units: km
  - name: KEYSTONE
    distance:
      value: 29.56
      units: km
  - name: HILL CITY
    distance:
      value: 30.95
      units: km
- country: US
  region: SD
  name: Blucksberg Mountain
  lat: '44.3593'
  long: "-103.4538"
  nearby_rate_centers:
  - name: STURGIS
    distance:
      value: 7.13
      units: km
  - name: WHITEWOOD
    distance:
      value: 18.13
      units: km
  - name: DEADWOOD
    distance:
      value: 20.27
      units: km
- country: US
  region: SD
  name: Blumengard Colony
  lat: '45.2415'
  long: "-99.1700"
  nearby_rate_centers:
  - name: CRESBARD
    distance:
      value: 18.72
      units: km
  - name: FAULKTON
    distance:
      value: 23.12
      units: km
  - name: ONAKA
    distance:
      value: 23.94
      units: km
- country: US
  region: SD
  name: Blunt
  lat: '44.5159'
  long: "-99.9885"
  nearby_rate_centers:
  - name: BLUNT
    distance:
      value: 0.26
      units: km
  - name: HARROLD
    distance:
      value: 19.62
      units: km
  - name: ONIDA
    distance:
      value: 22.29
      units: km
- country: US
  region: SD
  name: Bon Homme Colony
  lat: '42.8649'
  long: "-97.7056"
  nearby_rate_centers:
  - name: TABOR
    distance:
      value: 10.04
      units: km
  - name: SPRINGFLD
    distance:
      value: 15.83
      units: km
  - name: TYNDALL
    distance:
      value: 19.56
      units: km
- country: US
  region: SD
  name: Bonesteel
  lat: '43.0775'
  long: "-98.9467"
  nearby_rate_centers:
  - name: BONESTEEL
    distance:
      value: 0.58
      units: km
  - name: NORTHNAPER
    distance:
      value: 18.18
      units: km
  - name: NO BRISTOW
    distance:
      value: 30.07
      units: km
- country: US
  region: SD
  name: Boulder Canyon
  lat: '44.3971'
  long: "-103.6046"
  nearby_rate_centers:
  - name: WHITEWOOD
    distance:
      value: 7.37
      units: km
  - name: DEADWOOD
    distance:
      value: 8.2
      units: km
  - name: STURGIS
    distance:
      value: 8.66
      units: km
- country: US
  region: SD
  name: Bowdle
  lat: '45.4512'
  long: "-99.6565"
  nearby_rate_centers:
  - name: BOWDLE
    distance:
      value: 0.32
      units: km
  - name: HOSMER
    distance:
      value: 20.5
      units: km
  - name: HOVEN
    distance:
      value: 24.92
      units: km
- country: US
  region: SD
  name: Box Elder
  lat: '44.1120'
  long: "-103.0818"
  nearby_rate_centers:
  - name: RAPID CITY
    distance:
      value: 11.58
      units: km
  - name: NEWUNDERWD
    distance:
      value: 20.18
      units: km
  - name: HERMOSA
    distance:
      value: 32.05
      units: km
- country: US
  region: SD
  name: Bradley
  lat: '45.0904'
  long: "-97.6420"
  nearby_rate_centers:
  - name: BRADLEY
    distance:
      value: 0.14
      units: km
  - name: FLORENCE
    distance:
      value: 25.05
      units: km
  - name: CLARK
    distance:
      value: 25.13
      units: km
- country: US
  region: SD
  name: Brandon
  lat: '43.5928'
  long: "-96.5799"
  nearby_rate_centers:
  - name: BRANDON
    distance:
      value: 0.08
      units: km
  - name: VALLEY SPG
    distance:
      value: 9.2
      units: km
  - name: SIOUX FLS
    distance:
      value: 13.08
      units: km
- country: US
  region: SD
  name: Brandt
  lat: '44.6669'
  long: "-96.6252"
  nearby_rate_centers:
  - name: BRANDT
    distance:
      value: 0.29
      units: km
  - name: TORONTO
    distance:
      value: 10.59
      units: km
  - name: CLEAR LAKE
    distance:
      value: 10.61
      units: km
- country: US
  region: SD
  name: Brant Lake
  lat: '43.9308'
  long: "-96.9436"
  nearby_rate_centers:
  - name: CHESTER
    distance:
      value: 4.68
      units: km
  - name: WENTWORTH
    distance:
      value: 7.03
      units: km
  - name: COLMAN
    distance:
      value: 11.38
      units: km
- country: US
  region: SD
  name: Brant Lake South
  lat: '43.9139'
  long: "-96.9380"
  nearby_rate_centers:
  - name: CHESTER
    distance:
      value: 2.75
      units: km
  - name: WENTWORTH
    distance:
      value: 8.96
      units: km
  - name: COLMAN
    distance:
      value: 11.99
      units: km
- country: US
  region: SD
  name: Brentford
  lat: '45.1591'
  long: "-98.3223"
  nearby_rate_centers:
  - name: MELLETTE
    distance:
      value: 13.9
      units: km
  - name: CONDE
    distance:
      value: 17.56
      units: km
  - name: TURTON
    distance:
      value: 21.07
      units: km
- country: US
  region: SD
  name: Brentwood Colony
  lat: '45.1513'
  long: "-99.2984"
  nearby_rate_centers:
  - name: ONAKA
    distance:
      value: 14.02
      units: km
  - name: FAULKTON
    distance:
      value: 18.22
      units: km
  - name: SENECA
    distance:
      value: 18.95
      units: km
- country: US
  region: SD
  name: Bridger
  lat: '44.5421'
  long: "-101.9136"
  nearby_rate_centers:
  - name: MILESVILLE
    distance:
      value: 22.6
      units: km
  - name: CREIGHTON
    distance:
      value: 39.86
      units: km
  - name: ENNING
    distance:
      value: 51.16
      units: km
- country: US
  region: SD
  name: Bridgewater
  lat: '43.5502'
  long: "-97.4984"
  nearby_rate_centers:
  - name: BRIDGEWTR
    distance:
      value: 0.37
      units: km
  - name: EMERY
    distance:
      value: 11.62
      units: km
  - name: CANISTOTA
    distance:
      value: 18.11
      units: km
- country: US
  region: SD
  name: Bristol
  lat: '45.3466'
  long: "-97.7485"
  nearby_rate_centers:
  - name: BRISTOL
    distance:
      value: 0.72
      units: km
  - name: ANDOVER
    distance:
      value: 14.1
      units: km
  - name: WEBSTER
    distance:
      value: 18.12
      units: km
- country: US
  region: SD
  name: Britton
  lat: '45.7924'
  long: "-97.7529"
  nearby_rate_centers:
  - name: BRITTON
    distance:
      value: 0.99
      units: km
  - name: SO FORMAN
    distance:
      value: 15.9
      units: km
  - name: LANGFORD
    distance:
      value: 21.54
      units: km
- country: US
  region: SD
  name: Broadland
  lat: '44.4938'
  long: "-98.3466"
  nearby_rate_centers:
  - name: WOLSEY
    distance:
      value: 13.7
      units: km
  - name: HITCHCOCK
    distance:
      value: 15.36
      units: km
  - name: HURON
    distance:
      value: 18.42
      units: km
- country: US
  region: SD
  name: Brookings
  lat: '44.3022'
  long: "-96.7859"
  nearby_rate_centers:
  - name: BROOKINGS
    distance:
      value: 0.82
      units: km
  - name: BROOKINGSR
    distance:
      value: 0.82
      units: km
  - name: VOLGA
    distance:
      value: 11.41
      units: km
  - name: WHITE
    distance:
      value: 18.09
      units: km
- country: US
  region: SD
  name: Bruce
  lat: '44.4378'
  long: "-96.8906"
  nearby_rate_centers:
  - name: VOLGA
    distance:
      value: 12.97
      units: km
  - name: ESTELLINE
    distance:
      value: 15.43
      units: km
  - name: BROOKINGSR
    distance:
      value: 16.41
      units: km
  - name: BROOKINGS
    distance:
      value: 16.41
      units: km
- country: US
  region: SD
  name: Bryant
  lat: '44.5899'
  long: "-97.4673"
  nearby_rate_centers:
  - name: BRYNTWLWLK
    distance:
      value: 14.4
      units: km
  - name: LAKENORDEN
    distance:
      value: 20.52
      units: km
  - name: HAYTI
    distance:
      value: 22.31
      units: km
- country: US
  region: SD
  name: Buffalo
  lat: '45.5863'
  long: "-103.5434"
  nearby_rate_centers:
  - name: BUFFALO
    distance:
      value: 0.69
      units: km
  - name: CAMP CROOK
    distance:
      value: 33.91
      units: km
  - name: SOUTH LADD
    distance:
      value: 37.73
      units: km
- country: US
  region: SD
  name: Buffalo Chip
  lat: '44.4166'
  long: "-103.4058"
  nearby_rate_centers:
  - name: STURGIS
    distance:
      value: 7.36
      units: km
  - name: WHITEWOOD
    distance:
      value: 18.69
      units: km
  - name: DEADWOOD
    distance:
      value: 24.13
      units: km
- country: US
  region: SD
  name: Buffalo Gap
  lat: '43.4921'
  long: "-103.3154"
  nearby_rate_centers:
  - name: BUFFALOGAP
    distance:
      value: 0.61
      units: km
  - name: ORAL
    distance:
      value: 10.33
      units: km
  - name: HOTSPRINGS
    distance:
      value: 14.92
      units: km
- country: US
  region: SD
  name: Bullhead
  lat: '45.7693'
  long: "-101.0809"
  nearby_rate_centers:
  - name: MCLAUGHLIN
    distance:
      value: 21.33
      units: km
  - name: MCINTOSH
    distance:
      value: 26.75
      units: km
  - name: TIMBERLAKE
    distance:
      value: 37.39
      units: km
- country: US
  region: SD
  name: Burbank
  lat: '42.7461'
  long: "-96.8326"
  nearby_rate_centers:
  - name: VERMILLION
    distance:
      value: 9.23
      units: km
  - name: ELK POINT
    distance:
      value: 13.86
      units: km
  - name: WEST AKRON
    distance:
      value: 21.8
      units: km
- country: US
  region: SD
  name: Burke
  lat: '43.1827'
  long: "-99.2923"
  nearby_rate_centers:
  - name: BURKE
    distance:
      value: 0.58
      units: km
  - name: GREGORY
    distance:
      value: 12.89
      units: km
  - name: NORTHNAPER
    distance:
      value: 19.77
      units: km
- country: US
  region: SD
  name: Bushnell
  lat: '44.3274'
  long: "-96.6424"
  nearby_rate_centers:
  - name: WHITE
    distance:
      value: 11.77
      units: km
  - name: BROOKINGS
    distance:
      value: 11.89
      units: km
  - name: BROOKINGSR
    distance:
      value: 11.89
      units: km
  - name: ELKTON
    distance:
      value: 16.6
      units: km
- country: US
  region: SD
  name: Butler
  lat: '45.2620'
  long: "-97.7117"
  nearby_rate_centers:
  - name: BRISTOL
    distance:
      value: 9.14
      units: km
  - name: WEBSTER
    distance:
      value: 16.68
      units: km
  - name: BRADLEY
    distance:
      value: 19.73
      units: km
- country: US
  region: SD
  name: Cameron Colony
  lat: '43.1878'
  long: "-97.2627"
  nearby_rate_centers:
  - name: FLYGER
    distance:
      value: 4.41
      units: km
  - name: IRENE
    distance:
      value: 14.1
      units: km
  - name: VIBORG
    distance:
      value: 14.9
      units: km
- country: US
  region: SD
  name: Camp Crook
  lat: '45.5500'
  long: "-103.9750"
  nearby_rate_centers:
  - name: CAMP CROOK
    distance:
      value: 0.3
      units: km
  - name: BUFFALO
    distance:
      value: 33.17
      units: km
  - name: SOUTH LADD
    distance:
      value: 58.12
      units: km
- country: US
  region: SD
  name: Camrose Colony
  lat: '44.9343'
  long: "-98.2202"
  nearby_rate_centers:
  - name: DOLAND
    distance:
      value: 10.72
      units: km
  - name: TURTON
    distance:
      value: 15.98
      units: km
  - name: REDFIELD
    distance:
      value: 24.71
      units: km
- country: US
  region: SD
  name: Canistota
  lat: '43.5978'
  long: "-97.2926"
  nearby_rate_centers:
  - name: CANISTOTA
    distance:
      value: 0.72
      units: km
  - name: SALEM
    distance:
      value: 15.71
      units: km
  - name: BRIDGEWTR
    distance:
      value: 17.76
      units: km
- country: US
  region: SD
  name: Canova
  lat: '43.8813'
  long: "-97.5040"
  nearby_rate_centers:
  - name: CANOVA
    distance:
      value: 0.39
      units: km
  - name: HOWARD
    distance:
      value: 14.33
      units: km
  - name: CENTER
    distance:
      value: 14.57
      units: km
- country: US
  region: SD
  name: Canton
  lat: '43.3032'
  long: "-96.5848"
  nearby_rate_centers:
  - name: CANTON
    distance:
      value: 0.73
      units: km
  - name: WORTHING
    distance:
      value: 14.76
      units: km
  - name: HARISBGTEA
    distance:
      value: 19.18
      units: km
- country: US
  region: SD
  name: Caputa
  lat: '43.9961'
  long: "-102.9844"
  nearby_rate_centers:
  - name: NEWUNDERWD
    distance:
      value: 16.09
      units: km
  - name: RAPID CITY
    distance:
      value: 21.35
      units: km
  - name: HERMOSA
    distance:
      value: 24.43
      units: km
- country: US
  region: SD
  name: Carthage
  lat: '44.1686'
  long: "-97.7150"
  nearby_rate_centers:
  - name: HOWARD
    distance:
      value: 23.29
      units: km
  - name: ARTESIAN
    distance:
      value: 24.35
      units: km
  - name: IROQUOIS
    distance:
      value: 24.52
      units: km
- country: US
  region: SD
  name: Castlewood
  lat: '44.7242'
  long: "-97.0309"
  nearby_rate_centers:
  - name: CASTLEWOOD
    distance:
      value: 0.21
      units: km
  - name: HAYTI
    distance:
      value: 15.4
      units: km
  - name: ESTELLINE
    distance:
      value: 19.35
      units: km
- country: US
  region: SD
  name: Cavour
  lat: '44.3693'
  long: "-98.0420"
  nearby_rate_centers:
  - name: CAVOUR
    distance:
      value: 1.14
      units: km
  - name: HURON
    distance:
      value: 13.7
      units: km
  - name: IROQUOIS
    distance:
      value: 15.06
      units: km
- country: US
  region: SD
  name: Cedar Grove Colony
  lat: '43.5317'
  long: "-98.8045"
  nearby_rate_centers:
  - name: PLATTE
    distance:
      value: 16.82
      units: km
  - name: NEWHOLLAND
    distance:
      value: 20.48
      units: km
  - name: ACADEMY
    distance:
      value: 23.15
      units: km
- country: US
  region: SD
  name: Centerville
  lat: '43.1165'
  long: "-96.9596"
  nearby_rate_centers:
  - name: CENTERVL
    distance:
      value: 0.05
      units: km
  - name: VIBORG
    distance:
      value: 11.37
      units: km
  - name: BERESFD RL
    distance:
      value: 14.85
      units: km
  - name: BERESFORD
    distance:
      value: 14.85
      units: km
- country: US
  region: SD
  name: Central City
  lat: '44.3685'
  long: "-103.7706"
  nearby_rate_centers:
  - name: LEAD
    distance:
      value: 2.02
      units: km
  - name: DEADWOOD
    distance:
      value: 5.42
      units: km
  - name: WHITEWOOD
    distance:
      value: 14.93
      units: km
- country: US
  region: SD
  name: Chamberlain
  lat: '43.7956'
  long: "-99.3263"
  nearby_rate_centers:
  - name: Chamberlain (Midstate Telecom)
    distance:
      value: 1.6
      units: km
  - name: CHAMBERLAN
    distance:
      value: 1.6
      units: km
  - name: PUKWANA
    distance:
      value: 11.45
      units: km
  - name: RELIANCE
    distance:
      value: 23.84
      units: km
- country: US
  region: SD
  name: Chancellor
  lat: '43.3719'
  long: "-96.9875"
  nearby_rate_centers:
  - name: LENNOX
    distance:
      value: 7.51
      units: km
  - name: PARKER
    distance:
      value: 12.06
      units: km
  - name: HURLEY
    distance:
      value: 12.79
      units: km
- country: US
  region: SD
  name: Chelsea
  lat: '45.1675'
  long: "-98.7434"
  nearby_rate_centers:
  - name: CRESBARD
    distance:
      value: 16.31
      units: km
  - name: MELLETTE
    distance:
      value: 19.25
      units: km
  - name: FAULKTON
    distance:
      value: 34.08
      units: km
- country: US
  region: SD
  name: Cherry Creek
  lat: '44.6048'
  long: "-101.4996"
  nearby_rate_centers:
  - name: MILESVILLE
    distance:
      value: 24.5
      units: km
  - name: HAYES
    distance:
      value: 46.46
      units: km
  - name: EAGLEBUTTE
    distance:
      value: 48.62
      units: km
- country: US
  region: SD
  name: Chester
  lat: '43.8996'
  long: "-96.9277"
  nearby_rate_centers:
  - name: CHESTER
    distance:
      value: 1.03
      units: km
  - name: WENTWORTH
    distance:
      value: 10.72
      units: km
  - name: COLMAN
    distance:
      value: 12.39
      units: km
- country: US
  region: SD
  name: Claire City
  lat: '45.8566'
  long: "-97.1035"
  nearby_rate_centers:
  - name: CLAIRECITY
    distance:
      value: 0.53
      units: km
  - name: SOLIDGERWD
    distance:
      value: 10.94
      units: km
  - name: NEWEFFNGTN
    distance:
      value: 13.88
      units: km
- country: US
  region: SD
  name: Claremont
  lat: '45.6719'
  long: "-98.0157"
  nearby_rate_centers:
  - name: CLAREMONT
    distance:
      value: 0.59
      units: km
  - name: LANGFORD
    distance:
      value: 16.05
      units: km
  - name: HOUGHTON
    distance:
      value: 18.11
      units: km
- country: US
  region: SD
  name: Claremont Colony
  lat: '44.7129'
  long: "-96.9512"
  nearby_rate_centers:
  - name: CASTLEWOOD
    distance:
      value: 6.62
      units: km
  - name: ESTELLINE
    distance:
      value: 15.68
      units: km
  - name: GOODWIN
    distance:
      value: 19.79
      units: km
- country: US
  region: SD
  name: Clark
  lat: '44.8809'
  long: "-97.7348"
  nearby_rate_centers:
  - name: CLARK
    distance:
      value: 0.77
      units: km
  - name: BRADLEY
    distance:
      value: 24.55
      units: km
  - name: DOLAND
    distance:
      value: 28.66
      units: km
- country: US
  region: SD
  name: Clark Colony
  lat: '44.7914'
  long: "-97.9815"
  nearby_rate_centers:
  - name: DOLAND
    distance:
      value: 14.44
      units: km
  - name: CLARK
    distance:
      value: 21.58
      units: km
  - name: TURTON
    distance:
      value: 30.38
      units: km
- country: US
  region: SD
  name: Clear Lake
  lat: '45.6933'
  long: "-97.3572"
  nearby_rate_centers:
  - name: VEBLEN
    distance:
      value: 20.18
      units: km
  - name: ROSLYN
    distance:
      value: 23.69
      units: km
  - name: SISSETON
    distance:
      value: 23.87
      units: km
- country: US
  region: SD
  name: Clear Lake
  lat: '44.7644'
  long: "-96.6768"
  nearby_rate_centers:
  - name: CLEAR LAKE
    distance:
      value: 1.43
      units: km
  - name: BRANDT
    distance:
      value: 11.86
      units: km
  - name: GARY
    distance:
      value: 18.09
      units: km
- country: US
  region: SD
  name: Clearfield Colony
  lat: '43.1439'
  long: "-98.1423"
  nearby_rate_centers:
  - name: DELMONT
    distance:
      value: 14.02
      units: km
  - name: WAGNER
    distance:
      value: 14.39
      units: km
  - name: AVON
    distance:
      value: 16.62
      units: km
- country: US
  region: SD
  name: Cloverleaf Colony
  lat: '44.1840'
  long: "-97.5385"
  nearby_rate_centers:
  - name: HOWARD
    distance:
      value: 19.46
      units: km
  - name: OLDHAMRMON
    distance:
      value: 21.58
      units: km
  - name: DE SMET
    distance:
      value: 22.17
      units: km
- country: US
  region: SD
  name: Collins Colony
  lat: '44.5478'
  long: "-97.7013"
  nearby_rate_centers:
  - name: BRYNTWLWLK
    distance:
      value: 9.72
      units: km
  - name: DE SMET
    distance:
      value: 21.45
      units: km
  - name: IROQUOIS
    distance:
      value: 23.52
      units: km
- country: US
  region: SD
  name: Colman
  lat: '43.9835'
  long: "-96.8148"
  nearby_rate_centers:
  - name: COLMAN
    distance:
      value: 0.68
      units: km
  - name: WENTWORTH
    distance:
      value: 12.22
      units: km
  - name: CHESTER
    distance:
      value: 13.74
      units: km
- country: US
  region: SD
  name: Colome
  lat: '43.2599'
  long: "-99.7174"
  nearby_rate_centers:
  - name: WINNER
    distance:
      value: 17.23
      units: km
  - name: GREGORY
    distance:
      value: 23.12
      units: km
  - name: CLEARFIELD
    distance:
      value: 27.87
      units: km
- country: US
  region: SD
  name: Colonial Pine Hills
  lat: '44.0141'
  long: "-103.3146"
  nearby_rate_centers:
  - name: RAPID CITY
    distance:
      value: 10.78
      units: km
  - name: KEYSTONE
    distance:
      value: 15.89
      units: km
  - name: HERMOSA
    distance:
      value: 22.24
      units: km
- country: US
  region: SD
  name: Colton
  lat: '43.7871'
  long: "-96.9280"
  nearby_rate_centers:
  - name: COLTON
    distance:
      value: 0.68
      units: km
  - name: CHESTER
    distance:
      value: 11.48
      units: km
  - name: BALTIC
    distance:
      value: 15.88
      units: km
- country: US
  region: SD
  name: Columbia
  lat: '45.6148'
  long: "-98.3107"
  nearby_rate_centers:
  - name: COLUMBIA
    distance:
      value: 0.44
      units: km
  - name: HOUGHTON
    distance:
      value: 18.47
      units: km
  - name: ABERDEEN
    distance:
      value: 21.11
      units: km
- country: US
  region: SD
  name: Conde
  lat: '45.1573'
  long: "-98.0955"
  nearby_rate_centers:
  - name: CONDE
    distance:
      value: 0.31
      units: km
  - name: TURTON
    distance:
      value: 11.82
      units: km
  - name: FERNEY
    distance:
      value: 19.6
      units: km
- country: US
  region: SD
  name: Corn Creek
  lat: '43.5744'
  long: "-101.2059"
  nearby_rate_centers:
  - name: LONGVALLEY
    distance:
      value: 26.87
      units: km
  - name: BELVIDERE
    distance:
      value: 28.47
      units: km
  - name: WHITERIVER
    distance:
      value: 36.65
      units: km
- country: US
  region: SD
  name: Corona
  lat: '45.3352'
  long: "-96.7646"
  nearby_rate_centers:
  - name: WILMOT
    distance:
      value: 10.69
      units: km
  - name: MILBANK
    distance:
      value: 16.05
      units: km
  - name: SUMMIT
    distance:
      value: 21.14
      units: km
- country: US
  region: SD
  name: Corsica
  lat: '43.4223'
  long: "-98.4073"
  nearby_rate_centers:
  - name: CORSICA
    distance:
      value: 0.43
      units: km
  - name: ARMOUR
    distance:
      value: 12.67
      units: km
  - name: NEWHOLLAND
    distance:
      value: 15.38
      units: km
- country: US
  region: SD
  name: Cottonwood
  lat: '43.9657'
  long: "-101.9021"
  nearby_rate_centers:
  - name: QUINN
    distance:
      value: 18.03
      units: km
  - name: PHILIP
    distance:
      value: 20.73
      units: km
  - name: WALL
    distance:
      value: 27.1
      units: km
- country: US
  region: SD
  name: Cow Creek
  lat: '44.5538'
  long: "-100.4754"
  nearby_rate_centers:
  - name: PIERRE
    distance:
      value: 23.08
      units: km
  - name: ONIDA
    distance:
      value: 36.71
      units: km
  - name: BLUNT
    distance:
      value: 38.59
      units: km
- country: US
  region: SD
  name: Cresbard
  lat: '45.1692'
  long: "-98.9477"
  nearby_rate_centers:
  - name: CRESBARD
    distance:
      value: 0.56
      units: km
  - name: FAULKTON
    distance:
      value: 20.94
      units: km
  - name: ORIENT
    distance:
      value: 32.0
      units: km
- country: US
  region: SD
  name: Crocker
  lat: '45.1070'
  long: "-97.7805"
  nearby_rate_centers:
  - name: BRADLEY
    distance:
      value: 11.04
      units: km
  - name: CONDE
    distance:
      value: 25.6
      units: km
  - name: TURTON
    distance:
      value: 25.98
      units: km
- country: US
  region: SD
  name: Crook City
  lat: '44.4381'
  long: "-103.6434"
  nearby_rate_centers:
  - name: WHITEWOOD
    distance:
      value: 2.58
      units: km
  - name: DEADWOOD
    distance:
      value: 7.75
      units: km
  - name: STURGIS
    distance:
      value: 11.8
      units: km
- country: US
  region: SD
  name: Crooks
  lat: '43.6592'
  long: "-96.8094"
  nearby_rate_centers:
  - name: CROOKS
    distance:
      value: 0.17
      units: km
  - name: HARTFORD
    distance:
      value: 12.18
      units: km
  - name: BALTIC
    distance:
      value: 12.58
      units: km
- country: US
  region: SD
  name: Custer
  lat: '43.7668'
  long: "-103.6006"
  nearby_rate_centers:
  - name: CUSTER
    distance:
      value: 0.61
      units: km
  - name: HILL CITY
    distance:
      value: 18.65
      units: km
  - name: KEYSTONE
    distance:
      value: 20.19
      units: km
- country: US
  region: SD
  name: Dakota Dunes
  lat: '42.4920'
  long: "-96.4870"
  nearby_rate_centers:
  - name: NOSIOUX CY
    distance:
      value: 2.92
      units: km
  - name: JEFFERSON
    distance:
      value: 13.42
      units: km
  - name: ELK POINT
    distance:
      value: 26.87
      units: km
- country: US
  region: SD
  name: Dallas
  lat: '43.2379'
  long: "-99.5175"
  nearby_rate_centers:
  - name: GREGORY
    distance:
      value: 6.78
      units: km
  - name: BURKE
    distance:
      value: 18.68
      units: km
  - name: WINNER
    distance:
      value: 31.62
      units: km
- country: US
  region: SD
  name: Dante
  lat: '43.0399'
  long: "-98.1856"
  nearby_rate_centers:
  - name: WAGNER
    distance:
      value: 10.35
      units: km
  - name: AVON
    distance:
      value: 11.13
      units: km
  - name: DELMONT
    distance:
      value: 25.48
      units: km
- country: US
  region: SD
  name: Davis
  lat: '43.2595'
  long: "-96.9945"
  nearby_rate_centers:
  - name: HURLEY
    distance:
      value: 8.33
      units: km
  - name: VIBORG
    distance:
      value: 12.42
      units: km
  - name: LENNOX
    distance:
      value: 12.47
      units: km
- country: US
  region: SD
  name: De Smet
  lat: '44.3862'
  long: "-97.5496"
  nearby_rate_centers:
  - name: DE SMET
    distance:
      value: 1.03
      units: km
  - name: LK PRESTON
    distance:
      value: 13.91
      units: km
  - name: IROQUOIS
    distance:
      value: 24.18
      units: km
- country: US
  region: SD
  name: Deadwood
  lat: '44.3871'
  long: "-103.7207"
  nearby_rate_centers:
  - name: DEADWOOD
    distance:
      value: 1.17
      units: km
  - name: LEAD
    distance:
      value: 5.55
      units: km
  - name: WHITEWOOD
    distance:
      value: 10.69
      units: km
- country: US
  region: SD
  name: Deerfield Colony
  lat: '45.5874'
  long: "-98.8995"
  nearby_rate_centers:
  - name: LEOLA
    distance:
      value: 15.59
      units: km
  - name: IPSWICH
    distance:
      value: 18.27
      units: km
  - name: SO FORBES
    distance:
      value: 34.7
      units: km
- country: US
  region: SD
  name: Dell Rapids
  lat: '43.8244'
  long: "-96.7143"
  nearby_rate_centers:
  - name: DELLRAPIDS
    distance:
      value: 0.39
      units: km
  - name: BALTIC
    distance:
      value: 7.51
      units: km
  - name: COLTON
    distance:
      value: 18.16
      units: km
- country: US
  region: SD
  name: Delmont
  lat: '43.2666'
  long: "-98.1592"
  nearby_rate_centers:
  - name: DELMONT
    distance:
      value: 0.7
      units: km
  - name: TRIPP
    distance:
      value: 16.17
      units: km
  - name: ARMOUR
    distance:
      value: 16.49
      units: km
- country: US
  region: SD
  name: Dimock
  lat: '43.4764'
  long: "-97.9888"
  nearby_rate_centers:
  - name: ETHAN
    distance:
      value: 7.45
      units: km
  - name: PARKSTON
    distance:
      value: 9.68
      units: km
  - name: MITCHELL
    distance:
      value: 25.96
      units: km
- country: US
  region: SD
  name: Doland
  lat: '44.8944'
  long: "-98.0997"
  nearby_rate_centers:
  - name: DOLAND
    distance:
      value: 0.35
      units: km
  - name: TURTON
    distance:
      value: 17.42
      units: km
  - name: CLARK
    distance:
      value: 28.92
      units: km
- country: US
  region: SD
  name: Dolton
  lat: '43.4911'
  long: "-97.3848"
  nearby_rate_centers:
  - name: BRIDGEWTR
    distance:
      value: 11.55
      units: km
  - name: MARION
    distance:
      value: 12.58
      units: km
  - name: CANISTOTA
    distance:
      value: 14.64
      units: km
- country: US
  region: SD
  name: Draper
  lat: '43.9262'
  long: "-100.5372"
  nearby_rate_centers:
  - name: MURDO
    distance:
      value: 15.12
      units: km
  - name: VIVIAN
    distance:
      value: 19.62
      units: km
  - name: PRESHO
    distance:
      value: 38.45
      units: km
- country: US
  region: SD
  name: Dudley
  lat: '43.3082'
  long: "-103.8192"
  nearby_rate_centers:
  - name: EDGEMONT
    distance:
      value: 0.9
      units: km
  - name: HOTSPRINGS
    distance:
      value: 30.66
      units: km
  - name: ARDMORE
    distance:
      value: 34.4
      units: km
- country: US
  region: SD
  name: Dupree
  lat: '45.0495'
  long: "-101.6013"
  nearby_rate_centers:
  - name: DUPREE
    distance:
      value: 0.63
      units: km
  - name: EAGLEBUTTE
    distance:
      value: 28.77
      units: km
  - name: FAITH
    distance:
      value: 34.8
      units: km
  - name: FAITHRURAL
    distance:
      value: 34.8
      units: km
- country: US
  region: SD
  name: Eagle Butte
  lat: '44.9939'
  long: "-101.2310"
  nearby_rate_centers:
  - name: EAGLEBUTTE
    distance:
      value: 1.2
      units: km
  - name: DUPREE
    distance:
      value: 30.32
      units: km
  - name: ISABEL
    distance:
      value: 46.8
      units: km
- country: US
  region: SD
  name: Eden
  lat: '45.6168'
  long: "-97.4196"
  nearby_rate_centers:
  - name: ROSLYN
    distance:
      value: 13.93
      units: km
  - name: SISSETON
    distance:
      value: 29.09
      units: km
  - name: VEBLEN
    distance:
      value: 29.75
      units: km
- country: US
  region: SD
  name: Edgemont
  lat: '43.2973'
  long: "-103.8323"
  nearby_rate_centers:
  - name: EDGEMONT
    distance:
      value: 1.53
      units: km
  - name: HOTSPRINGS
    distance:
      value: 32.14
      units: km
  - name: ARDMORE
    distance:
      value: 33.72
      units: km
- country: US
  region: SD
  name: Egan
  lat: '44.0004'
  long: "-96.6485"
  nearby_rate_centers:
  - name: FLANDREAU
    distance:
      value: 6.46
      units: km
  - name: COLMAN
    distance:
      value: 13.73
      units: km
  - name: WESTJASPER
    distance:
      value: 19.91
      units: km
- country: US
  region: SD
  name: Elk Point
  lat: '42.6812'
  long: "-96.6805"
  nearby_rate_centers:
  - name: ELK POINT
    distance:
      value: 0.54
      units: km
  - name: JEFFERSON
    distance:
      value: 13.23
      units: km
  - name: WEST AKRON
    distance:
      value: 19.81
      units: km
- country: US
  region: SD
  name: Elkton
  lat: '44.2351'
  long: "-96.4794"
  nearby_rate_centers:
  - name: ELKTON
    distance:
      value: 0.26
      units: km
  - name: FLANDREAU
    distance:
      value: 23.38
      units: km
  - name: WHITE
    distance:
      value: 25.88
      units: km
- country: US
  region: SD
  name: Emery
  lat: '43.6020'
  long: "-97.6195"
  nearby_rate_centers:
  - name: EMERY
    distance:
      value: 0.5
      units: km
  - name: BRIDGEWTR
    distance:
      value: 11.03
      units: km
  - name: SPENCER
    distance:
      value: 13.84
      units: km
- country: US
  region: SD
  name: Enemy Swim
  lat: '45.4319'
  long: "-97.2868"
  nearby_rate_centers:
  - name: WAUBAY
    distance:
      value: 11.04
      units: km
  - name: ROSLYN
    distance:
      value: 17.66
      units: km
  - name: WEBSTER
    distance:
      value: 21.62
      units: km
- country: US
  region: SD
  name: Erwin
  lat: '44.4880'
  long: "-97.4409"
  nearby_rate_centers:
  - name: LK PRESTON
    distance:
      value: 14.15
      units: km
  - name: DE SMET
    distance:
      value: 15.13
      units: km
  - name: LAKENORDEN
    distance:
      value: 21.37
      units: km
- country: US
  region: SD
  name: Estelline
  lat: '44.5768'
  long: "-96.9011"
  nearby_rate_centers:
  - name: ESTELLINE
    distance:
      value: 0.07
      units: km
  - name: CASTLEWOOD
    distance:
      value: 19.46
      units: km
  - name: TORONTO
    distance:
      value: 19.59
      units: km
- country: US
  region: SD
  name: Ethan
  lat: '43.5463'
  long: "-97.9834"
  nearby_rate_centers:
  - name: ETHAN
    distance:
      value: 0.39
      units: km
  - name: PARKSTON
    distance:
      value: 17.44
      units: km
  - name: MITCHELL
    distance:
      value: 18.32
      units: km
- country: US
  region: SD
  name: Eureka
  lat: '45.7707'
  long: "-99.6207"
  nearby_rate_centers:
  - name: EUREKA
    distance:
      value: 0.5
      units: km
  - name: SOVENTURIA
    distance:
      value: 17.3
      units: km
  - name: HOSMER
    distance:
      value: 23.85
      units: km
- country: US
  region: SD
  name: Evergreen Colony
  lat: '45.1217'
  long: "-99.0425"
  nearby_rate_centers:
  - name: CRESBARD
    distance:
      value: 9.19
      units: km
  - name: FAULKTON
    distance:
      value: 12.06
      units: km
  - name: ORIENT
    distance:
      value: 25.0
      units: km
- country: US
  region: SD
  name: Fairburn
  lat: '43.6869'
  long: "-103.2087"
  nearby_rate_centers:
  - name: HERMOSA
    distance:
      value: 16.5
      units: km
  - name: BUFFALOGAP
    distance:
      value: 22.95
      units: km
  - name: KEYSTONE
    distance:
      value: 28.45
      units: km
- country: US
  region: SD
  name: Fairfax
  lat: '43.0281'
  long: "-98.8890"
  nearby_rate_centers:
  - name: BONESTEEL
    distance:
      value: 7.77
      units: km
  - name: NORTHNAPER
    distance:
      value: 22.18
      units: km
  - name: NO BRISTOW
    distance:
      value: 24.82
      units: km
- country: US
  region: SD
  name: Fairview
  lat: '43.2221'
  long: "-96.4876"
  nearby_rate_centers:
  - name: HUDSON
    distance:
      value: 10.4
      units: km
  - name: CANTON
    distance:
      value: 12.34
      units: km
  - name: ALCESTER
    distance:
      value: 25.01
      units: km
- country: US
  region: SD
  name: Faith
  lat: '45.0258'
  long: "-102.0363"
  nearby_rate_centers:
  - name: FAITHRURAL
    distance:
      value: 0.53
      units: km
  - name: FAITH
    distance:
      value: 0.53
      units: km
  - name: DUPREE
    distance:
      value: 33.66
      units: km
  - name: MAURINE
    distance:
      value: 43.46
      units: km
- country: US
  region: SD
  name: Farmer
  lat: '43.7252'
  long: "-97.6890"
  nearby_rate_centers:
  - name: SPENCER
    distance:
      value: 7.82
      units: km
  - name: ALEXANDRIA
    distance:
      value: 10.44
      units: km
  - name: EMERY
    distance:
      value: 14.83
      units: km
- country: US
  region: SD
  name: Faulkton
  lat: '45.0342'
  long: "-99.1266"
  nearby_rate_centers:
  - name: FAULKTON
    distance:
      value: 0.66
      units: km
  - name: ORIENT
    distance:
      value: 15.3
      units: km
  - name: CRESBARD
    distance:
      value: 20.72
      units: km
- country: US
  region: SD
  name: Fedora
  lat: '44.0067'
  long: "-97.7895"
  nearby_rate_centers:
  - name: ARTESIAN
    distance:
      value: 10.64
      units: km
  - name: HOWARD
    distance:
      value: 21.1
      units: km
  - name: FORESTBURG
    distance:
      value: 25.6
      units: km
- country: US
  region: SD
  name: Ferney
  lat: '45.3346'
  long: "-98.0939"
  nearby_rate_centers:
  - name: FERNEY
    distance:
      value: 0.55
      units: km
  - name: GROTON
    distance:
      value: 13.06
      units: km
  - name: ANDOVER
    distance:
      value: 16.85
      units: km
- country: US
  region: SD
  name: Flandreau
  lat: '44.0465'
  long: "-96.5983"
  nearby_rate_centers:
  - name: FLANDREAU
    distance:
      value: 0.96
      units: km
  - name: COLMAN
    distance:
      value: 19.11
      units: km
  - name: WESTJASPER
    distance:
      value: 21.95
      units: km
- country: US
  region: SD
  name: Florence
  lat: '45.0548'
  long: "-97.3263"
  nearby_rate_centers:
  - name: FLORENCE
    distance:
      value: 0.28
      units: km
  - name: WATERTOWN
    distance:
      value: 24.74
      units: km
  - name: BRADLEY
    distance:
      value: 25.1
      units: km
- country: US
  region: SD
  name: Fordham Colony
  lat: '44.7678'
  long: "-97.9068"
  nearby_rate_centers:
  - name: CLARK
    distance:
      value: 18.04
      units: km
  - name: DOLAND
    distance:
      value: 20.42
      units: km
  - name: BRYNTWLWLK
    distance:
      value: 26.27
      units: km
- country: US
  region: SD
  name: Forestburg
  lat: '44.0212'
  long: "-98.1032"
  nearby_rate_centers:
  - name: FORESTBURG
    distance:
      value: 0.73
      units: km
  - name: WOONSOCKET
    distance:
      value: 13.6
      units: km
  - name: LETCHER
    distance:
      value: 13.83
      units: km
- country: US
  region: SD
  name: Fort Pierre
  lat: '44.3680'
  long: "-100.3831"
  nearby_rate_centers:
  - name: PIERRE
    distance:
      value: 2.4
      units: km
  - name: BLUNT
    distance:
      value: 35.25
      units: km
  - name: ONIDA
    distance:
      value: 45.48
      units: km
- country: US
  region: SD
  name: Fort Thompson
  lat: '44.0527'
  long: "-99.4079"
  nearby_rate_centers:
  - name: FTTHOMPSON
    distance:
      value: 3.57
      units: km
  - name: RELIANCE
    distance:
      value: 24.89
      units: km
  - name: CHAMBERLAN
    distance:
      value: 27.73
      units: km
  - name: Chamberlain (Midstate Telecom)
    distance:
      value: 27.73
      units: km
- country: US
  region: SD
  name: Frankfort
  lat: '44.8777'
  long: "-98.3092"
  nearby_rate_centers:
  - name: DOLAND
    distance:
      value: 16.68
      units: km
  - name: REDFIELD
    distance:
      value: 16.8
      units: km
  - name: TULARE
    distance:
      value: 21.86
      units: km
- country: US
  region: SD
  name: Frederick
  lat: '45.8319'
  long: "-98.5067"
  nearby_rate_centers:
  - name: FREDERICK
    distance:
      value: 0.16
      units: km
  - name: SO ELLENDL
    distance:
      value: 7.75
      units: km
  - name: SO GUELPH
    distance:
      value: 14.48
      units: km
- country: US
  region: SD
  name: Freeman
  lat: '43.3475'
  long: "-97.4306"
  nearby_rate_centers:
  - name: FREEMAN
    distance:
      value: 0.49
      units: km
  - name: MARION
    distance:
      value: 16.26
      units: km
  - name: MENNO
    distance:
      value: 17.18
      units: km
- country: US
  region: SD
  name: Fruitdale
  lat: '44.6692'
  long: "-103.6955"
  nearby_rate_centers:
  - name: BELLEFORCH
    distance:
      value: 12.21
      units: km
  - name: NISLAND
    distance:
      value: 12.42
      units: km
  - name: NEWELL
    distance:
      value: 22.99
      units: km
- country: US
  region: SD
  name: Fulton
  lat: '43.7288'
  long: "-97.8226"
  nearby_rate_centers:
  - name: ALEXANDRIA
    distance:
      value: 8.25
      units: km
  - name: MITCHELL
    distance:
      value: 16.17
      units: km
  - name: SPENCER
    distance:
      value: 18.56
      units: km
- country: US
  region: SD
  name: Gann Valley
  lat: '44.0336'
  long: "-98.9887"
  nearby_rate_centers:
  - name: GANNVALLEY
    distance:
      value: 0.29
      units: km
  - name: KIMBALL
    distance:
      value: 31.49
      units: km
  - name: PUKWANA
    distance:
      value: 32.82
      units: km
- country: US
  region: SD
  name: Garden City
  lat: '44.9593'
  long: "-97.5804"
  nearby_rate_centers:
  - name: CLARK
    distance:
      value: 15.36
      units: km
  - name: BRADLEY
    distance:
      value: 15.48
      units: km
  - name: FLORENCE
    distance:
      value: 22.74
      units: km
- country: US
  region: SD
  name: Garretson
  lat: '43.7147'
  long: "-96.5028"
  nearby_rate_centers:
  - name: GARRETSON
    distance:
      value: 0.57
      units: km
  - name: BRANDON
    distance:
      value: 14.93
      units: km
  - name: VALLEY SPG
    distance:
      value: 15.85
      units: km
- country: US
  region: SD
  name: Gary
  lat: '44.7941'
  long: "-96.4574"
  nearby_rate_centers:
  - name: GARY
    distance:
      value: 0.46
      units: km
  - name: CLEAR LAKE
    distance:
      value: 18.49
      units: km
  - name: BRANDT
    distance:
      value: 19.44
      units: km
- country: US
  region: SD
  name: Gayville
  lat: '42.8889'
  long: "-97.1738"
  nearby_rate_centers:
  - name: WAKONDA
    distance:
      value: 14.06
      units: km
  - name: YANKTON
    distance:
      value: 18.01
      units: km
  - name: IRENE
    distance:
      value: 21.93
      units: km
- country: US
  region: SD
  name: Geddes
  lat: '43.2540'
  long: "-98.6974"
  nearby_rate_centers:
  - name: LAKE ANDES
    distance:
      value: 16.6
      units: km
  - name: PLATTE
    distance:
      value: 18.1
      units: km
  - name: NEWHOLLAND
    distance:
      value: 20.63
      units: km
- country: US
  region: SD
  name: Gettysburg
  lat: '45.0060'
  long: "-99.9539"
  nearby_rate_centers:
  - name: GETTYSBURG
    distance:
      value: 0.38
      units: km
  - name: LEBANON
    distance:
      value: 16.31
      units: km
  - name: HOVEN
    distance:
      value: 29.89
      units: km
- country: US
  region: SD
  name: Glendale Colony
  lat: '44.7979'
  long: "-98.2868"
  nearby_rate_centers:
  - name: DOLAND
    distance:
      value: 18.13
      units: km
  - name: TULARE
    distance:
      value: 18.68
      units: km
  - name: REDFIELD
    distance:
      value: 20.43
      units: km
- country: US
  region: SD
  name: Glenham
  lat: '45.5330'
  long: "-100.2711"
  nearby_rate_centers:
  - name: GLENHAM
    distance:
      value: 0.15
      units: km
  - name: MOBRIDGE
    distance:
      value: 12.73
      units: km
  - name: SELBY
    distance:
      value: 18.78
      units: km
- country: US
  region: SD
  name: Golden View Colony
  lat: '43.6954'
  long: "-97.4487"
  nearby_rate_centers:
  - name: SALEM
    distance:
      value: 6.27
      units: km
  - name: SPENCER
    distance:
      value: 11.95
      units: km
  - name: BRIDGEWTR
    distance:
      value: 16.76
      units: km
- country: US
  region: SD
  name: Goodwin
  lat: '44.8775'
  long: "-96.8497"
  nearby_rate_centers:
  - name: GOODWIN
    distance:
      value: 0.19
      units: km
  - name: CLEAR LAKE
    distance:
      value: 19.06
      units: km
  - name: WATERTOWN
    distance:
      value: 20.03
      units: km
- country: US
  region: SD
  name: Graceville Colony
  lat: '43.9289'
  long: "-97.2840"
  nearby_rate_centers:
  - name: WINFRED
    distance:
      value: 10.22
      units: km
  - name: CENTER
    distance:
      value: 11.24
      units: km
  - name: MADISON
    distance:
      value: 16.27
      units: km
- country: US
  region: SD
  name: Grass Ranch Colony
  lat: '43.6500'
  long: "-98.8836"
  nearby_rate_centers:
  - name: KIMBALL
    distance:
      value: 12.66
      units: km
  - name: WHITE LAKE
    distance:
      value: 16.57
      units: km
  - name: ACADEMY
    distance:
      value: 26.27
      units: km
- country: US
  region: SD
  name: Grassland Colony
  lat: '45.6682'
  long: "-98.7965"
  nearby_rate_centers:
  - name: LEOLA
    distance:
      value: 12.15
      units: km
  - name: SO FORBES
    distance:
      value: 24.26
      units: km
  - name: FREDERICK
    distance:
      value: 28.77
      units: km
- country: US
  region: SD
  name: Green Grass
  lat: '45.1714'
  long: "-101.2573"
  nearby_rate_centers:
  - name: EAGLEBUTTE
    distance:
      value: 18.9
      units: km
  - name: ISABEL
    distance:
      value: 27.89
      units: km
  - name: DUPREE
    distance:
      value: 30.83
      units: km
- country: US
  region: SD
  name: Green Valley
  lat: '44.0390'
  long: "-103.1116"
  nearby_rate_centers:
  - name: RAPID CITY
    distance:
      value: 10.14
      units: km
  - name: NEWUNDERWD
    distance:
      value: 23.12
      units: km
  - name: HERMOSA
    distance:
      value: 23.59
      units: km
- country: US
  region: SD
  name: Greenwood Colony
  lat: '43.2145'
  long: "-98.1536"
  nearby_rate_centers:
  - name: DELMONT
    distance:
      value: 6.12
      units: km
  - name: TRIPP
    distance:
      value: 15.15
      units: km
  - name: WAGNER
    distance:
      value: 18.79
      units: km
- country: US
  region: SD
  name: Gregory
  lat: '43.2300'
  long: "-99.4208"
  nearby_rate_centers:
  - name: GREGORY
    distance:
      value: 1.23
      units: km
  - name: BURKE
    distance:
      value: 11.1
      units: km
  - name: NORTHNAPER
    distance:
      value: 30.39
      units: km
- country: US
  region: SD
  name: Grenville
  lat: '45.4670'
  long: "-97.3901"
  nearby_rate_centers:
  - name: ROSLYN
    distance:
      value: 8.7
      units: km
  - name: WAUBAY
    distance:
      value: 16.56
      units: km
  - name: WEBSTER
    distance:
      value: 18.65
      units: km
- country: US
  region: SD
  name: Groton
  lat: '45.4517'
  long: "-98.1000"
  nearby_rate_centers:
  - name: GROTON
    distance:
      value: 0.11
      units: km
  - name: FERNEY
    distance:
      value: 13.14
      units: km
  - name: ANDOVER
    distance:
      value: 15.88
      units: km
- country: US
  region: SD
  name: Hamill
  lat: '43.5939'
  long: "-99.6907"
  nearby_rate_centers:
  - name: WINNER
    distance:
      value: 27.88
      units: km
  - name: RELIANCE
    distance:
      value: 32.33
      units: km
  - name: WITTEN
    distance:
      value: 36.34
      units: km
- country: US
  region: SD
  name: Harrisburg
  lat: '43.4324'
  long: "-96.7041"
  nearby_rate_centers:
  - name: HARISBGTEA
    distance:
      value: 2.08
      units: km
  - name: SIOUX FLS
    distance:
      value: 12.21
      units: km
  - name: WORTHING
    distance:
      value: 13.12
      units: km
- country: US
  region: SD
  name: Harrison
  lat: '43.4310'
  long: "-98.5268"
  nearby_rate_centers:
  - name: NEWHOLLAND
    distance:
      value: 5.77
      units: km
  - name: CORSICA
    distance:
      value: 9.59
      units: km
  - name: ARMOUR
    distance:
      value: 19.1
      units: km
- country: US
  region: SD
  name: Harrold
  lat: '44.5258'
  long: "-99.7416"
  nearby_rate_centers:
  - name: HARROLD
    distance:
      value: 0.05
      units: km
  - name: BLUNT
    distance:
      value: 19.82
      units: km
  - name: HIGHMORE
    distance:
      value: 23.02
      units: km
- country: US
  region: SD
  name: Hartford
  lat: '43.6210'
  long: "-96.9424"
  nearby_rate_centers:
  - name: HARTFORD
    distance:
      value: 0.69
      units: km
  - name: WALL LAKE
    distance:
      value: 8.74
      units: km
  - name: HUMBOLDT
    distance:
      value: 10.74
      units: km
- country: US
  region: SD
  name: Hayti
  lat: '44.6580'
  long: "-97.2049"
  nearby_rate_centers:
  - name: HAYTI
    distance:
      value: 0.22
      units: km
  - name: LAKENORDEN
    distance:
      value: 8.1
      units: km
  - name: CASTLEWOOD
    distance:
      value: 15.42
      units: km
- country: US
  region: SD
  name: Hazel
  lat: '44.7582'
  long: "-97.3810"
  nearby_rate_centers:
  - name: HAYTI
    distance:
      value: 17.99
      units: km
  - name: LAKENORDEN
    distance:
      value: 23.6
      units: km
  - name: BRYNTWLWLK
    distance:
      value: 25.46
      units: km
- country: US
  region: SD
  name: Hecla
  lat: '45.8822'
  long: "-98.1520"
  nearby_rate_centers:
  - name: HECLA
    distance:
      value: 0.18
      units: km
  - name: HOUGHTON
    distance:
      value: 13.78
      units: km
  - name: SO GUELPH
    distance:
      value: 16.81
      units: km
- country: US
  region: SD
  name: Henry
  lat: '44.8809'
  long: "-97.4616"
  nearby_rate_centers:
  - name: CLARK
    distance:
      value: 21.46
      units: km
  - name: FLORENCE
    distance:
      value: 22.31
      units: km
  - name: BRADLEY
    distance:
      value: 27.37
      units: km
- country: US
  region: SD
  name: Hermosa
  lat: '43.8399'
  long: "-103.1930"
  nearby_rate_centers:
  - name: HERMOSA
    distance:
      value: 0.58
      units: km
  - name: KEYSTONE
    distance:
      value: 19.07
      units: km
  - name: RAPID CITY
    distance:
      value: 27.28
      units: km
- country: US
  region: SD
  name: Herreid
  lat: '45.8378'
  long: "-100.0748"
  nearby_rate_centers:
  - name: HERREID
    distance:
      value: 0.44
      units: km
  - name: MOUND CITY
    distance:
      value: 11.74
      units: km
  - name: POLLOCK
    distance:
      value: 17.73
      units: km
- country: US
  region: SD
  name: Herrick
  lat: '43.1150'
  long: "-99.1882"
  nearby_rate_centers:
  - name: NORTHNAPER
    distance:
      value: 9.41
      units: km
  - name: BURKE
    distance:
      value: 11.83
      units: km
  - name: BONESTEEL
    distance:
      value: 19.74
      units: km
- country: US
  region: SD
  name: Hetland
  lat: '44.3772'
  long: "-97.2347"
  nearby_rate_centers:
  - name: ARLINGTON
    distance:
      value: 7.85
      units: km
  - name: LK PRESTON
    distance:
      value: 11.27
      units: km
  - name: SINAI
    distance:
      value: 21.52
      units: km
- country: US
  region: SD
  name: Highmore
  lat: '44.5214'
  long: "-99.4394"
  nearby_rate_centers:
  - name: HIGHMORE
    distance:
      value: 1.05
      units: km
  - name: REEHEIGHTS
    distance:
      value: 19.0
      units: km
  - name: HARROLD
    distance:
      value: 23.94
      units: km
- country: US
  region: SD
  name: Hill City
  lat: '43.9337'
  long: "-103.5694"
  nearby_rate_centers:
  - name: HILL CITY
    distance:
      value: 0.43
      units: km
  - name: KEYSTONE
    distance:
      value: 12.86
      units: km
  - name: CUSTER
    distance:
      value: 18.5
      units: km
- country: US
  region: SD
  name: Hillcrest Colony
  lat: '44.9425'
  long: "-97.6672"
  nearby_rate_centers:
  - name: CLARK
    distance:
      value: 9.25
      units: km
  - name: BRADLEY
    distance:
      value: 16.7
      units: km
  - name: FLORENCE
    distance:
      value: 29.67
      units: km
- country: US
  region: SD
  name: Hillside Colony
  lat: '44.7382'
  long: "-98.0473"
  nearby_rate_centers:
  - name: DOLAND
    distance:
      value: 17.5
      units: km
  - name: CLARK
    distance:
      value: 28.97
      units: km
  - name: HITCHCOCK
    distance:
      value: 31.14
      units: km
- country: US
  region: SD
  name: Hillsview
  lat: '45.6642'
  long: "-99.5607"
  nearby_rate_centers:
  - name: HOSMER
    distance:
      value: 11.35
      units: km
  - name: EUREKA
    distance:
      value: 13.23
      units: km
  - name: BOWDLE
    distance:
      value: 25.09
      units: km
- country: US
  region: SD
  name: Hitchcock
  lat: '44.6294'
  long: "-98.4082"
  nearby_rate_centers:
  - name: HITCHCOCK
    distance:
      value: 0.5
      units: km
  - name: TULARE
    distance:
      value: 14.92
      units: km
  - name: WOLSEY
    distance:
      value: 24.9
      units: km
- country: US
  region: SD
  name: Horse Creek
  lat: '43.5330'
  long: "-100.7419"
  nearby_rate_centers:
  - name: WHITERIVER
    distance:
      value: 3.69
      units: km
  - name: WOOD
    distance:
      value: 21.32
      units: km
  - name: MISSION
    distance:
      value: 26.66
      units: km
- country: US
  region: SD
  name: Hosmer
  lat: '45.5788'
  long: "-99.4736"
  nearby_rate_centers:
  - name: HOSMER
    distance:
      value: 0.47
      units: km
  - name: ROSCOE
    distance:
      value: 18.14
      units: km
  - name: BOWDLE
    distance:
      value: 20.43
      units: km
- country: US
  region: SD
  name: Hot Springs
  lat: '43.4195'
  long: "-103.4657"
  nearby_rate_centers:
  - name: HOTSPRINGS
    distance:
      value: 1.13
      units: km
  - name: BUFFALOGAP
    distance:
      value: 15.14
      units: km
  - name: ORAL
    distance:
      value: 16.13
      units: km
- country: US
  region: SD
  name: Hoven
  lat: '45.2416'
  long: "-99.7775"
  nearby_rate_centers:
  - name: HOVEN
    distance:
      value: 0.34
      units: km
  - name: TOLSTOY
    distance:
      value: 13.0
      units: km
  - name: LEBANON
    distance:
      value: 19.26
      units: km
- country: US
  region: SD
  name: Howard
  lat: '44.0117'
  long: "-97.5246"
  nearby_rate_centers:
  - name: HOWARD
    distance:
      value: 0.28
      units: km
  - name: WINFRED
    distance:
      value: 12.66
      units: km
  - name: CANOVA
    distance:
      value: 14.54
      units: km
- country: US
  region: SD
  name: Hudson
  lat: '43.1301'
  long: "-96.4556"
  nearby_rate_centers:
  - name: HUDSON
    distance:
      value: 0.24
      units: km
  - name: W HAWARDEN
    distance:
      value: 17.97
      units: km
  - name: ALCESTER
    distance:
      value: 18.63
      units: km
- country: US
  region: SD
  name: Humboldt
  lat: '43.6447'
  long: "-97.0745"
  nearby_rate_centers:
  - name: HUMBOLDT
    distance:
      value: 0.65
      units: km
  - name: HARTFORD
    distance:
      value: 10.54
      units: km
  - name: WALL LAKE
    distance:
      value: 15.17
      units: km
- country: US
  region: SD
  name: Hurley
  lat: '43.2794'
  long: "-97.0894"
  nearby_rate_centers:
  - name: HURLEY
    distance:
      value: 0.64
      units: km
  - name: VIBORG
    distance:
      value: 12.47
      units: km
  - name: PARKER
    distance:
      value: 13.08
      units: km
- country: US
  region: SD
  name: Huron
  lat: '44.3623'
  long: "-98.2094"
  nearby_rate_centers:
  - name: HURON
    distance:
      value: 0.58
      units: km
  - name: CAVOUR
    distance:
      value: 14.18
      units: km
  - name: WOLSEY
    distance:
      value: 21.67
      units: km
- country: US
  region: SD
  name: Huron Colony
  lat: '44.5634'
  long: "-98.2055"
  nearby_rate_centers:
  - name: HITCHCOCK
    distance:
      value: 17.39
      units: km
  - name: HURON
    distance:
      value: 22.84
      units: km
  - name: CAVOUR
    distance:
      value: 24.91
      units: km
- country: US
  region: SD
  name: Hutterville Colony
  lat: '45.2663'
  long: "-98.2115"
  nearby_rate_centers:
  - name: FERNEY
    distance:
      value: 11.44
      units: km
  - name: CONDE
    distance:
      value: 14.84
      units: km
  - name: GROTON
    distance:
      value: 22.45
      units: km
- country: US
  region: SD
  name: Ideal
  lat: '43.5400'
  long: "-99.9218"
  nearby_rate_centers:
  - name: WITTEN
    distance:
      value: 17.56
      units: km
  - name: WINNER
    distance:
      value: 19.0
      units: km
  - name: KENNEBEC
    distance:
      value: 40.55
      units: km
- country: US
  region: SD
  name: Interior
  lat: '43.7269'
  long: "-101.9837"
  nearby_rate_centers:
  - name: QUINN
    distance:
      value: 31.68
      units: km
  - name: WALL
    distance:
      value: 35.86
      units: km
  - name: KYLE
    distance:
      value: 36.38
      units: km
- country: US
  region: SD
  name: Ipswich
  lat: '45.4435'
  long: "-99.0300"
  nearby_rate_centers:
  - name: IPSWICH
    distance:
      value: 1.0
      units: km
  - name: ROSCOE
    distance:
      value: 23.74
      units: km
  - name: CRESBARD
    distance:
      value: 30.64
      units: km
- country: US
  region: SD
  name: Irene
  lat: '43.0837'
  long: "-97.1576"
  nearby_rate_centers:
  - name: IRENE
    distance:
      value: 0.27
      units: km
  - name: WAKONDA
    distance:
      value: 9.53
      units: km
  - name: VIBORG
    distance:
      value: 11.19
      units: km
- country: US
  region: SD
  name: Iroquois
  lat: '44.3679'
  long: "-97.8495"
  nearby_rate_centers:
  - name: IROQUOIS
    distance:
      value: 0.33
      units: km
  - name: CAVOUR
    distance:
      value: 14.55
      units: km
  - name: DE SMET
    distance:
      value: 22.95
      units: km
- country: US
  region: SD
  name: Isabel
  lat: '45.3939'
  long: "-101.4325"
  nearby_rate_centers:
  - name: ISABEL
    distance:
      value: 0.4
      units: km
  - name: TIMBERLAKE
    distance:
      value: 27.36
      units: km
  - name: DUPREE
    distance:
      value: 40.86
      units: km
- country: US
  region: SD
  name: Jamesville Colony
  lat: '43.1015'
  long: "-97.4818"
  nearby_rate_centers:
  - name: LESTERVL
    distance:
      value: 11.1
      units: km
  - name: MENNO
    distance:
      value: 17.39
      units: km
  - name: FLYGER
    distance:
      value: 18.49
      units: km
- country: US
  region: SD
  name: Java
  lat: '45.5038'
  long: "-99.8839"
  nearby_rate_centers:
  - name: SELBY
    distance:
      value: 11.62
      units: km
  - name: BOWDLE
    distance:
      value: 18.48
      units: km
  - name: MOUND CITY
    distance:
      value: 29.26
      units: km
- country: US
  region: SD
  name: Jefferson
  lat: '42.6043'
  long: "-96.5661"
  nearby_rate_centers:
  - name: JEFFERSON
    distance:
      value: 0.69
      units: km
  - name: NOSIOUX CY
    distance:
      value: 11.85
      units: km
  - name: ELK POINT
    distance:
      value: 13.21
      units: km
- country: US
  region: SD
  name: Johnson Siding
  lat: '44.0846'
  long: "-103.4380"
  nearby_rate_centers:
  - name: RAPID CITY
    distance:
      value: 17.28
      units: km
  - name: HILL CITY
    distance:
      value: 20.05
      units: km
  - name: KEYSTONE
    distance:
      value: 21.39
      units: km
- country: US
  region: SD
  name: Kadoka
  lat: '43.8325'
  long: "-101.5081"
  nearby_rate_centers:
  - name: KADOKA
    distance:
      value: 0.54
      units: km
  - name: BELVIDERE
    distance:
      value: 17.98
      units: km
  - name: PHILIP
    distance:
      value: 26.42
      units: km
- country: US
  region: SD
  name: Kaylor
  lat: '43.1926'
  long: "-97.8405"
  nearby_rate_centers:
  - name: TRIPP
    distance:
      value: 10.94
      units: km
  - name: SCOTLAND
    distance:
      value: 10.99
      units: km
  - name: MENNO
    distance:
      value: 21.55
      units: km
- country: US
  region: SD
  name: Kenel
  lat: '45.8545'
  long: "-100.4592"
  nearby_rate_centers:
  - name: POLLOCK
    distance:
      value: 15.09
      units: km
  - name: MCLAUGHLIN
    distance:
      value: 27.82
      units: km
  - name: HERREID
    distance:
      value: 30.13
      units: km
- country: US
  region: SD
  name: Kennebec
  lat: '43.9035'
  long: "-99.8619"
  nearby_rate_centers:
  - name: KENNEBEC
    distance:
      value: 0.29
      units: km
  - name: PRESHO
    distance:
      value: 15.71
      units: km
  - name: RELIANCE
    distance:
      value: 21.1
      units: km
- country: US
  region: SD
  name: Keystone
  lat: '43.8949'
  long: "-103.4268"
  nearby_rate_centers:
  - name: KEYSTONE
    distance:
      value: 0.65
      units: km
  - name: HILL CITY
    distance:
      value: 12.61
      units: km
  - name: CUSTER
    distance:
      value: 19.41
      units: km
- country: US
  region: SD
  name: Kidder
  lat: '45.8817'
  long: "-97.7139"
  nearby_rate_centers:
  - name: SO FORMAN
    distance:
      value: 7.68
      units: km
  - name: BRITTON
    distance:
      value: 9.71
      units: km
  - name: LANGFORD
    distance:
      value: 31.91
      units: km
- country: US
  region: SD
  name: Kimball
  lat: '43.7468'
  long: "-98.9569"
  nearby_rate_centers:
  - name: KIMBALL
    distance:
      value: 0.53
      units: km
  - name: PUKWANA
    distance:
      value: 18.71
      units: km
  - name: WHITE LAKE
    distance:
      value: 19.59
      units: km
- country: US
  region: SD
  name: Kranzburg
  lat: '44.8888'
  long: "-96.9092"
  nearby_rate_centers:
  - name: GOODWIN
    distance:
      value: 4.83
      units: km
  - name: WATERTOWN
    distance:
      value: 15.25
      units: km
  - name: CASTLEWOOD
    distance:
      value: 20.76
      units: km
- country: US
  region: SD
  name: Kyle
  lat: '43.4245'
  long: "-102.1801"
  nearby_rate_centers:
  - name: KYLE
    distance:
      value: 0.78
      units: km
  - name: NO GORDON
    distance:
      value: 43.72
      units: km
  - name: MARTIN
    distance:
      value: 44.97
      units: km
- country: US
  region: SD
  name: La Plant
  lat: '45.1353'
  long: "-100.6648"
  nearby_rate_centers:
  - name: LAPLANT
    distance:
      value: 2.91
      units: km
  - name: TIMBERLAKE
    distance:
      value: 46.74
      units: km
  - name: EAGLEBUTTE
    distance:
      value: 47.66
      units: km
- country: US
  region: SD
  name: Lake Andes
  lat: '43.1560'
  long: "-98.5361"
  nearby_rate_centers:
  - name: LAKE ANDES
    distance:
      value: 0.49
      units: km
  - name: NO BRISTOW
    distance:
      value: 15.1
      units: km
  - name: WAGNER
    distance:
      value: 20.92
      units: km
- country: US
  region: SD
  name: Lake City
  lat: '45.7248'
  long: "-97.4139"
  nearby_rate_centers:
  - name: VEBLEN
    distance:
      value: 18.64
      units: km
  - name: SOLIDGERWD
    distance:
      value: 24.29
      units: km
  - name: SO FORMAN
    distance:
      value: 25.15
      units: km
- country: US
  region: SD
  name: Lake Madison
  lat: '43.9593'
  long: "-97.0210"
  nearby_rate_centers:
  - name: WENTWORTH
    distance:
      value: 5.62
      units: km
  - name: MADISON
    distance:
      value: 9.37
      units: km
  - name: CHESTER
    distance:
      value: 10.72
      units: km
- country: US
  region: SD
  name: Lake Norden
  lat: '44.5799'
  long: "-97.2109"
  nearby_rate_centers:
  - name: LAKENORDEN
    distance:
      value: 0.62
      units: km
  - name: HAYTI
    distance:
      value: 8.73
      units: km
  - name: CASTLEWOOD
    distance:
      value: 21.32
      units: km
- country: US
  region: SD
  name: Lake Poinsett
  lat: '44.5664'
  long: "-97.0798"
  nearby_rate_centers:
  - name: LAKENORDEN
    distance:
      value: 10.38
      units: km
  - name: HAYTI
    distance:
      value: 14.07
      units: km
  - name: ESTELLINE
    distance:
      value: 14.14
      units: km
- country: US
  region: SD
  name: Lake Preston
  lat: '44.3617'
  long: "-97.3760"
  nearby_rate_centers:
  - name: LK PRESTON
    distance:
      value: 0.86
      units: km
  - name: DE SMET
    distance:
      value: 14.93
      units: km
  - name: ARLINGTON
    distance:
      value: 18.98
      units: km
- country: US
  region: SD
  name: Lakeview Colony
  lat: '43.2202'
  long: "-98.4564"
  nearby_rate_centers:
  - name: LAKE ANDES
    distance:
      value: 9.92
      units: km
  - name: ARMOUR
    distance:
      value: 13.62
      units: km
  - name: WAGNER
    distance:
      value: 19.93
      units: km
- country: US
  region: SD
  name: Lane
  lat: '44.0697'
  long: "-98.4246"
  nearby_rate_centers:
  - name: WESIGTNSPG
    distance:
      value: 12.38
      units: km
  - name: WOONSOCKET
    distance:
      value: 12.67
      units: km
  - name: ALPENA
    distance:
      value: 13.38
      units: km
- country: US
  region: SD
  name: Langford
  lat: '45.6024'
  long: "-97.8303"
  nearby_rate_centers:
  - name: LANGFORD
    distance:
      value: 0.48
      units: km
  - name: PIERPONT
    distance:
      value: 11.56
      units: km
  - name: CLAREMONT
    distance:
      value: 16.23
      units: km
- country: US
  region: SD
  name: Lantry
  lat: '45.0183'
  long: "-101.4328"
  nearby_rate_centers:
  - name: DUPREE
    distance:
      value: 14.25
      units: km
  - name: EAGLEBUTTE
    distance:
      value: 15.15
      units: km
  - name: ISABEL
    distance:
      value: 41.39
      units: km
- country: US
  region: SD
  name: Lead
  lat: '44.3528'
  long: "-103.7671"
  nearby_rate_centers:
  - name: LEAD
    distance:
      value: 0.28
      units: km
  - name: DEADWOOD
    distance:
      value: 6.0
      units: km
  - name: WHITEWOOD
    distance:
      value: 15.99
      units: km
- country: US
  region: SD
  name: Lebanon
  lat: '45.0688'
  long: "-99.7664"
  nearby_rate_centers:
  - name: LEBANON
    distance:
      value: 0.04
      units: km
  - name: GETTYSBURG
    distance:
      value: 16.21
      units: km
  - name: TOLSTOY
    distance:
      value: 19.27
      units: km
- country: US
  region: SD
  name: Lemmon
  lat: '45.9383'
  long: "-102.1598"
  nearby_rate_centers:
  - name: LEMMON
    distance:
      value: 0.79
      units: km
  - name: MORRISTOWN
    distance:
      value: 33.9
      units: km
  - name: SOHETTINGR
    distance:
      value: 34.31
      units: km
- country: US
  region: SD
  name: Lennox
  lat: '43.3495'
  long: "-96.8937"
  nearby_rate_centers:
  - name: LENNOX
    distance:
      value: 0.56
      units: km
  - name: WORTHING
    distance:
      value: 10.8
      units: km
  - name: HARISBGTEA
    distance:
      value: 16.93
      units: km
- country: US
  region: SD
  name: Leola
  lat: '45.7212'
  long: "-98.9386"
  nearby_rate_centers:
  - name: LEOLA
    distance:
      value: 0.9
      units: km
  - name: SO FORBES
    distance:
      value: 22.6
      units: km
  - name: LONG LAKE
    distance:
      value: 25.94
      units: km
- country: US
  region: SD
  name: Lesterville
  lat: '43.0385'
  long: "-97.5905"
  nearby_rate_centers:
  - name: LESTERVL
    distance:
      value: 0.62
      units: km
  - name: TABOR
    distance:
      value: 11.44
      units: km
  - name: SCOTLAND
    distance:
      value: 16.14
      units: km
- country: US
  region: SD
  name: Letcher
  lat: '43.8995'
  long: "-98.1442"
  nearby_rate_centers:
  - name: LETCHER
    distance:
      value: 1.04
      units: km
  - name: FORESTBURG
    distance:
      value: 13.28
      units: km
  - name: WOONSOCKET
    distance:
      value: 19.55
      units: km
- country: US
  region: SD
  name: Little Eagle
  lat: '45.6832'
  long: "-100.7966"
  nearby_rate_centers:
  - name: MCLAUGHLIN
    distance:
      value: 14.84
      units: km
  - name: MOBRIDGE
    distance:
      value: 32.64
      units: km
  - name: TIMBERLAKE
    distance:
      value: 35.81
      units: km
- country: US
  region: SD
  name: Long Hollow
  lat: '45.6823'
  long: "-97.1611"
  nearby_rate_centers:
  - name: SISSETON
    distance:
      value: 8.62
      units: km
  - name: CLAIRECITY
    distance:
      value: 20.28
      units: km
  - name: PEEVER
    distance:
      value: 22.02
      units: km
- country: US
  region: SD
  name: Long Lake
  lat: '45.8567'
  long: "-99.2058"
  nearby_rate_centers:
  - name: LONG LAKE
    distance:
      value: 0.33
      units: km
  - name: SO NELVIK
    distance:
      value: 7.38
      units: km
  - name: SO ASHLEY
    distance:
      value: 14.14
      units: km
- country: US
  region: SD
  name: Long Lake Colony
  lat: '45.6040'
  long: "-98.8253"
  nearby_rate_centers:
  - name: LEOLA
    distance:
      value: 15.79
      units: km
  - name: IPSWICH
    distance:
      value: 23.38
      units: km
  - name: ABERDEEN
    distance:
      value: 30.8
      units: km
- country: US
  region: SD
  name: Loomis
  lat: '43.7931'
  long: "-98.1040"
  nearby_rate_centers:
  - name: MITCHELL
    distance:
      value: 11.48
      units: km
  - name: LETCHER
    distance:
      value: 11.92
      units: km
  - name: MT VERNON
    distance:
      value: 14.95
      units: km
- country: US
  region: SD
  name: Lower Brule
  lat: '44.0742'
  long: "-99.5838"
  nearby_rate_centers:
  - name: FTTHOMPSON
    distance:
      value: 11.54
      units: km
  - name: RELIANCE
    distance:
      value: 21.94
      units: km
  - name: KENNEBEC
    distance:
      value: 29.2
      units: km
- country: US
  region: SD
  name: Lowry
  lat: '45.3155'
  long: "-99.9812"
  nearby_rate_centers:
  - name: HOVEN
    distance:
      value: 18.16
      units: km
  - name: SELBY
    distance:
      value: 21.62
      units: km
  - name: BOWDLE
    distance:
      value: 29.18
      units: km
- country: US
  region: SD
  name: Lyons
  lat: '43.7249'
  long: "-96.8662"
  nearby_rate_centers:
  - name: COLTON
    distance:
      value: 8.32
      units: km
  - name: CROOKS
    distance:
      value: 8.48
      units: km
  - name: BALTIC
    distance:
      value: 11.24
      units: km
- country: US
  region: SD
  name: Madison
  lat: '44.0062'
  long: "-97.1085"
  nearby_rate_centers:
  - name: MADISON
    distance:
      value: 0.64
      units: km
  - name: WENTWORTH
    distance:
      value: 11.43
      units: km
  - name: NUNDA
    distance:
      value: 18.18
      units: km
- country: US
  region: SD
  name: Manderson-White Horse Creek
  lat: '43.2350'
  long: "-102.4916"
  nearby_rate_centers:
  - name: PINE RIDGE
    distance:
      value: 24.23
      units: km
  - name: NO GORDON
    distance:
      value: 29.72
      units: km
  - name: KYLE
    distance:
      value: 33.58
      units: km
- country: US
  region: SD
  name: Mansfield
  lat: '45.2465'
  long: "-98.5581"
  nearby_rate_centers:
  - name: MELLETTE
    distance:
      value: 11.65
      units: km
  - name: ABERDEEN
    distance:
      value: 25.27
      units: km
  - name: CRESBARD
    distance:
      value: 31.85
      units: km
- country: US
  region: SD
  name: Marion
  lat: '43.4236'
  long: "-97.2605"
  nearby_rate_centers:
  - name: MARION
    distance:
      value: 0.12
      units: km
  - name: PARKER
    distance:
      value: 10.79
      units: km
  - name: FREEMAN
    distance:
      value: 16.23
      units: km
- country: US
  region: SD
  name: Martin
  lat: '43.1749'
  long: "-101.7323"
  nearby_rate_centers:
  - name: MARTIN
    distance:
      value: 0.74
      units: km
  - name: LONGVALLEY
    distance:
      value: 36.7
      units: km
  - name: NO GORDON
    distance:
      value: 44.78
      units: km
- country: US
  region: SD
  name: Marty
  lat: '42.9965'
  long: "-98.4302"
  nearby_rate_centers:
  - name: NO BRISTOW
    distance:
      value: 12.87
      units: km
  - name: WAGNER
    distance:
      value: 14.37
      units: km
  - name: LAKE ANDES
    distance:
      value: 19.99
      units: km
- country: US
  region: SD
  name: Marvin
  lat: '45.2605'
  long: "-96.9154"
  nearby_rate_centers:
  - name: SUMMIT
    distance:
      value: 10.5
      units: km
  - name: WILMOT
    distance:
      value: 16.88
      units: km
  - name: SOUTHSHORE
    distance:
      value: 17.65
      units: km
- country: US
  region: SD
  name: Maverick Junction
  lat: '43.4087'
  long: "-103.3958"
  nearby_rate_centers:
  - name: HOTSPRINGS
    distance:
      value: 6.79
      units: km
  - name: ORAL
    distance:
      value: 10.42
      units: km
  - name: BUFFALOGAP
    distance:
      value: 11.78
      units: km
- country: US
  region: SD
  name: Maxwell Colony
  lat: '43.1825'
  long: "-97.6352"
  nearby_rate_centers:
  - name: MENNO
    distance:
      value: 7.65
      units: km
  - name: SCOTLAND
    distance:
      value: 7.67
      units: km
  - name: LESTERVL
    distance:
      value: 15.8
      units: km
- country: US
  region: SD
  name: Mayfield Colony
  lat: '44.6943'
  long: "-97.5811"
  nearby_rate_centers:
  - name: BRYNTWLWLK
    distance:
      value: 9.15
      units: km
  - name: CLARK
    distance:
      value: 23.33
      units: km
  - name: HAYTI
    distance:
      value: 30.23
      units: km
- country: US
  region: SD
  name: McIntosh
  lat: '45.9214'
  long: "-101.3491"
  nearby_rate_centers:
  - name: MCINTOSH
    distance:
      value: 0.93
      units: km
  - name: MORRISTOWN
    distance:
      value: 28.84
      units: km
  - name: MCLAUGHLIN
    distance:
      value: 43.05
      units: km
- country: US
  region: SD
  name: McLaughlin
  lat: '45.8132'
  long: "-100.8108"
  nearby_rate_centers:
  - name: MCLAUGHLIN
    distance:
      value: 0.41
      units: km
  - name: POLLOCK
    distance:
      value: 42.43
      units: km
  - name: MOBRIDGE
    distance:
      value: 42.57
      units: km
- country: US
  region: SD
  name: Meadow View Addition
  lat: '43.6233'
  long: "-96.7023"
  nearby_rate_centers:
  - name: SIOUX FLS
    distance:
      value: 9.33
      units: km
  - name: CROOKS
    distance:
      value: 9.55
      units: km
  - name: BRANDON
    distance:
      value: 10.34
      units: km
- country: US
  region: SD
  name: Meckling
  lat: '42.8402'
  long: "-97.0673"
  nearby_rate_centers:
  - name: VERMILLION
    distance:
      value: 12.6
      units: km
  - name: WAKONDA
    distance:
      value: 18.73
      units: km
  - name: YANKTON
    distance:
      value: 26.94
      units: km
- country: US
  region: SD
  name: Mellette
  lat: '45.1544'
  long: "-98.4983"
  nearby_rate_centers:
  - name: MELLETTE
    distance:
      value: 0.46
      units: km
  - name: REDFIELD
    distance:
      value: 31.19
      units: km
  - name: CONDE
    distance:
      value: 31.37
      units: km
- country: US
  region: SD
  name: Menno
  lat: '43.2386'
  long: "-97.5774"
  nearby_rate_centers:
  - name: MENNO
    distance:
      value: 0.43
      units: km
  - name: SCOTLAND
    distance:
      value: 15.11
      units: km
  - name: FREEMAN
    distance:
      value: 17.01
      units: km
- country: US
  region: SD
  name: Midland
  lat: '44.0711'
  long: "-101.1554"
  nearby_rate_centers:
  - name: MIDLAND
    distance:
      value: 0.84
      units: km
  - name: BELVIDERE
    distance:
      value: 29.34
      units: km
  - name: HAYES
    distance:
      value: 34.85
      units: km
- country: US
  region: SD
  name: Milbank
  lat: '45.2195'
  long: "-96.6338"
  nearby_rate_centers:
  - name: MILBANK
    distance:
      value: 0.82
      units: km
  - name: BIGSTONECY
    distance:
      value: 16.4
      units: km
  - name: STOCKHOLM
    distance:
      value: 18.53
      units: km
- country: US
  region: SD
  name: Millbrook Colony
  lat: '43.6700'
  long: "-97.8717"
  nearby_rate_centers:
  - name: ALEXANDRIA
    distance:
      value: 7.23
      units: km
  - name: MITCHELL
    distance:
      value: 12.81
      units: km
  - name: ETHAN
    distance:
      value: 16.63
      units: km
- country: US
  region: SD
  name: Miller
  lat: '44.5204'
  long: "-98.9869"
  nearby_rate_centers:
  - name: MILLER
    distance:
      value: 0.55
      units: km
  - name: REEHEIGHTS
    distance:
      value: 16.91
      units: km
  - name: WESSINGTON
    distance:
      value: 23.64
      units: km
- country: US
  region: SD
  name: Millerdale Colony
  lat: '44.3990'
  long: "-99.1111"
  nearby_rate_centers:
  - name: REEHEIGHTS
    distance:
      value: 14.64
      units: km
  - name: MILLER
    distance:
      value: 16.2
      units: km
  - name: HIGHMORE
    distance:
      value: 30.06
      units: km
- country: US
  region: SD
  name: Milltown
  lat: '43.4252'
  long: "-97.8081"
  nearby_rate_centers:
  - name: CLAYTON
    distance:
      value: 11.43
      units: km
  - name: PARKSTON
    distance:
      value: 14.59
      units: km
  - name: ETHAN
    distance:
      value: 19.16
      units: km
- country: US
  region: SD
  name: Mina
  lat: '45.4521'
  long: "-98.7414"
  nearby_rate_centers:
  - name: ABERDEEN
    distance:
      value: 20.35
      units: km
  - name: IPSWICH
    distance:
      value: 22.75
      units: km
  - name: LEOLA
    distance:
      value: 33.79
      units: km
- country: US
  region: SD
  name: Mission
  lat: '43.3063'
  long: "-100.6610"
  nearby_rate_centers:
  - name: MISSION
    distance:
      value: 0.62
      units: km
  - name: ROSEBUD
    distance:
      value: 17.09
      units: km
  - name: WOOD
    distance:
      value: 26.0
      units: km
- country: US
  region: SD
  name: Mission Hill
  lat: '42.9208'
  long: "-97.2791"
  nearby_rate_centers:
  - name: YANKTON
    distance:
      value: 10.62
      units: km
  - name: WAKONDA
    distance:
      value: 16.81
      units: km
  - name: IRENE
    distance:
      value: 20.77
      units: km
- country: US
  region: SD
  name: Mitchell
  lat: '43.7294'
  long: "-98.0337"
  nearby_rate_centers:
  - name: MITCHELL
    distance:
      value: 2.5
      units: km
  - name: MT VERNON
    distance:
      value: 17.92
      units: km
  - name: LETCHER
    distance:
      value: 20.37
      units: km
- country: US
  region: SD
  name: Mobridge
  lat: '45.5409'
  long: "-100.4349"
  nearby_rate_centers:
  - name: MOBRIDGE
    distance:
      value: 0.66
      units: km
  - name: GLENHAM
    distance:
      value: 12.92
      units: km
  - name: SELBY
    distance:
      value: 31.54
      units: km
- country: US
  region: SD
  name: Monroe
  lat: '43.4865'
  long: "-97.2166"
  nearby_rate_centers:
  - name: MARION
    distance:
      value: 7.74
      units: km
  - name: PARKER
    distance:
      value: 12.4
      units: km
  - name: CANISTOTA
    distance:
      value: 13.87
      units: km
- country: US
  region: SD
  name: Montrose
  lat: '43.6999'
  long: "-97.1844"
  nearby_rate_centers:
  - name: HUMBOLDT
    distance:
      value: 11.21
      units: km
  - name: CANISTOTA
    distance:
      value: 13.65
      units: km
  - name: SALEM
    distance:
      value: 16.04
      units: km
- country: US
  region: SD
  name: Morningside
  lat: '44.3663'
  long: "-98.1836"
  nearby_rate_centers:
  - name: HURON
    distance:
      value: 2.56
      units: km
  - name: CAVOUR
    distance:
      value: 12.1
      units: km
  - name: WOLSEY
    distance:
      value: 23.57
      units: km
- country: US
  region: SD
  name: Morristown
  lat: '45.9386'
  long: "-101.7188"
  nearby_rate_centers:
  - name: MORRISTOWN
    distance:
      value: 0.54
      units: km
  - name: MCINTOSH
    distance:
      value: 28.18
      units: km
  - name: LEMMON
    distance:
      value: 34.76
      units: km
- country: US
  region: SD
  name: Mound City
  lat: '45.7262'
  long: "-100.0688"
  nearby_rate_centers:
  - name: MOUND CITY
    distance:
      value: 0.69
      units: km
  - name: HERREID
    distance:
      value: 12.71
      units: km
  - name: SELBY
    distance:
      value: 24.59
      units: km
- country: US
  region: SD
  name: Mount Vernon
  lat: '43.7127'
  long: "-98.2612"
  nearby_rate_centers:
  - name: MT VERNON
    distance:
      value: 0.52
      units: km
  - name: PLANKINTON
    distance:
      value: 18.09
      units: km
  - name: MITCHELL
    distance:
      value: 19.24
      units: km
- country: US
  region: SD
  name: Mountain Plains
  lat: '44.4670'
  long: "-103.8636"
  nearby_rate_centers:
  - name: SPEARFISH
    distance:
      value: 2.99
      units: km
  - name: LEAD
    distance:
      value: 15.01
      units: km
  - name: DEADWOOD
    distance:
      value: 15.48
      units: km
- country: US
  region: SD
  name: Murdo
  lat: '43.8893'
  long: "-100.7142"
  nearby_rate_centers:
  - name: MURDO
    distance:
      value: 0.51
      units: km
  - name: VIVIAN
    distance:
      value: 34.07
      units: km
  - name: WHITERIVER
    distance:
      value: 36.13
      units: km
- country: US
  region: SD
  name: Naples
  lat: '44.7716'
  long: "-97.5131"
  nearby_rate_centers:
  - name: BRYNTWLWLK
    distance:
      value: 19.29
      units: km
  - name: CLARK
    distance:
      value: 20.8
      units: km
  - name: HAYTI
    distance:
      value: 27.62
      units: km
- country: US
  region: SD
  name: New Effington
  lat: '45.8558'
  long: "-96.9174"
  nearby_rate_centers:
  - name: NEWEFFNGTN
    distance:
      value: 1.18
      units: km
  - name: CLAIRECITY
    distance:
      value: 13.97
      units: km
  - name: ROSHOLT
    distance:
      value: 14.29
      units: km
- country: US
  region: SD
  name: New Elm Spring Colony
  lat: '43.4892'
  long: "-97.8284"
  nearby_rate_centers:
  - name: ETHAN
    distance:
      value: 13.71
      units: km
  - name: CLAYTON
    distance:
      value: 13.84
      units: km
  - name: PARKSTON
    distance:
      value: 16.63
      units: km
- country: US
  region: SD
  name: New Holland
  lat: '43.4288'
  long: "-98.6075"
  nearby_rate_centers:
  - name: NEWHOLLAND
    distance:
      value: 0.9
      units: km
  - name: CORSICA
    distance:
      value: 16.1
      units: km
  - name: PLATTE
    distance:
      value: 19.13
      units: km
- country: US
  region: SD
  name: New Underwood
  lat: '44.0987'
  long: "-102.8405"
  nearby_rate_centers:
  - name: NEWUNDERWD
    distance:
      value: 1.25
      units: km
  - name: WICKSVILLE
    distance:
      value: 21.54
      units: km
  - name: RAPID CITY
    distance:
      value: 30.48
      units: km
- country: US
  region: SD
  name: Newdale Colony
  lat: '44.2900'
  long: "-96.5242"
  nearby_rate_centers:
  - name: ELKTON
    distance:
      value: 7.21
      units: km
  - name: WHITE
    distance:
      value: 18.82
      units: km
  - name: BROOKINGS
    distance:
      value: 21.23
      units: km
  - name: BROOKINGSR
    distance:
      value: 21.23
      units: km
- country: US
  region: SD
  name: Newell
  lat: '44.7174'
  long: "-103.4183"
  nearby_rate_centers:
  - name: NEWELL
    distance:
      value: 0.92
      units: km
  - name: NISLAND
    distance:
      value: 10.57
      units: km
  - name: WHITEWOOD
    distance:
      value: 33.28
      units: km
- country: US
  region: SD
  name: Newport Colony
  lat: '45.6791'
  long: "-97.9328"
  nearby_rate_centers:
  - name: CLAREMONT
    distance:
      value: 6.06
      units: km
  - name: LANGFORD
    distance:
      value: 11.27
      units: km
  - name: BRITTON
    distance:
      value: 19.06
      units: km
- country: US
  region: SD
  name: Nisland
  lat: '44.6731'
  long: "-103.5538"
  nearby_rate_centers:
  - name: NISLAND
    distance:
      value: 1.24
      units: km
  - name: NEWELL
    distance:
      value: 12.37
      units: km
  - name: BELLEFORCH
    distance:
      value: 23.41
      units: km
- country: US
  region: SD
  name: Norfeld Colony
  lat: '44.4233'
  long: "-96.5561"
  nearby_rate_centers:
  - name: WHITE
    distance:
      value: 7.58
      units: km
  - name: WHENDRICKS
    distance:
      value: 8.94
      units: km
  - name: ASTORIA
    distance:
      value: 15.08
      units: km
- country: US
  region: SD
  name: Norris
  lat: '43.4721'
  long: "-101.1928"
  nearby_rate_centers:
  - name: LONGVALLEY
    distance:
      value: 24.64
      units: km
  - name: WHITERIVER
    distance:
      value: 37.1
      units: km
  - name: ROSEBUD
    distance:
      value: 39.48
      units: km
- country: US
  region: SD
  name: North Eagle Butte
  lat: '45.0172'
  long: "-101.2362"
  nearby_rate_centers:
  - name: EAGLEBUTTE
    distance:
      value: 1.76
      units: km
  - name: DUPREE
    distance:
      value: 29.5
      units: km
  - name: ISABEL
    distance:
      value: 44.22
      units: km
- country: US
  region: SD
  name: North Sioux City
  lat: '42.5350'
  long: "-96.4998"
  nearby_rate_centers:
  - name: NOSIOUX CY
    distance:
      value: 2.43
      units: km
  - name: JEFFERSON
    distance:
      value: 8.81
      units: km
  - name: ELK POINT
    distance:
      value: 22.51
      units: km
- country: US
  region: SD
  name: North Spearfish
  lat: '44.5107'
  long: "-103.9045"
  nearby_rate_centers:
  - name: SPEARFISH
    distance:
      value: 3.51
      units: km
  - name: BELLEFORCH
    distance:
      value: 18.63
      units: km
  - name: LEAD
    distance:
      value: 20.85
      units: km
- country: US
  region: SD
  name: Northville
  lat: '45.1554'
  long: "-98.5793"
  nearby_rate_centers:
  - name: MELLETTE
    distance:
      value: 6.31
      units: km
  - name: CRESBARD
    distance:
      value: 29.24
      units: km
  - name: REDFIELD
    distance:
      value: 31.56
      units: km
- country: US
  region: SD
  name: Nunda
  lat: '44.1599'
  long: "-97.0194"
  nearby_rate_centers:
  - name: NUNDA
    distance:
      value: 0.51
      units: km
  - name: SINAI
    distance:
      value: 9.34
      units: km
  - name: MADISON
    distance:
      value: 18.34
      units: km
- country: US
  region: SD
  name: Oacoma
  lat: '43.8038'
  long: "-99.3721"
  nearby_rate_centers:
  - name: CHAMBERLAN
    distance:
      value: 3.34
      units: km
  - name: Chamberlain (Midstate Telecom)
    distance:
      value: 3.34
      units: km
  - name: PUKWANA
    distance:
      value: 15.23
      units: km
  - name: RELIANCE
    distance:
      value: 20.1
      units: km
- country: US
  region: SD
  name: Oahe Acres
  lat: '44.4648'
  long: "-100.3449"
  nearby_rate_centers:
  - name: PIERRE
    distance:
      value: 11.06
      units: km
  - name: BLUNT
    distance:
      value: 28.65
      units: km
  - name: ONIDA
    distance:
      value: 34.99
      units: km
- country: US
  region: SD
  name: Oak Lane Colony
  lat: '43.5099'
  long: "-97.7412"
  nearby_rate_centers:
  - name: CLAYTON
    distance:
      value: 9.4
      units: km
  - name: EMERY
    distance:
      value: 13.72
      units: km
  - name: ALEXANDRIA
    distance:
      value: 17.06
      units: km
- country: US
  region: SD
  name: Oelrichs
  lat: '43.1820'
  long: "-103.2334"
  nearby_rate_centers:
  - name: OELRICHS
    distance:
      value: 0.74
      units: km
  - name: ORAL
    distance:
      value: 25.07
      units: km
  - name: HOTSPRINGS
    distance:
      value: 33.52
      units: km
- country: US
  region: SD
  name: Oglala
  lat: '43.1849'
  long: "-102.7268"
  nearby_rate_centers:
  - name: PINE RIDGE
    distance:
      value: 22.66
      units: km
  - name: OELRICHS
    distance:
      value: 41.25
      units: km
  - name: NO GORDON
    distance:
      value: 42.22
      units: km
- country: US
  region: SD
  name: Okaton
  lat: '43.8621'
  long: "-100.9049"
  nearby_rate_centers:
  - name: MURDO
    distance:
      value: 15.27
      units: km
  - name: BELVIDERE
    distance:
      value: 30.72
      units: km
  - name: MIDLAND
    distance:
      value: 31.39
      units: km
- country: US
  region: SD
  name: Okreek
  lat: '43.3533'
  long: "-100.3826"
  nearby_rate_centers:
  - name: WOOD
    distance:
      value: 18.19
      units: km
  - name: MISSION
    distance:
      value: 23.04
      units: km
  - name: WITTEN
    distance:
      value: 25.74
      units: km
- country: US
  region: SD
  name: Ola
  lat: '43.6005'
  long: "-99.2114"
  nearby_rate_centers:
  - name: ACADEMY
    distance:
      value: 19.44
      units: km
  - name: PUKWANA
    distance:
      value: 19.53
      units: km
  - name: Chamberlain (Midstate Telecom)
    distance:
      value: 25.16
      units: km
  - name: CHAMBERLAN
    distance:
      value: 25.16
      units: km
- country: US
  region: SD
  name: Old Elm Spring Colony
  lat: '43.4924'
  long: "-97.7990"
  nearby_rate_centers:
  - name: CLAYTON
    distance:
      value: 11.82
      units: km
  - name: ETHAN
    distance:
      value: 15.74
      units: km
  - name: EMERY
    distance:
      value: 18.43
      units: km
- country: US
  region: SD
  name: Oldham
  lat: '44.2281'
  long: "-97.3096"
  nearby_rate_centers:
  - name: OLDHAMRMON
    distance:
      value: 7.78
      units: km
  - name: LK PRESTON
    distance:
      value: 16.58
      units: km
  - name: ARLINGTON
    distance:
      value: 20.52
      units: km
- country: US
  region: SD
  name: Olivet
  lat: '43.2430'
  long: "-97.6747"
  nearby_rate_centers:
  - name: MENNO
    distance:
      value: 7.48
      units: km
  - name: SCOTLAND
    distance:
      value: 10.96
      units: km
  - name: CLAYTON
    distance:
      value: 22.32
      units: km
- country: US
  region: SD
  name: Onaka
  lat: '45.1912'
  long: "-99.4659"
  nearby_rate_centers:
  - name: ONAKA
    distance:
      value: 0.18
      units: km
  - name: TOLSTOY
    distance:
      value: 12.12
      units: km
  - name: SENECA
    distance:
      value: 14.45
      units: km
- country: US
  region: SD
  name: Onida
  lat: '44.7049'
  long: "-100.0675"
  nearby_rate_centers:
  - name: ONIDA
    distance:
      value: 0.44
      units: km
  - name: BLUNT
    distance:
      value: 21.73
      units: km
  - name: HARROLD
    distance:
      value: 32.63
      units: km
- country: US
  region: SD
  name: Oral
  lat: '43.4100'
  long: "-103.2648"
  nearby_rate_centers:
  - name: ORAL
    distance:
      value: 0.46
      units: km
  - name: BUFFALOGAP
    distance:
      value: 9.91
      units: km
  - name: HOTSPRINGS
    distance:
      value: 17.18
      units: km
- country: US
  region: SD
  name: Orient
  lat: '44.9017'
  long: "-99.0888"
  nearby_rate_centers:
  - name: ORIENT
    distance:
      value: 0.27
      units: km
  - name: FAULKTON
    distance:
      value: 15.26
      units: km
  - name: CRESBARD
    distance:
      value: 32.11
      units: km
- country: US
  region: SD
  name: Orland Colony
  lat: '43.8216'
  long: "-97.1990"
  nearby_rate_centers:
  - name: CENTER
    distance:
      value: 10.94
      units: km
  - name: SALEM
    distance:
      value: 18.24
      units: km
  - name: COLTON
    distance:
      value: 21.8
      units: km
- country: US
  region: SD
  name: Ortley
  lat: '45.3349'
  long: "-97.2050"
  nearby_rate_centers:
  - name: WAUBAY
    distance:
      value: 7.24
      units: km
  - name: SUMMIT
    distance:
      value: 13.87
      units: km
  - name: WEBSTER
    distance:
      value: 24.54
      units: km
- country: US
  region: SD
  name: Parker
  lat: '43.3978'
  long: "-97.1334"
  nearby_rate_centers:
  - name: PARKER
    distance:
      value: 0.6
      units: km
  - name: MARION
    distance:
      value: 10.57
      units: km
  - name: HURLEY
    distance:
      value: 12.99
      units: km
- country: US
  region: SD
  name: Parkston
