---
cities:
  us:
    VT:
    - name: Algiers
      region: VT
      lat: '42.8182'
      long: "-72.5771"
    - name: Ascutney
      region: VT
      lat: '43.4080'
      long: "-72.4070"
    - name: Bakersfield
      region: VT
      lat: '44.7821'
      long: "-72.8032"
    - name: Barre
      region: VT
      lat: '44.1998'
      long: "-72.5085"
    - name: Beecher Falls
      region: VT
      lat: '45.0091'
      long: "-71.4936"
    - name: Bellows Falls
      region: VT
      lat: '43.1344'
      long: "-72.4550"
    - name: Bolton
      region: VT
      lat: '44.3742'
      long: "-72.8859"
    - name: Bolton Valley
      region: VT
      lat: '44.4166'
      long: "-72.8576"
    - name: Burlington
      region: VT
      lat: '44.4876'
      long: "-73.2316"
    - name: Castleton Four Corners
      region: VT
      lat: '43.6105'
      long: "-73.2104"
    - name: Chimney Hill
      region: VT
      lat: '42.8888'
      long: "-72.9040"
    - name: Chittenden
      region: VT
      lat: '43.7039'
      long: "-72.9494"
    - name: Danby
      region: VT
      lat: '43.3452'
      long: "-72.9946"
    - name: Derby Center
      region: VT
      lat: '44.9549'
      long: "-72.1361"
    - name: Derby Line
      region: VT
      lat: '45.0008'
      long: "-72.1035"
    - name: East Barre
      region: VT
      lat: '44.1500'
      long: "-72.4498"
    - name: East Burke
      region: VT
      lat: '44.5875'
      long: "-71.9403"
    - name: East Charlotte
      region: VT
      lat: '44.3184'
      long: "-73.1909"
    - name: East Dorset
      region: VT
      lat: '43.2450'
      long: "-73.0069"
    - name: East Middlebury
      region: VT
      lat: '43.9746'
      long: "-73.1052"
    - name: East Poultney
      region: VT
      lat: '43.5259'
      long: "-73.2107"
    - name: Enosburg Falls
      region: VT
      lat: '44.9083'
      long: "-72.8026"
    - name: Essex Junction
      region: VT
      lat: '44.4902'
      long: "-73.1141"
    - name: Gilman
      region: VT
      lat: '44.4135'
      long: "-71.7157"
    - name: Grafton
      region: VT
      lat: '43.1706'
      long: "-72.6084"
    - name: Graniteville
      region: VT
      lat: '44.1463'
      long: "-72.4818"
    - name: Greensboro Bend
      region: VT
      lat: '44.5582'
      long: "-72.2643"
    - name: Hanksville
      region: VT
      lat: '44.2514'
      long: "-72.9614"
    - name: Harmonyville
      region: VT
      lat: '43.0372'
      long: "-72.6657"
    - name: Hartford Village
      region: VT
      lat: '43.6638'
      long: "-72.3364"
    - name: Highgate Center
      region: VT
      lat: '44.9375'
      long: "-73.0421"
    - name: Highgate Springs
      region: VT
      lat: '44.9782'
      long: "-73.1056"
    - name: Huntington
      region: VT
      lat: '44.3274'
      long: "-72.9892"
    - name: Huntington Center
      region: VT
      lat: '44.2906'
      long: "-72.9672"
    - name: Island Pond
      region: VT
      lat: '44.8125'
      long: "-71.8862"
    - name: Jacksonville
      region: VT
      lat: '42.7976'
      long: "-72.8192"
    - name: Jamaica
      region: VT
      lat: '43.0975'
      long: "-72.7784"
    - name: Jeffersonville
      region: VT
      lat: '44.6427'
      long: "-72.8282"
    - name: Killington Village
      region: VT
      lat: '43.6505'
      long: "-72.7851"
    - name: Lincoln
      region: VT
      lat: '44.1028'
      long: "-72.9937"
    - name: Londonderry
      region: VT
      lat: '43.2278'
      long: "-72.8083"
    - name: Lunenburg
      region: VT
      lat: '44.4570'
      long: "-71.6803"
    - name: Lyndon
      region: VT
      lat: '44.5154'
      long: "-72.0134"
    - name: Lyndon Center
      region: VT
      lat: '44.5377'
      long: "-72.0142"
    - name: Lyndonville
      region: VT
      lat: '44.5351'
      long: "-72.0017"
    - name: Manchester Center
      region: VT
      lat: '43.1820'
      long: "-73.0369"
    - name: Middletown Springs
      region: VT
      lat: '43.4865'
      long: "-73.1232"
    - name: Montpelier
      region: VT
      lat: '44.2659'
      long: "-72.5717"
    - name: Morrisville
      region: VT
      lat: '44.5583'
      long: "-72.5933"
    - name: New Haven
      region: VT
      lat: '44.1266'
      long: "-73.1510"
    - name: Newport
      region: VT
      lat: '44.9372'
      long: "-72.2090"
    - name: Newport Center
      region: VT
      lat: '44.9527'
      long: "-72.3065"
    - name: North Bennington
      region: VT
      lat: '42.9240'
      long: "-73.2411"
    - name: North Clarendon
      region: VT
      lat: '43.5722'
      long: "-72.9667"
    - name: North Hartland
      region: VT
      lat: '43.5936'
      long: "-72.3578"
    - name: North Hyde Park
      region: VT
      lat: '44.6702'
      long: "-72.5927"
    - name: North Pownal
      region: VT
      lat: '42.7984'
      long: "-73.2620"
    - name: North Springfield
      region: VT
      lat: '43.3304'
      long: "-72.5277"
    - name: North Troy
      region: VT
      lat: '44.9963'
      long: "-72.4038"
    - name: North Westminster
      region: VT
      lat: '43.1219'
      long: "-72.4554"
    - name: Old Bennington
      region: VT
      lat: '42.8848'
      long: "-73.2143"
    - name: Orleans
      region: VT
      lat: '44.8090'
      long: "-72.2011"
    - name: Pawlet
      region: VT
      lat: '43.3481'
      long: "-73.1743"
    - name: Peacham
      region: VT
      lat: '44.3296'
      long: "-72.1725"
    - name: Pownal
      region: VT
      lat: '42.7653'
      long: "-73.2355"
    - name: Pownal Center
      region: VT
      lat: '42.7977'
      long: "-73.2214"
    - name: Proctor
      region: VT
      lat: '43.6691'
      long: "-73.0405"
    - name: Proctorsville
      region: VT
      lat: '43.3810'
      long: "-72.6373"
    - name: Quechee
      region: VT
      lat: '43.6445'
      long: "-72.4184"
    - name: Rutland
      region: VT
      lat: '43.6092'
      long: "-72.9783"
    - name: Saint George
      region: VT
      lat: '44.3770'
      long: "-73.1300"
    - name: Saxtons River
      region: VT
      lat: '43.1390'
      long: "-72.5102"
    - name: Sheffield
      region: VT
      lat: '44.5996'
      long: "-72.1160"
    - name: South Barre
      region: VT
      lat: '44.1646'
      long: "-72.5038"
    - name: South Burlington
      region: VT
      lat: '44.4622'
      long: "-73.2202"
    - name: South Hero
      region: VT
      lat: '44.6479'
      long: "-73.3017"
    - name: South Lincoln
      region: VT
      lat: '44.0651'
      long: "-72.9748"
    - name: South Londonderry
      region: VT
      lat: '43.1904'
      long: "-72.8118"
    - name: South Royalton
      region: VT
      lat: '43.8123'
      long: "-72.5155"
    - name: South Shaftsbury
      region: VT
      lat: '42.9411'
      long: "-73.2020"
    - name: South Woodstock
      region: VT
      lat: '43.5608'
      long: "-72.5321"
    - name: St. Albans
      region: VT
      lat: '44.8119'
      long: "-73.0849"
    - name: Stamford
      region: VT
      lat: '42.7595'
      long: "-73.0562"
    - name: Stratton Mountain
      region: VT
      lat: '43.1170'
      long: "-72.9025"
    - name: Sutton
      region: VT
      lat: '44.6290'
      long: "-72.0277"
    - name: Townshend
      region: VT
      lat: '43.0470'
      long: "-72.6692"
    - name: Underhill Center
      region: VT
      lat: '44.5080'
      long: "-72.8989"
    - name: Underhill Flats
      region: VT
      lat: '44.5232'
      long: "-72.9463"
    - name: Vergennes
      region: VT
      lat: '44.1664'
      long: "-73.2557"
    - name: Wardsboro
      region: VT
      lat: '43.0435'
      long: "-72.7889"
    - name: Waterbury Center
      region: VT
      lat: '44.3780'
      long: "-72.7208"
    - name: Websterville
      region: VT
      lat: '44.1619'
      long: "-72.4733"
    - name: Wells River
      region: VT
      lat: '44.1538'
      long: "-72.0615"
    - name: West Brattleboro
      region: VT
      lat: '42.8559'
      long: "-72.6018"
    - name: West Burke
      region: VT
      lat: '44.6431'
      long: "-71.9792"
    - name: West Charlotte
      region: VT
      lat: '44.3099'
      long: "-73.2546"
    - name: West Dummerston
      region: VT
      lat: '42.9299'
      long: "-72.6128"
    - name: West Pawlet
      region: VT
      lat: '43.3575'
      long: "-73.2470"
    - name: West Woodstock
      region: VT
      lat: '43.6113'
      long: "-72.5513"
    - name: Westford
      region: VT
      lat: '44.6079'
      long: "-73.0113"
    - name: Weston
      region: VT
      lat: '43.2904'
      long: "-72.7922"
    - name: White River Junction
      region: VT
      lat: '43.6499'
      long: "-72.3290"
    - name: Whitingham
      region: VT
      lat: '42.7892'
      long: "-72.8834"
    - name: Wilder
      region: VT
      lat: '43.6804'
      long: "-72.3168"
    - name: Winooski
      region: VT
      lat: '44.4948'
      long: "-73.1846"
    - name: Wolcott
      region: VT
      lat: '44.5476'
      long: "-72.4617"
